%time,field.header.seq,field.header.stamp,field.header.frame_id,field.boxes0.header.seq,field.boxes0.header.stamp,field.boxes0.header.frame_id,field.boxes0.pose.position.x,field.boxes0.pose.position.y,field.boxes0.pose.position.z,field.boxes0.pose.orientation.x,field.boxes0.pose.orientation.y,field.boxes0.pose.orientation.z,field.boxes0.pose.orientation.w,field.boxes0.scale.x,field.boxes0.scale.y,field.boxes0.scale.z,field.boxes0.id,field.boxes0.pdf,field.boxes1.header.seq,field.boxes1.header.stamp,field.boxes1.header.frame_id,field.boxes1.pose.position.x,field.boxes1.pose.position.y,field.boxes1.pose.position.z,field.boxes1.pose.orientation.x,field.boxes1.pose.orientation.y,field.boxes1.pose.orientation.z,field.boxes1.pose.orientation.w,field.boxes1.scale.x,field.boxes1.scale.y,field.boxes1.scale.z,field.boxes1.id,field.boxes1.pdf,field.boxes2.header.seq,field.boxes2.header.stamp,field.boxes2.header.frame_id,field.boxes2.pose.position.x,field.boxes2.pose.position.y,field.boxes2.pose.position.z,field.boxes2.pose.orientation.x,field.boxes2.pose.orientation.y,field.boxes2.pose.orientation.z,field.boxes2.pose.orientation.w,field.boxes2.scale.x,field.boxes2.scale.y,field.boxes2.scale.z,field.boxes2.id,field.boxes2.pdf,field.boxes3.header.seq,field.boxes3.header.stamp,field.boxes3.header.frame_id,field.boxes3.pose.position.x,field.boxes3.pose.position.y,field.boxes3.pose.position.z,field.boxes3.pose.orientation.x,field.boxes3.pose.orientation.y,field.boxes3.pose.orientation.z,field.boxes3.pose.orientation.w,field.boxes3.scale.x,field.boxes3.scale.y,field.boxes3.scale.z,field.boxes3.id,field.boxes3.pdf,field.boxes4.header.seq,field.boxes4.header.stamp,field.boxes4.header.frame_id,field.boxes4.pose.position.x,field.boxes4.pose.position.y,field.boxes4.pose.position.z,field.boxes4.pose.orientation.x,field.boxes4.pose.orientation.y,field.boxes4.pose.orientation.z,field.boxes4.pose.orientation.w,field.boxes4.scale.x,field.boxes4.scale.y,field.boxes4.scale.z,field.boxes4.id,field.boxes4.pdf,field.boxes5.header.seq,field.boxes5.header.stamp,field.boxes5.header.frame_id,field.boxes5.pose.position.x,field.boxes5.pose.position.y,field.boxes5.pose.position.z,field.boxes5.pose.orientation.x,field.boxes5.pose.orientation.y,field.boxes5.pose.orientation.z,field.boxes5.pose.orientation.w,field.boxes5.scale.x,field.boxes5.scale.y,field.boxes5.scale.z,field.boxes5.id,field.boxes5.pdf,field.boxes6.header.seq,field.boxes6.header.stamp,field.boxes6.header.frame_id,field.boxes6.pose.position.x,field.boxes6.pose.position.y,field.boxes6.pose.position.z,field.boxes6.pose.orientation.x,field.boxes6.pose.orientation.y,field.boxes6.pose.orientation.z,field.boxes6.pose.orientation.w,field.boxes6.scale.x,field.boxes6.scale.y,field.boxes6.scale.z,field.boxes6.id,field.boxes6.pdf,field.boxes7.header.seq,field.boxes7.header.stamp,field.boxes7.header.frame_id,field.boxes7.pose.position.x,field.boxes7.pose.position.y,field.boxes7.pose.position.z,field.boxes7.pose.orientation.x,field.boxes7.pose.orientation.y,field.boxes7.pose.orientation.z,field.boxes7.pose.orientation.w,field.boxes7.scale.x,field.boxes7.scale.y,field.boxes7.scale.z,field.boxes7.id,field.boxes7.pdf,field.boxes8.header.seq,field.boxes8.header.stamp,field.boxes8.header.frame_id,field.boxes8.pose.position.x,field.boxes8.pose.position.y,field.boxes8.pose.position.z,field.boxes8.pose.orientation.x,field.boxes8.pose.orientation.y,field.boxes8.pose.orientation.z,field.boxes8.pose.orientation.w,field.boxes8.scale.x,field.boxes8.scale.y,field.boxes8.scale.z,field.boxes8.id,field.boxes8.pdf
1736135330237817028,1068,1736133946242876529,map,0,1736133946544501543,map,0.8305060547398292,0.3128359629749774,0.07001805529231347,-0.49462781838892234,0.4962673431297206,-0.49099341124139706,0.5176751061586019,0.0,0.0,0.0,0,0.0010000000474974513,0,1736133946544553756,map,0.8561007014209286,-0.2264622695948966,0.06578950290581997,-0.49031558717326773,0.4924071865516564,-0.5027579920562256,0.5141596921490527,0.0,0.0,0.0,1,0.0010000000474974513,0,1736133946544590473,map,0.8566516587019164,-0.2551430964137243,0.19285358963306953,-0.5017980943940185,0.48788759922080505,-0.4884890799944234,0.5210976700344123,0.0,0.0,0.0,16,0.0010000000474974513,0,1736133946544622659,map,0.8584187519306957,0.049722732355606786,0.06953041438368579,-0.4963914496372148,0.4944091265845051,-0.4943046118008752,0.5146047949926216,0.0,0.0,0.0,17,0.0010000000474974513,0,1736133946544651508,map,0.8802496205387349,-0.2637896920282381,0.2827149683458237,-0.47158549910567893,0.4831670467934558,-0.5203476508100605,0.5228719195200583,0.0,0.0,0.0,121,0.0010000000474974513,0,1736133946544676065,map,0.8790636034575277,0.20127858380244112,0.2874478133695549,0.5271294192837621,-0.49337829336651023,0.488430978164342,-0.4900485838462736,0.0,0.0,0.0,122,0.0010000000474974513,0,1736133946544700384,map,0.8741085585800523,0.19881289040905414,0.18980601959676363,-0.48474895250256417,0.5031344712424624,-0.4882587503952129,0.5229508098834347,0.0,0.0,0.0,124,0.0010000000474974513,0,1736133946544723987,map,0.8714155719271627,-0.033859377853063734,0.28753854568908016,0.5570577866476685,-0.509844114504868,0.44563038453048426,-0.48079014301788753,0.0,0.0,0.0,125,0.0010000000474974513,0,1736133946544748306,map,0.8759253606952523,-0.027260488973361516,0.1895942511259631,-0.49637423740291126,0.4958607867290229,-0.505765887187373,0.5019318320098083,0.0,0.0,0.0,126,0.0010000000474974513
1736135330339470524,1069,1736133946242876529,map,0,1736133946544501543,map,0.8305060547398292,0.3128359629749774,0.07001805529231347,-0.49462781838892234,0.4962673431297206,-0.49099341124139706,0.5176751061586019,0.0,0.0,0.0,0,0.0010000000474974513,0,1736133946544553756,map,0.8585587412969111,-0.22787426720694337,0.06459075461994834,-0.4869399323411732,0.49971013356674693,-0.5113648822287873,0.5016824114172396,0.0,0.0,0.0,1,0.0010000000474974513,0,1736133946544590473,map,0.8501227442483865,-0.25401989317825796,0.19392681900905534,-0.5036314894372491,0.47487838504284846,-0.49417836312326985,0.5259596825680843,0.0,0.0,0.0,16,0.0010000000474974513,0,1736133946544622659,map,0.8573581216201076,0.04898959179601363,0.06957818921849934,-0.4860844716229565,0.502425457285474,-0.5013359093680235,0.509855717136378,0.0,0.0,0.0,17,0.0010000000474974513,0,1736133946544651508,map,0.8782735191004298,-0.2642874858726041,0.2825405641655674,-0.5082026669054732,0.5259989148111334,-0.4683336240238149,0.4957003203311398,0.0,0.0,0.0,121,0.0010000000474974513,0,1736133946544676065,map,0.8778500235454283,0.19982612667858096,0.2871775426799506,-0.508165737828346,0.48868999073135866,-0.49264019307691415,0.5101522478843924,0.0,0.0,0.0,122,0.0010000000474974513,0,1736133946544700384,map,0.8777343520207805,0.20005254496301628,0.18900590707136283,-0.4848110174965847,0.502576288930308,-0.48265048932734067,0.5286055772227949,0.0,0.0,0.0,124,0.0010000000474974513,0,1736133946544723987,map,0.8794344094384174,-0.033220711357608686,0.2884446573361185,-0.4758838599648149,0.49787438955058483,-0.5188587836988873,0.5064002435160677,0.0,0.0,0.0,125,0.0010000000474974513,0,1736133946544748306,map,0.874940378657995,-0.02786651130523546,0.19048942728447182,0.6375027381753289,-0.5204612096849929,0.370352026014082,-0.4307548779288015,0.0,0.0,0.0,126,0.0010000000474974513
1736135330438093513,1070,1736133946242876529,map,0,1736133946544501543,map,0.8305060547398292,0.3128359629749774,0.07001805529231347,-0.49462781838892234,0.4962673431297206,-0.49099341124139706,0.5176751061586019,0.0,0.0,0.0,0,0.0010000000474974513,0,1736133946544553756,map,0.8550316613188789,-0.2267997757492964,0.06585007356551306,-0.49550202595574916,0.4998127007558085,-0.49209943169857945,0.5123506179940334,0.0,0.0,0.0,1,0.0010000000474974513,0,1736133946544590473,map,0.8588477408547943,-0.25656080899502853,0.1924592337328121,-0.49108246875534894,0.483890642020882,-0.5024706640939701,0.5217385237556597,0.0,0.0,0.0,16,0.0010000000474974513,0,1736133946544622659,map,0.857138155632934,0.04927002092809912,0.06961353098644574,-0.48300691338387286,0.5027684869757154,-0.5015356618320091,0.5122403244945306,0.0,0.0,0.0,17,0.0010000000474974513,0,1736133946544651508,map,0.881052147995462,-0.2651063127472081,0.2825356589407346,-0.49454187987258325,0.5154797844443554,-0.48388408698395496,0.5055344807676293,0.0,0.0,0.0,121,0.0010000000474974513,0,1736133946544676065,map,0.8800820384458812,0.20128137986309305,0.2871349187652817,-0.5013325164626065,0.47494365039749736,-0.4993565907056507,0.5231990368905504,0.0,0.0,0.0,122,0.07281599193811417,0,1736133946544700384,map,0.8760363981938004,0.19949211920164625,0.18916490917886125,-0.48258155805800157,0.4995724056638634,-0.49124436467895677,0.5255677173235624,0.0,0.0,0.0,124,0.0010000000474974513,0,1736133946544723987,map,0.8730000111557867,-0.034054612707383185,0.2872647436339978,-0.49284829644875866,0.4903682762415837,-0.5034596545371842,0.5129989148104633,0.0,0.0,0.0,125,0.010357026942074299,0,1736133946544748306,map,0.8754382587842728,-0.027887427755802927,0.18948440303076416,0.48146386229612986,-0.49397793934033407,0.5239896127683555,-0.49961308075233524,0.0,0.0,0.0,126,0.0010000000474974513
1736135330537700267,1071,1736133946242876529,map,0,1736133946544501543,map,0.8305060547398292,0.3128359629749774,0.07001805529231347,-0.49462781838892234,0.4962673431297206,-0.49099341124139706,0.5176751061586019,0.0,0.0,0.0,0,0.0010000000474974513,0,1736133946544553756,map,0.86280333749217,-0.2283269666376678,0.06285481655259004,-0.4931948337829983,0.5062031186937089,-0.4989918792385956,0.5015220463832654,0.0,0.0,0.0,1,0.0010000000474974513,0,1736133946544590473,map,0.858468169711728,-0.25569762488079745,0.1926571997720905,-0.5179184886226924,0.5010625245097808,-0.47544800643231544,0.5046245920030137,0.0,0.0,0.0,16,0.0010000000474974513,0,1736133946544622659,map,0.8585833036624273,0.04986876722748995,0.06906890799427362,-0.4873559554868895,0.49487491920311494,-0.49700034512505176,0.520166938531036,0.0,0.0,0.0,17,0.0010000000474974513,0,1736133946544651508,map,0.8819231042706646,-0.2650080774909471,0.28231132996521324,-0.49120098767844844,0.5050823613136219,-0.4904079062197453,0.5129458875073843,0.0,0.0,0.0,121,0.0010000000474974513,0,1736133946544676065,map,0.8817089369687843,0.20252222075980156,0.28703568197107476,-0.5202914598837165,0.4829361706052884,-0.4846082810804958,0.5111010328705842,0.0,0.0,0.0,122,0.22723430395126343,0,1736133946544700384,map,0.8762288932140572,0.20014279295137996,0.18888540231814888,-0.48259864752906484,0.5010918122653785,-0.489955498082528,0.5253086245079344,0.0,0.0,0.0,124,0.004615535493940115,0,1736133946544723987,map,0.874969016016097,-0.0334488973692397,0.28706571955064664,-0.49953932076658675,0.5034966724315135,-0.49921557429471525,0.497730226367706,0.0,0.0,0.0,125,0.06603586673736572,0,1736133946544748306,map,0.8727694271693098,-0.02762289396804217,0.1894826341797537,-0.47191876575316766,0.4816473021551577,-0.5362056810711752,0.5077322349857865,0.0,0.0,0.0,126,0.015871422365307808
1736135330637914211,1072,1736133946242876529,map,0,1736133946544501543,map,0.8305060547398292,0.3128359629749774,0.07001805529231347,-0.49462781838892234,0.4962673431297206,-0.49099341124139706,0.5176751061586019,0.0,0.0,0.0,0,0.0010000000474974513,0,1736133946544553756,map,0.865489357440022,-0.2292569835912647,0.061952188633464605,-0.4891713558044516,0.5177067098619755,-0.4943120215079843,0.498344030381636,0.0,0.0,0.0,1,0.0010000000474974513,0,1736133946544590473,map,0.8581435231406902,-0.25593258448801637,0.19310638499424446,-0.5021520916721186,0.48639162243509415,-0.48929711377605123,0.521396970555736,0.0,0.0,0.0,16,0.002864064881578088,0,1736133946544622659,map,0.8630296900198877,0.05069238469270662,0.06773924673883078,-0.4898018528916614,0.5031637073331036,-0.49425099462880423,0.5124806170336001,0.0,0.0,0.0,17,0.0010000000474974513,0,1736133946544651508,map,0.8833048873442054,-0.2660325602523449,0.2827017520339869,-0.4895476957017089,0.5083936977278991,-0.49696016062740994,0.5048856311016183,0.0,0.0,0.0,121,0.0010000000474974513,0,1736133946544676065,map,0.8795450530865269,0.20067084347981307,0.28741923126161273,0.5297422923415415,-0.4872126224285791,0.4853480125242564,-0.4964214650775584,0.0,0.0,0.0,122,0.2737744152545929,0,1736133946544700384,map,0.8807921028818786,0.20189816222175333,0.18851465256129424,-0.49591939453727035,0.4996687237967773,-0.4699262459607806,0.532507693783193,0.0,0.0,0.0,124,0.0033567503560334444,0,1736133946544723987,map,0.8721822716878498,-0.034493173572973684,0.28759543525212633,-0.5767701464354515,0.4546540015071339,-0.416714726367388,0.5357002650017374,0.0,0.0,0.0,125,0.14607328176498413,0,1736133946544748306,map,0.8706646843738873,-0.028586815720420475,0.19049590090964408,-0.47694185527401706,0.4801804526137436,-0.5298041945449319,0.5111366892114424,0.0,0.0,0.0,126,0.047938667237758636
1736135330737475120,1073,1736133946242876529,map,0,1736133946544501543,map,0.8305060547398292,0.3128359629749774,0.07001805529231347,-0.49462781838892234,0.4962673431297206,-0.49099341124139706,0.5176751061586019,0.0,0.0,0.0,0,0.0010000000474974513,0,1736133946544553756,map,0.854451960643477,-0.22755417644494125,0.0653320050592559,-0.4960060072032822,0.49825784972151177,-0.4953324025599976,0.5102577456377251,0.0,0.0,0.0,1,0.0010000000474974513,0,1736133946544590473,map,0.8571227925894197,-0.25714223864267327,0.19216425539589285,-0.5073820612061355,0.4875461004061566,-0.49127307045396734,0.5133351869799052,0.0,0.0,0.0,16,0.0016876403242349625,0,1736133946544622659,map,0.8564670743202641,0.048478084582494724,0.06904818653666472,-0.48283136420240363,0.49879366687568993,-0.5011616691272727,0.5166388806746108,0.0,0.0,0.0,17,0.0010000000474974513,0,1736133946544651508,map,0.8800830424917783,-0.26684630379721075,0.28187808643485673,-0.4961324908467091,0.5156365427951081,-0.48293398021494044,0.50472396219548,0.0,0.0,0.0,121,0.0010000000474974513,0,1736133946544676065,map,0.8768817075241846,0.19891727662279116,0.28642470762894323,-0.6700532370400488,0.2091521088740251,-0.21202107222159366,0.6799493509223359,0.0,0.0,0.0,122,0.22433501482009888,0,1736133946544700384,map,0.8735302484661196,0.19820513884238414,0.18849361008572316,-0.47790031797930377,0.5000044071392881,-0.4845792033770142,0.535527659949575,0.0,0.0,0.0,124,0.001503701671026647,0,1736133946544723987,map,0.8713384661335062,-0.035069353950068244,0.28688041321134516,-0.5024149146614599,0.5382836493716849,-0.4927086367963589,0.4637544237752269,0.0,0.0,0.0,125,0.13104815781116486,0,1736133946544748306,map,0.8625351144176185,-0.030092964257123753,0.19064549637523615,0.46404558917603883,-0.4985195542259695,0.5489887988094789,-0.4845113455867974,0.0,0.0,0.0,126,0.03613283857703209
1736135330838609382,1074,1736133946242876529,map,0,1736133946544501543,map,0.8305060547398292,0.3128359629749774,0.07001805529231347,-0.49462781838892234,0.4962673431297206,-0.49099341124139706,0.5176751061586019,0.0,0.0,0.0,0,0.0010000000474974513,0,1736133946544553756,map,0.864160214692452,-0.23066385968109662,0.06072319221447445,-0.4884245269527837,0.5215166430781295,-0.5047304233243913,0.48446782373471303,0.0,0.0,0.0,1,0.0010000000474974513,0,1736133946544590473,map,0.8562984336502475,-0.25697830585892967,0.19260146611012036,-0.49432856695947996,0.48639825944532655,-0.49818094988002276,0.5204534006738568,0.0,0.0,0.0,16,0.0010000000474974513,0,1736133946544622659,map,0.8555803226314685,0.04878567207106099,0.06924922358298094,-0.4834727336682801,0.4977857192992899,-0.5014204257100184,0.5167601475944067,0.0,0.0,0.0,17,0.0010000000474974513,0,1736133946544651508,map,0.8786382115773156,-0.2667281289025198,0.28183250593316206,-0.5002553895864452,0.5078166636228632,-0.47801450255793915,0.5131948135756478,0.0,0.0,0.0,121,0.0010000000474974513,0,1736133946544676065,map,0.8721413196340162,0.19749374244530107,0.28635376017163183,-0.5115647567546507,0.48992256842422055,-0.4960239595550291,0.5022326235346734,0.0,0.0,0.0,122,0.17891879379749298,0,1736133946544700384,map,0.8744883665623274,0.19918877498641516,0.18821527178695557,-0.4837071103363601,0.49949629295534487,-0.485222818824751,0.530178932838414,0.0,0.0,0.0,124,0.0010000000474974513,0,1736133946544723987,map,0.8736651886981783,-0.0349878619306337,0.2870039374753371,-0.5335682096585695,0.5367411384915347,-0.46249747976116545,0.46185495245491337,0.0,0.0,0.0,125,0.09225554764270782,0,1736133946544748306,map,0.8760540130237698,-0.028823173904433584,0.1878999606873746,-0.5004679382151513,0.482460129363451,-0.5028486618932414,0.5137190765636941,0.0,0.0,0.0,126,0.018443716689944267
1736135330939030240,1075,1736133946242876529,map,0,1736133946544501543,map,0.8305060547398292,0.3128359629749774,0.07001805529231347,-0.49462781838892234,0.4962673431297206,-0.49099341124139706,0.5176751061586019,0.0,0.0,0.0,0,0.0010000000474974513,0,1736133946544553756,map,0.8595903981659951,-0.22870859920130737,0.06308395579154194,-0.49243332194645195,0.5070614119308181,-0.4979085256462155,0.502479102109052,0.0,0.0,0.0,1,0.0010000000474974513,0,1736133946544590473,map,0.8539152422362627,-0.2556403048556595,0.1932340891585352,-0.4976675830704672,0.47411638509191334,-0.4973940283097234,0.5292823544668783,0.0,0.0,0.0,16,0.0010000000474974513,0,1736133946544622659,map,0.8575961415644755,0.04982594989799867,0.06870705250225242,-0.48810209235168,0.49971095142972954,-0.49711573807947407,0.5147050178663563,0.0,0.0,0.0,17,0.0010000000474974513,0,1736133946544651508,map,0.8782616129531138,-0.26667009917896356,0.2820855323918553,-0.5081320131525692,0.5189792053959679,-0.4733887719079251,0.4983628318881671,0.0,0.0,0.0,121,0.0010000000474974513,0,1736133946544676065,map,0.8709637020930725,0.1974194978569113,0.28667482694887675,-0.5062902216721867,0.48864372122210314,-0.4933315655127075,0.5113917203261358,0.0,0.0,0.0,122,0.2817966639995575,0,1736133946544700384,map,0.8707262442592922,0.19772303553542694,0.18912852163088018,-0.47054661937268843,0.4967739673475905,-0.49115888508421596,0.5390403082938225,0.0,0.0,0.0,124,0.003568466752767563,0,1736133946544723987,map,0.8741679240307656,-0.03450288416667156,0.28736092504274463,-0.5048179640003432,0.5053278973355032,-0.4941420593312457,0.495606864961436,0.0,0.0,0.0,125,0.06865303963422775,0,1736133946544748306,map,0.872407086047162,-0.028632583247994108,0.18875742257475986,-0.4912003278727912,0.48247672027781857,-0.5109521209621047,0.5146517097726856,0.0,0.0,0.0,126,0.015941185876727104
1736135331040152950,1076,1736133946242876529,map,0,1736133946544501543,map,0.8305060547398292,0.3128359629749774,0.07001805529231347,-0.49462781838892234,0.4962673431297206,-0.49099341124139706,0.5176751061586019,0.0,0.0,0.0,0,0.0010000000474974513,0,1736133946544553756,map,0.8604742275741984,-0.2288430674780641,0.0619167350175506,-0.4941660653569256,0.5029436624479512,-0.5014736667634063,0.501369857286974,0.0,0.0,0.0,1,0.0010000000474974513,0,1736133946544590473,map,0.858280450449822,-0.25708692234914465,0.19192789645045677,-0.5017349783122561,0.49106481663532403,-0.4902285208122173,0.5165204301701737,0.0,0.0,0.0,16,0.0010000000474974513,0,1736133946544622659,map,0.8600748899941555,0.05079880956838602,0.06672218268673905,-0.4990869396327283,0.4950929537861026,-0.49286140449282095,0.5127210057728803,0.0,0.0,0.0,17,0.0010000000474974513,0,1736133946544651508,map,0.8786508770590669,-0.2667678993945422,0.2813299293293228,-0.49229560562061847,0.5030697405759471,-0.4905823648928959,0.5137069359659958,0.0,0.0,0.0,121,0.0010000000474974513,0,1736133946544676065,map,0.8740330318585523,0.1995736322575815,0.28602005822806037,-0.5111054927699705,0.4811204557793791,-0.49130690768519114,0.5156663696149124,0.0,0.0,0.0,122,0.36759093403816223,0,1736133946544700384,map,0.8715865429764333,0.1988050575463733,0.18802897891209333,-0.4866275082526637,0.5028244578400776,-0.4798154365432573,0.5292810025538796,0.0,0.0,0.0,124,0.013925641775131226,0,1736133946544723987,map,0.8697395074482381,-0.03470548613513191,0.28644629437072583,-0.4723418848834301,0.528062456337984,-0.526312421691452,0.47014723307102674,0.0,0.0,0.0,125,0.052772700786590576,0,1736133946544748306,map,0.8743348210304145,-0.028372618487437627,0.18749337657141854,0.49386147784206685,-0.5068887888098781,0.5123234459695408,-0.4865072283043694,0.0,0.0,0.0,126,0.011554612778127193
1736135331138049144,1077,1736133946242876529,map,0,1736133946544501543,map,0.8305060547398292,0.3128359629749774,0.07001805529231347,-0.49462781838892234,0.4962673431297206,-0.49099341124139706,0.5176751061586019,0.0,0.0,0.0,0,0.0010000000474974513,0,1736133946544553756,map,0.8538133136462734,-0.22835314248121816,0.0638836751305385,-0.4971798928855876,0.49623028867072644,-0.492382379562075,0.5139331153105747,0.0,0.0,0.0,1,0.0010000000474974513,0,1736133946544590473,map,0.852686562708816,-0.2565391348753072,0.19244899675816018,-0.5047917403323817,0.48638818357898606,-0.48351137307168734,0.5242409616552983,0.0,0.0,0.0,16,0.0010000000474974513,0,1736133946544622659,map,0.8531986338903709,0.04828992729473096,0.06884604644692532,-0.48103357365200944,0.49874221999178525,-0.5039432566086037,0.5156588922300848,0.0,0.0,0.0,17,0.0010000000474974513,0,1736133946544651508,map,0.875487047193553,-0.2679609845966735,0.2807468892474095,-0.500805532659062,0.5046648599562101,-0.48051105582637427,0.5134358020357321,0.0,0.0,0.0,121,0.0010000000474974513,0,1736133946544676065,map,0.8694156026309005,0.19757477967916098,0.2860498155965446,-0.49378056394230896,0.48043442254340973,-0.506803969833783,0.5181826477883202,0.0,0.0,0.0,122,0.4176185429096222,0,1736133946544700384,map,0.8692283451548812,0.19813197740062083,0.1887225792715248,-0.4801118028343227,0.5023480766009217,-0.49022486560384076,0.5261355793502541,0.0,0.0,0.0,124,0.031580086797475815,0,1736133946544723987,map,0.8705137455983825,-0.034392054492649066,0.28663102128999024,-0.48370960022345033,0.5402145966711751,-0.5115392061938785,0.4609998402620181,0.0,0.0,0.0,125,0.03959054499864578,0,1736133946544748306,map,0.8691303604689834,-0.02834474606176523,0.18884250703128924,0.48138342156933317,-0.5120797276651133,0.5300931338011329,-0.4743897379260216,0.0,0.0,0.0,126,0.008687052875757217
1736135331237840108,1078,1736133946242876529,map,0,1736133946544501543,map,0.8305060547398292,0.3128359629749774,0.07001805529231347,-0.49462781838892234,0.4962673431297206,-0.49099341124139706,0.5176751061586019,0.0,0.0,0.0,0,0.0010000000474974513,0,1736133946544553756,map,0.8566119648760786,-0.2299692353653589,0.06193060084843435,-0.4973702685455431,0.5074771504385968,-0.4948366232816447,0.5002264227416175,0.0,0.0,0.0,1,0.0010000000474974513,0,1736133946544590473,map,0.8583558044198051,-0.2596167224436436,0.19059280124880074,-0.5031519332511672,0.50036847129343,-0.4864786594300531,0.5097136832774134,0.0,0.0,0.0,16,0.0010000000474974513,0,1736133946544622659,map,0.8561391039461822,0.04895994070793898,0.0668331573846779,-0.4870008226143399,0.502577907409462,-0.500443729451061,0.5097074841612547,0.0,0.0,0.0,17,0.0010000000474974513,0,1736133946544651508,map,0.8736507690449622,-0.26808559457980474,0.2803600243985561,-0.4938293982807721,0.4920851584795977,-0.4917065073319876,0.521736938356043,0.0,0.0,0.0,121,0.0010000000474974513,0,1736133946544676065,map,0.8724925943056385,0.19777544185750373,0.28500807930663413,-0.5168170434183816,0.4807090491191061,-0.488033609234516,0.5134609527362517,0.0,0.0,0.0,122,0.4066013693809509,0,1736133946544700384,map,0.8652934496158835,0.19463874668360198,0.1879881517378948,-0.47528726951854416,0.5001365984081528,-0.4907560782931788,0.5320938507299517,0.0,0.0,0.0,124,0.03504786640405655,0,1736133946544723987,map,0.8692401466815983,-0.03689628338140531,0.2855344442137713,-0.4960365429884649,0.5147744165004289,-0.5030508382262096,0.48569012991474647,0.0,0.0,0.0,125,0.026988672092556953,0,1736133946544748306,map,0.870485704132191,-0.030759998940538366,0.18678437083745636,0.4825585459052161,-0.5070881292538322,0.5282969928591695,-0.4805217646263806,0.0,0.0,0.0,126,0.005246512126177549
1736135331337673702,1079,1736133946242876529,map,0,1736133946544501543,map,0.8305060547398292,0.3128359629749774,0.07001805529231347,-0.49462781838892234,0.4962673431297206,-0.49099341124139706,0.5176751061586019,0.0,0.0,0.0,0,0.0010000000474974513,0,1736133946544553756,map,0.8565737304720271,-0.22941735696096505,0.06166837449652404,-0.49723878647224706,0.5040677600325765,-0.49041970742773294,0.5080923076467945,0.0,0.0,0.0,1,0.0010000000474974513,0,1736133946544590473,map,0.856067830317045,-0.2581804693512075,0.1910633964885235,-0.5074515410343975,0.4952392900583612,-0.48307488791848985,0.5136824230464225,0.0,0.0,0.0,16,0.0010000000474974513,0,1736133946544622659,map,0.85696836634072,0.049613696586138054,0.06632403736599721,-0.49389726702737213,0.501312154410783,-0.488641666793576,0.5157333952112345,0.0,0.0,0.0,17,0.0010000000474974513,0,1736133946544651508,map,0.8721053386226226,-0.2675570808989995,0.28031429129701657,-0.5008517795343633,0.49687077992523065,-0.47689087323524515,0.5242537725364308,0.0,0.0,0.0,121,0.0010000000474974513,0,1736133946544676065,map,0.8668219440472579,0.19515473000487354,0.28488475860396545,-0.502719834432326,0.48346967377283084,-0.5037856179523001,0.5096370215700053,0.0,0.0,0.0,122,0.3594021499156952,0,1736133946544700384,map,0.8643396613648873,0.19458039562856305,0.18809743578222188,-0.4774269639787748,0.5050601995066654,-0.49412056632101975,0.5223241856154964,0.0,0.0,0.0,124,0.02726658619940281,0,1736133946544723987,map,0.8651108031967805,-0.0369776295887496,0.28533870399062533,-0.5607135940168531,0.48809342037753645,-0.43831780953508753,0.5052153761646844,0.0,0.0,0.0,125,0.019205167889595032,0,1736133946544748306,map,0.8692916897937947,-0.030762674858966478,0.18696866444917415,0.49036469198456895,-0.5058741957936166,0.5164704929546182,-0.48671551936655355,0.0,0.0,0.0,126,0.003543521510437131
1736135331438698246,1080,1736133946242876529,map,0,1736133946544501543,map,0.8305060547398292,0.3128359629749774,0.07001805529231347,-0.49462781838892234,0.4962673431297206,-0.49099341124139706,0.5176751061586019,0.0,0.0,0.0,0,0.0010000000474974513,0,1736133946544553756,map,0.8565737304720271,-0.22941735696096505,0.06166837449652404,-0.49723878647224706,0.5040677600325765,-0.49041970742773294,0.5080923076467945,0.0,0.0,0.0,1,0.0010000000474974513,0,1736133946544590473,map,0.8511250074573,-0.2579795020738951,0.19181889336094785,-0.5076959726297868,0.49457693997963453,-0.4820492766872318,0.5150407213620999,0.0,0.0,0.0,16,0.0010000000474974513,0,1736133946544622659,map,0.8491288000208255,0.04662692760936009,0.06927032861239743,-0.4887417841135848,0.4982659681164569,-0.5027681888409067,0.5099869035260363,0.0,0.0,0.0,17,0.0010000000474974513,0,1736133946544651508,map,0.8704267583813733,-0.26938304908409705,0.2799384453707865,-0.5003532945733249,0.5105219079883732,-0.47921825162415244,0.5092777526888657,0.0,0.0,0.0,121,0.0010000000474974513,0,1736133946544676065,map,0.8670104515382759,0.194361488973884,0.28451730459657193,-0.5220611612039822,0.48370020186964924,-0.4932155185763201,0.5002246604367901,0.0,0.0,0.0,122,0.3258950114250183,0,1736133946544700384,map,0.8657723244485753,0.19440161861023164,0.18686431712003432,-0.48001957792877237,0.5025331899147468,-0.4831977358643626,0.5325049726479049,0.0,0.0,0.0,124,0.02419634722173214,0,1736133946544723987,map,0.8659507582354902,-0.038680987804949815,0.28513471923899486,0.5410985138635932,-0.5323602770787665,0.45354184271280995,-0.46701684187178777,0.0,0.0,0.0,125,0.01396355964243412,0,1736133946544748306,map,0.8637241829735399,-0.032677748608241144,0.1873972861706823,-0.4800930284994265,0.4849169095352375,-0.5270950379527316,0.5064949119178311,0.0,0.0,0.0,126,0.0030615299474447966
1736135331537877054,1081,1736133946242876529,map,0,1736133946544501543,map,0.8305060547398292,0.3128359629749774,0.07001805529231347,-0.49462781838892234,0.4962673431297206,-0.49099341124139706,0.5176751061586019,0.0,0.0,0.0,0,0.0010000000474974513,0,1736133946544553756,map,0.8565737304720271,-0.22941735696096505,0.06166837449652404,-0.49723878647224706,0.5040677600325765,-0.49041970742773294,0.5080923076467945,0.0,0.0,0.0,1,0.0010000000474974513,0,1736133946544590473,map,0.8491061797103636,-0.2568748310611134,0.1921730029053961,-0.5061952857071275,0.4940936968681919,-0.48314386264661635,0.5159551913004754,0.0,0.0,0.0,16,0.0010000000474974513,0,1736133946544622659,map,0.8491288000208255,0.04662692760936009,0.06927032861239743,-0.4887417841135848,0.4982659681164569,-0.5027681888409067,0.5099869035260363,0.0,0.0,0.0,17,0.0010000000474974513,0,1736133946544651508,map,0.8721379898503724,-0.27085070551879087,0.2794955959539347,-0.4991348429179725,0.5089042237098328,-0.47976569707485817,0.511571867469096,0.0,0.0,0.0,121,0.0010000000474974513,0,1736133946544676065,map,0.8606157445281037,0.19143086638510187,0.2845478126814978,-0.49114635239074306,0.48434280118891,-0.508927164568987,0.5149567483134081,0.0,0.0,0.0,122,0.3040226101875305,0,1736133946544700384,map,0.8639177974269283,0.19372871333232494,0.18695206600394962,-0.4806511025132234,0.5041854120181993,-0.48882101070978917,0.5251910199627572,0.0,0.0,0.0,124,0.026119479909539223,0,1736133946544723987,map,0.8653786136762939,-0.038859139434818515,0.2848247147451851,0.5597444250651221,-0.5051028969365593,0.4273073024160244,-0.4989646394452735,0.0,0.0,0.0,125,0.01058448851108551,0,1736133946544748306,map,0.865331728322501,-0.032679848469044995,0.18660945232715942,0.4787290050885011,-0.5071790691471271,0.5351178380020472,-0.4766936447636387,0.0,0.0,0.0,126,0.002871673321351409
1736135331637917710,1082,1736133946242876529,map,0,1736133946544501543,map,0.8305060547398292,0.3128359629749774,0.07001805529231347,-0.49462781838892234,0.4962673431297206,-0.49099341124139706,0.5176751061586019,0.0,0.0,0.0,0,0.0010000000474974513,0,1736133946544553756,map,0.8565737304720271,-0.22941735696096505,0.06166837449652404,-0.49723878647224706,0.5040677600325765,-0.49041970742773294,0.5080923076467945,0.0,0.0,0.0,1,0.0010000000474974513,0,1736133946544590473,map,0.855155706131115,-0.25970555705835896,0.19108058605724434,-0.5067937637878791,0.5006341498680145,-0.48118956262326706,0.5108641050162698,0.0,0.0,0.0,16,0.0010000000474974513,0,1736133946544622659,map,0.8491288000208255,0.04662692760936009,0.06927032861239743,-0.4887417841135848,0.4982659681164569,-0.5027681888409067,0.5099869035260363,0.0,0.0,0.0,17,0.0010000000474974513,0,1736133946544651508,map,0.8736859269026472,-0.2718429974271398,0.27957551786555535,-0.4983920039956975,0.5093544553158676,-0.4848049952000572,0.5070774751772162,0.0,0.0,0.0,121,0.0010000000474974513,0,1736133946544676065,map,0.8665690647038435,0.1948983562749314,0.2844252746328354,-0.5031076877946404,0.4834034058795014,-0.4968620514971184,0.5160735446117182,0.0,0.0,0.0,122,0.2761724293231964,0,1736133946544700384,map,0.8624649635350541,0.1935237330469421,0.18758284747413131,-0.4754657614828572,0.5006382608617796,-0.4957197849149825,0.5268353976933049,0.0,0.0,0.0,124,0.023003719747066498,0,1736133946544723987,map,0.8666265386637007,-0.03863992848061458,0.28498369566156867,-0.5444886606430113,0.4845449880244954,-0.45020151396747443,0.5158166823910554,0.0,0.0,0.0,125,0.0076033128425478935,0,1736133946544748306,map,0.8692849648898716,-0.03256626315197146,0.1857039458720496,-0.5076737558985893,0.49174346432870164,-0.49590723224229344,0.5045113872566348,0.0,0.0,0.0,126,0.0019586868584156036
1736135331737868782,1083,1736133946242876529,map,0,1736133946544501543,map,0.8305060547398292,0.3128359629749774,0.07001805529231347,-0.49462781838892234,0.4962673431297206,-0.49099341124139706,0.5176751061586019,0.0,0.0,0.0,0,0.0010000000474974513,0,1736133946544553756,map,0.8565737304720271,-0.22941735696096505,0.06166837449652404,-0.49723878647224706,0.5040677600325765,-0.49041970742773294,0.5080923076467945,0.0,0.0,0.0,1,0.0010000000474974513,0,1736133946544590473,map,0.8558104657016176,-0.26050654604180973,0.19077407865765086,-0.5007596514506484,0.49394757476347523,-0.4937348989305147,0.5113525344049646,0.0,0.0,0.0,16,0.0010000000474974513,0,1736133946544622659,map,0.8491288000208255,0.04662692760936009,0.06927032861239743,-0.4887417841135848,0.4982659681164569,-0.5027681888409067,0.5099869035260363,0.0,0.0,0.0,17,0.0010000000474974513,0,1736133946544651508,map,0.8736654375672361,-0.2727354228663689,0.2795145125432681,-0.49402906433196475,0.5170376779533961,-0.48454599628784045,0.5038079997908608,0.0,0.0,0.0,121,0.0010000000474974513,0,1736133946544676065,map,0.8705232986869867,0.19626743234590827,0.2841167788493487,-0.5216795007442547,0.47820983679117995,-0.4833861879300664,0.5152704569619886,0.0,0.0,0.0,122,0.26073697209358215,0,1736133946544700384,map,0.8647779137137533,0.19425886590387875,0.18670235276804062,-0.47589563117242834,0.4958276340053117,-0.48909749759559973,0.5370865325377407,0.0,0.0,0.0,124,0.01796313188970089,0,1736133946544723987,map,0.8652779006548001,-0.03922976592165388,0.2852115725181855,-0.5189347428884593,0.598905227717608,-0.45818321207366697,0.40260080105442636,0.0,0.0,0.0,125,0.006048421375453472,0,1736133946544748306,map,0.8665365342580034,-0.03299199795120464,0.18673196155917696,-0.616745734317621,0.652710479285244,-0.32003220665010595,0.30194886345027017,0.0,0.0,0.0,126,0.0014842867385596037
1736135331838054048,1084,1736133946242876529,map,0,1736133946544501543,map,0.8305060547398292,0.3128359629749774,0.07001805529231347,-0.49462781838892234,0.4962673431297206,-0.49099341124139706,0.5176751061586019,0.0,0.0,0.0,0,0.0010000000474974513,0,1736133946544553756,map,0.8565737304720271,-0.22941735696096505,0.06166837449652404,-0.49723878647224706,0.5040677600325765,-0.49041970742773294,0.5080923076467945,0.0,0.0,0.0,1,0.0010000000474974513,0,1736133946544590473,map,0.8466321078328726,-0.25716077189847797,0.19178602201687406,-0.5036532225090535,0.4924060585225862,-0.48498902261650034,0.5183197400524012,0.0,0.0,0.0,16,0.0010000000474974513,0,1736133946544622659,map,0.8491288000208255,0.04662692760936009,0.06927032861239743,-0.4887417841135848,0.4982659681164569,-0.5027681888409067,0.5099869035260363,0.0,0.0,0.0,17,0.0010000000474974513,0,1736133946544651508,map,0.8697738961511209,-0.2733034443913746,0.27785930542240406,-0.49603332454478977,0.5143505265901008,-0.482823752138068,0.5062368033922924,0.0,0.0,0.0,121,0.0010000000474974513,0,1736133946544676065,map,0.8647559706949751,0.19298448987852504,0.28263106919424336,-0.5170106388030166,0.4827070535860984,-0.4867057051032351,0.5126513985182203,0.0,0.0,0.0,122,0.30808427929878235,0,1736133946544700384,map,0.8579369498601124,0.19050757552400582,0.18654877279742327,-0.47092710304162394,0.49929731585958226,-0.49319053838127225,0.5345025227699405,0.0,0.0,0.0,124,0.027876324951648712,0,1736133946544723987,map,0.8671036585695051,-0.03956671921331423,0.28417530199232505,0.5159518303518101,-0.5034493293483818,0.48074585324907765,-0.4992152903498628,0.0,0.0,0.0,125,0.0068232095800340176,0,1736133946544748306,map,0.8638271621853482,-0.03336827562900304,0.18637439829782415,-0.4820201263964224,0.48269435483699813,-0.5231753311734757,0.5108329770177286,0.0,0.0,0.0,126,0.0024312897585332394
1736135331939817786,1085,1736133946242876529,map,0,1736133946544501543,map,0.8305060547398292,0.3128359629749774,0.07001805529231347,-0.49462781838892234,0.4962673431297206,-0.49099341124139706,0.5176751061586019,0.0,0.0,0.0,0,0.0010000000474974513,0,1736133946544553756,map,0.8565737304720271,-0.22941735696096505,0.06166837449652404,-0.49723878647224706,0.5040677600325765,-0.49041970742773294,0.5080923076467945,0.0,0.0,0.0,1,0.0010000000474974513,0,1736133946544590473,map,0.8500534273015556,-0.2597920610783841,0.19006945043950776,-0.49703872417542766,0.4982248081885194,-0.49244548194216736,0.512076160829932,0.0,0.0,0.0,16,0.0010000000474974513,0,1736133946544622659,map,0.8491288000208255,0.04662692760936009,0.06927032861239743,-0.4887417841135848,0.4982659681164569,-0.5027681888409067,0.5099869035260363,0.0,0.0,0.0,17,0.0010000000474974513,0,1736133946544651508,map,0.8664843604359234,-0.27215829629844696,0.277651752534271,-0.49821415825264037,0.50683293889484,-0.48090333964932314,0.5134539925659942,0.0,0.0,0.0,121,0.0010000000474974513,0,1736133946544676065,map,0.8615512622753971,0.19143708362899284,0.28221828176465813,-0.515793524524058,0.4848669501131899,-0.49109516187798874,0.507628429786015,0.0,0.0,0.0,122,0.36205989122390747,0,1736133946544700384,map,0.8559283010249363,0.189662099938547,0.18655862081145982,-0.47591880246286095,0.5031721948928779,-0.4944097623817644,0.5252409186369689,0.0,0.0,0.0,124,0.03714333474636078,0,1736133946544723987,map,0.8619959476547425,-0.041343436932811305,0.2828152957327609,0.5215605675759486,-0.5100369533535852,0.47470048039354906,-0.49243916830181245,0.0,0.0,0.0,125,0.008578959852457047,0,1736133946544748306,map,0.8611778845194545,-0.034846758942241866,0.1847417815867162,0.49520465945080283,-0.49928672555868264,0.5075759548509162,-0.49784712613038556,0.0,0.0,0.0,126,0.0039701908826828
1736135332039896774,1086,1736133946242876529,map,0,1736133946544501543,map,0.8305060547398292,0.3128359629749774,0.07001805529231347,-0.49462781838892234,0.4962673431297206,-0.49099341124139706,0.5176751061586019,0.0,0.0,0.0,0,0.0010000000474974513,0,1736133946544553756,map,0.8565737304720271,-0.22941735696096505,0.06166837449652404,-0.49723878647224706,0.5040677600325765,-0.49041970742773294,0.5080923076467945,0.0,0.0,0.0,1,0.0010000000474974513,0,1736133946544590473,map,0.8486253891197106,-0.25976316617439976,0.19008397563909735,-0.4990484642070485,0.503892041127749,-0.4863202315814838,0.5104273441100404,0.0,0.0,0.0,16,0.0010000000474974513,0,1736133946544622659,map,0.8491288000208255,0.04662692760936009,0.06927032861239743,-0.4887417841135848,0.4982659681164569,-0.5027681888409067,0.5099869035260363,0.0,0.0,0.0,17,0.0016586529091000557,0,1736133946544651508,map,0.8634596669831376,-0.2715056678172193,0.2774546809942389,-0.4942586145391403,0.5056720706732317,-0.484707260340446,0.5148427436296985,0.0,0.0,0.0,121,0.0010000000474974513,0,1736133946544676065,map,0.8581516417352091,0.18972058949742152,0.2822121019501228,-0.5120179247779543,0.4850914469439702,-0.49482248160051,0.5076166314361619,0.0,0.0,0.0,122,0.4864580035209656,0,1736133946544700384,map,0.8568606373830863,0.18992865607640957,0.1854259574476358,-0.48613492868937247,0.5046788600720559,-0.4825891230862116,0.5254329810579378,0.0,0.0,0.0,124,0.08642509579658508,0,1736133946544723987,map,0.8592348510644512,-0.04161905847135812,0.2824590470386798,-0.5050405976691991,0.49965944967936826,-0.492050256007236,0.5031510455273479,0.0,0.0,0.0,125,0.009816314093768597,0,1736133946544748306,map,0.8599244953306925,-0.03545175747093913,0.18441574559816626,0.4887864314979531,-0.5091555566716047,0.526035619077129,-0.47448389957517717,0.0,0.0,0.0,126,0.009073260240256786
1736135332140402493,1087,1736133946242876529,map,0,1736133946544501543,map,0.8305060547398292,0.3128359629749774,0.07001805529231347,-0.49462781838892234,0.4962673431297206,-0.49099341124139706,0.5176751061586019,0.0,0.0,0.0,0,0.0010000000474974513,0,1736133946544553756,map,0.8565737304720271,-0.22941735696096505,0.06166837449652404,-0.49723878647224706,0.5040677600325765,-0.49041970742773294,0.5080923076467945,0.0,0.0,0.0,1,0.0010000000474974513,0,1736133946544590473,map,0.849754849758541,-0.2599707097691944,0.18950069493108274,-0.512170979520349,0.503508456300456,-0.4705188220310195,0.512613070732341,0.0,0.0,0.0,16,0.0010000000474974513,0,1736133946544622659,map,0.8491288000208255,0.04662692760936009,0.06927032861239743,-0.4887417841135848,0.4982659681164569,-0.5027681888409067,0.5099869035260363,0.0,0.0,0.0,17,0.003129182383418083,0,1736133946544651508,map,0.8634596669831376,-0.2715056678172193,0.2774546809942389,-0.4942586145391403,0.5056720706732317,-0.484707260340446,0.5148427436296985,0.0,0.0,0.0,121,0.0010000000474974513,0,1736133946544676065,map,0.8539533602243099,0.1878306060379223,0.2825251854166619,-0.49321337622304856,0.48363582715237885,-0.5072725572937317,0.5152780849463459,0.0,0.0,0.0,122,0.5263594388961792,0,1736133946544700384,map,0.8561117525250259,0.18973071452191936,0.18552313778544563,-0.4833688052517841,0.5060222810866558,-0.48727698877275843,0.5223573349402435,0.0,0.0,0.0,124,0.12327517569065094,0,1736133946544723987,map,0.8565109700456432,-0.041383980903042114,0.28272124023640605,0.5261883397574292,-0.5155628304158539,0.4658412343063693,-0.49021703705280606,0.0,0.0,0.0,125,0.00799582526087761,0,1736133946544748306,map,0.8586663628491595,-0.03538307171396084,0.18453660770462854,0.4971764808047277,-0.5009369749330409,0.505617122323749,-0.496214691129365,0.0,0.0,0.0,126,0.009480010718107224
1736135332240983449,1088,1736133946242876529,map,0,1736133946544501543,map,0.8305060547398292,0.3128359629749774,0.07001805529231347,-0.49462781838892234,0.4962673431297206,-0.49099341124139706,0.5176751061586019,0.0,0.0,0.0,0,0.0010000000474974513,0,1736133946544553756,map,0.8565737304720271,-0.22941735696096505,0.06166837449652404,-0.49723878647224706,0.5040677600325765,-0.49041970742773294,0.5080923076467945,0.0,0.0,0.0,1,0.0010000000474974513,0,1736133946544590473,map,0.849754849758541,-0.2599707097691944,0.18950069493108274,-0.512170979520349,0.503508456300456,-0.4705188220310195,0.512613070732341,0.0,0.0,0.0,16,0.0010000000474974513,0,1736133946544622659,map,0.8491288000208255,0.04662692760936009,0.06927032861239743,-0.4887417841135848,0.4982659681164569,-0.5027681888409067,0.5099869035260363,0.0,0.0,0.0,17,0.003364468226209283,0,1736133946544651508,map,0.8634596669831376,-0.2715056678172193,0.2774546809942389,-0.4942586145391403,0.5056720706732317,-0.484707260340446,0.5148427436296985,0.0,0.0,0.0,121,0.0010000000474974513,0,1736133946544676065,map,0.8533300404330442,0.18805678410570478,0.2823084572788832,-0.5001010255342745,0.48594585374250976,-0.49887910103416044,0.5146603093705384,0.0,0.0,0.0,122,0.5300113558769226,0,1736133946544700384,map,0.8530371262404599,0.1887301474979227,0.18591437937344887,-0.48164679764862073,0.5051941254705999,-0.48941140922812554,0.5227539865196291,0.0,0.0,0.0,124,0.13819022476673126,0,1736133946544723987,map,0.8538570076890298,-0.04181787555874211,0.28285425924726965,-0.5325385740288121,0.4997431020072395,-0.46173702031909264,0.503446544564949,0.0,0.0,0.0,125,0.006114254239946604,0,1736133946544748306,map,0.8560473978773291,-0.03618303649303199,0.1849394436240407,0.49877270634773674,-0.4984886572380418,0.5056623603080688,-0.4970316120482091,0.0,0.0,0.0,126,0.00783766619861126
1736135332339753174,1089,1736133946242876529,map,0,1736133946544501543,map,0.8305060547398292,0.3128359629749774,0.07001805529231347,-0.49462781838892234,0.4962673431297206,-0.49099341124139706,0.5176751061586019,0.0,0.0,0.0,0,0.001254482427611947,0,1736133946544553756,map,0.8565737304720271,-0.22941735696096505,0.06166837449652404,-0.49723878647224706,0.5040677600325765,-0.49041970742773294,0.5080923076467945,0.0,0.0,0.0,1,0.0010000000474974513,0,1736133946544590473,map,0.849754849758541,-0.2599707097691944,0.18950069493108274,-0.512170979520349,0.503508456300456,-0.4705188220310195,0.512613070732341,0.0,0.0,0.0,16,0.0010000000474974513,0,1736133946544622659,map,0.8491288000208255,0.04662692760936009,0.06927032861239743,-0.4887417841135848,0.4982659681164569,-0.5027681888409067,0.5099869035260363,0.0,0.0,0.0,17,0.0026917883660644293,0,1736133946544651508,map,0.8634596669831376,-0.2715056678172193,0.2774546809942389,-0.4942586145391403,0.5056720706732317,-0.484707260340446,0.5148427436296985,0.0,0.0,0.0,121,0.0010000000474974513,0,1736133946544676065,map,0.8554601667326573,0.18912185226548464,0.28184248961133884,-0.5191053543846167,0.4850483011726736,-0.49144143165450527,0.5037291889816342,0.0,0.0,0.0,122,0.5068613290786743,0,1736133946544700384,map,0.8525435252347686,0.18862133387086474,0.18570575894768715,-0.486057693095051,0.5069076150539716,-0.4844100630815274,0.521669895210335,0.0,0.0,0.0,124,0.13607929646968842,0,1736133946544723987,map,0.857245610035432,-0.042985044083015324,0.28211593423046594,0.5131308646194529,-0.5082010041803035,0.4844782359466733,-0.4936692151826197,0.0,0.0,0.0,125,0.006429221946746111,0,1736133946544748306,map,0.8553425603765197,-0.036248007318520147,0.18467405393972064,0.5007903178825512,-0.5008170435554539,0.5019222097704082,-0.4964528595331667,0.0,0.0,0.0,126,0.006695582997053862
1736135332439309147,1090,1736133946242876529,map,0,1736133946544501543,map,0.8305060547398292,0.3128359629749774,0.07001805529231347,-0.49462781838892234,0.4962673431297206,-0.49099341124139706,0.5176751061586019,0.0,0.0,0.0,0,0.0013858575839549303,0,1736133946544553756,map,0.8565737304720271,-0.22941735696096505,0.06166837449652404,-0.49723878647224706,0.5040677600325765,-0.49041970742773294,0.5080923076467945,0.0,0.0,0.0,1,0.0010000000474974513,0,1736133946544590473,map,0.849754849758541,-0.2599707097691944,0.18950069493108274,-0.512170979520349,0.503508456300456,-0.4705188220310195,0.512613070732341,0.0,0.0,0.0,16,0.0010000000474974513,0,1736133946544622659,map,0.8491288000208255,0.04662692760936009,0.06927032861239743,-0.4887417841135848,0.4982659681164569,-0.5027681888409067,0.5099869035260363,0.0,0.0,0.0,17,0.002147500403225422,0,1736133946544651508,map,0.8634596669831376,-0.2715056678172193,0.2774546809942389,-0.4942586145391403,0.5056720706732317,-0.484707260340446,0.5148427436296985,0.0,0.0,0.0,121,0.0010000000474974513,0,1736133946544676065,map,0.8543818512960863,0.18950831885364094,0.28194725387720204,-0.5115330572430016,0.4868461800203776,-0.49425856275211255,0.5069745570474031,0.0,0.0,0.0,122,0.488109290599823,0,1736133946544700384,map,0.8520174185537792,0.18926606854080044,0.18575093561400244,-0.48379875113720405,0.5063209465293935,-0.48763041687538833,0.5213390873909186,0.0,0.0,0.0,124,0.13088317215442657,0,1736133946544723987,map,0.8567244996475993,-0.04251063490160167,0.28229578545405026,-0.529121448192741,0.49506640769222476,-0.46478264114273354,0.5088387185833221,0.0,0.0,0.0,125,0.00549300154671073,0,1736133946544748306,map,0.8599982216402274,-0.036805677778929784,0.1824511207604222,0.500754855511072,-0.5034839224615859,0.5077386058222331,-0.48780121223965417,0.0,0.0,0.0,126,0.005099151283502579
1736135332540224056,1091,1736133946242876529,map,0,1736133946544501543,map,0.8305060547398292,0.3128359629749774,0.07001805529231347,-0.49462781838892234,0.4962673431297206,-0.49099341124139706,0.5176751061586019,0.0,0.0,0.0,0,0.0013189688324928284,0,1736133946544553756,map,0.8565737304720271,-0.22941735696096505,0.06166837449652404,-0.49723878647224706,0.5040677600325765,-0.49041970742773294,0.5080923076467945,0.0,0.0,0.0,1,0.0010000000474974513,0,1736133946544590473,map,0.849754849758541,-0.2599707097691944,0.18950069493108274,-0.512170979520349,0.503508456300456,-0.4705188220310195,0.512613070732341,0.0,0.0,0.0,16,0.0010000000474974513,0,1736133946544622659,map,0.8491288000208255,0.04662692760936009,0.06927032861239743,-0.4887417841135848,0.4982659681164569,-0.5027681888409067,0.5099869035260363,0.0,0.0,0.0,17,0.0017590583302080631,0,1736133946544651508,map,0.8634596669831376,-0.2715056678172193,0.2774546809942389,-0.4942586145391403,0.5056720706732317,-0.484707260340446,0.5148427436296985,0.0,0.0,0.0,121,0.0010000000474974513,0,1736133946544676065,map,0.8494745127472614,0.1870545162115752,0.2828411457516583,-0.4943463236044853,0.48872375719838607,-0.5082265540499453,0.5084059118923978,0.0,0.0,0.0,122,0.46681496500968933,0,1736133946544700384,map,0.8518639379847874,0.18897152597918315,0.18574901693258777,-0.4852011632940052,0.5065400793418622,-0.4921017828063562,0.515589773480128,0.0,0.0,0.0,124,0.12557236850261688,0,1736133946544723987,map,0.8557772072617855,-0.043136555065048196,0.2825525663968079,-0.5246129408704401,0.5034853765010624,-0.46644884568888695,0.5036955551485008,0.0,0.0,0.0,125,0.004250861704349518,0,1736133946544748306,map,0.8558742167551716,-0.0368894233655208,0.18410060735242598,0.49531499882820074,-0.5000961637982017,0.5139935692992407,-0.4902830708979951,0.0,0.0,0.0,126,0.00410791439935565
1736135332640018122,1092,1736133946242876529,map,0,1736133946544501543,map,0.8305060547398292,0.3128359629749774,0.07001805529231347,-0.49462781838892234,0.4962673431297206,-0.49099341124139706,0.5176751061586019,0.0,0.0,0.0,0,0.0010278281988576055,0,1736133946544553756,map,0.8565737304720271,-0.22941735696096505,0.06166837449652404,-0.49723878647224706,0.5040677600325765,-0.49041970742773294,0.5080923076467945,0.0,0.0,0.0,1,0.0010000000474974513,0,1736133946544590473,map,0.849754849758541,-0.2599707097691944,0.18950069493108274,-0.512170979520349,0.503508456300456,-0.4705188220310195,0.512613070732341,0.0,0.0,0.0,16,0.0010000000474974513,0,1736133946544622659,map,0.8491288000208255,0.04662692760936009,0.06927032861239743,-0.4887417841135848,0.4982659681164569,-0.5027681888409067,0.5099869035260363,0.0,0.0,0.0,17,0.0016180549282580614,0,1736133946544651508,map,0.8634596669831376,-0.2715056678172193,0.2774546809942389,-0.4942586145391403,0.5056720706732317,-0.484707260340446,0.5148427436296985,0.0,0.0,0.0,121,0.0010000000474974513,0,1736133946544676065,map,0.8477605780232795,0.18525058950937523,0.28221799976098383,-0.4969814902579256,0.488840364173921,-0.5068161235327119,0.5071310615832902,0.0,0.0,0.0,122,0.4682091474533081,0,1736133946544700384,map,0.8489412762695356,0.18669591868164678,0.18562107014404627,-0.48146191838778285,0.5081117105747803,-0.49248172818022623,0.5171833892612412,0.0,0.0,0.0,124,0.12205356359481812,0,1736133946544723987,map,0.8532313776228333,-0.044800571271138914,0.28161372238477733,0.527485892290969,-0.508088231014995,0.46466937215129317,-0.49768198432591093,0.0,0.0,0.0,125,0.004023131914436817,0,1736133946544748306,map,0.853023427083031,-0.03827497265378953,0.18389351565822942,0.5029001993525742,-0.49799310338119307,0.5041148656643221,-0.4949368249505707,0.0,0.0,0.0,126,0.003975505009293556
1736135332740035653,1093,1736133946242876529,map,0,1736133946544501543,map,0.8305060547398292,0.3128359629749774,0.07001805529231347,-0.49462781838892234,0.4962673431297206,-0.49099341124139706,0.5176751061586019,0.0,0.0,0.0,0,0.0010000000474974513,0,1736133946544553756,map,0.8565737304720271,-0.22941735696096505,0.06166837449652404,-0.49723878647224706,0.5040677600325765,-0.49041970742773294,0.5080923076467945,0.0,0.0,0.0,1,0.0010000000474974513,0,1736133946544590473,map,0.849754849758541,-0.2599707097691944,0.18950069493108274,-0.512170979520349,0.503508456300456,-0.4705188220310195,0.512613070732341,0.0,0.0,0.0,16,0.0010000000474974513,0,1736133946544622659,map,0.8491288000208255,0.04662692760936009,0.06927032861239743,-0.4887417841135848,0.4982659681164569,-0.5027681888409067,0.5099869035260363,0.0,0.0,0.0,17,0.0013103088131174445,0,1736133946544651508,map,0.8634596669831376,-0.2715056678172193,0.2774546809942389,-0.4942586145391403,0.5056720706732317,-0.484707260340446,0.5148427436296985,0.0,0.0,0.0,121,0.0010000000474974513,0,1736133946544676065,map,0.851206771819363,0.18628980966953534,0.2815272897635636,-0.5086670616726835,0.48260989137012794,-0.4913006314961521,0.5166906256286004,0.0,0.0,0.0,122,0.4842429459095001,0,1736133946544700384,map,0.849284596924199,0.18643410866487212,0.18543773611180822,-0.48198312462354814,0.5070630383256859,-0.48696354911881173,0.5229204954595456,0.0,0.0,0.0,124,0.11122693866491318,0,1736133946544723987,map,0.8524123690342775,-0.04517482501155566,0.2817493363228041,0.5206704185169322,-0.504952072663857,0.4737224879066537,-0.49951248637587464,0.0,0.0,0.0,125,0.006142704747617245,0,1736133946544748306,map,0.8529656114808368,-0.03890415555717229,0.18371212302726833,-0.5025587925638741,0.4917102556609716,-0.5025522036381331,0.5030874348590114,0.0,0.0,0.0,126,0.004612403456121683
1736135332840086567,1094,1736133946242876529,map,0,1736133946544501543,map,0.8305060547398292,0.3128359629749774,0.07001805529231347,-0.49462781838892234,0.4962673431297206,-0.49099341124139706,0.5176751061586019,0.0,0.0,0.0,0,0.0010000000474974513,0,1736133946544553756,map,0.8565737304720271,-0.22941735696096505,0.06166837449652404,-0.49723878647224706,0.5040677600325765,-0.49041970742773294,0.5080923076467945,0.0,0.0,0.0,1,0.0010000000474974513,0,1736133946544590473,map,0.849754849758541,-0.2599707097691944,0.18950069493108274,-0.512170979520349,0.503508456300456,-0.4705188220310195,0.512613070732341,0.0,0.0,0.0,16,0.0010000000474974513,0,1736133946544622659,map,0.8491288000208255,0.04662692760936009,0.06927032861239743,-0.4887417841135848,0.4982659681164569,-0.5027681888409067,0.5099869035260363,0.0,0.0,0.0,17,0.0010659114923328161,0,1736133946544651508,map,0.8634596669831376,-0.2715056678172193,0.2774546809942389,-0.4942586145391403,0.5056720706732317,-0.484707260340446,0.5148427436296985,0.0,0.0,0.0,121,0.0010000000474974513,0,1736133946544676065,map,0.8500811493733832,0.18556968315547706,0.28231365392275243,-0.4954591226129767,0.47804528345551983,-0.5029098086107228,0.5225654879425523,0.0,0.0,0.0,122,0.5026564002037048,0,1736133946544700384,map,0.8495353823007825,0.18633771529239643,0.1858781208663213,-0.47944223459015634,0.5034963029992003,-0.486294070212614,0.5292869673753404,0.0,0.0,0.0,124,0.10263648629188538,0,1736133946544723987,map,0.8514885235747209,-0.04529425054790891,0.28249938137818076,-0.5090282819154425,0.5034742983234429,-0.4859157121228022,0.5012881006468438,0.0,0.0,0.0,125,0.01104214321821928,0,1736133946544748306,map,0.8497258292939742,-0.03843547879893916,0.18582668992932844,0.492159758943698,-0.4909871522619323,0.5167747750640636,-0.49965410020101475,0.0,0.0,0.0,126,0.006240672431886196
1736135332939975560,1095,1736133946242876529,map,0,1736133946544501543,map,0.8305060547398292,0.3128359629749774,0.07001805529231347,-0.49462781838892234,0.4962673431297206,-0.49099341124139706,0.5176751061586019,0.0,0.0,0.0,0,0.0010000000474974513,0,1736133946544553756,map,0.8565737304720271,-0.22941735696096505,0.06166837449652404,-0.49723878647224706,0.5040677600325765,-0.49041970742773294,0.5080923076467945,0.0,0.0,0.0,1,0.0010000000474974513,0,1736133946544590473,map,0.849754849758541,-0.2599707097691944,0.18950069493108274,-0.512170979520349,0.503508456300456,-0.4705188220310195,0.512613070732341,0.0,0.0,0.0,16,0.0010000000474974513,0,1736133946544622659,map,0.8491288000208255,0.04662692760936009,0.06927032861239743,-0.4887417841135848,0.4982659681164569,-0.5027681888409067,0.5099869035260363,0.0,0.0,0.0,17,0.0010000000474974513,0,1736133946544651508,map,0.8634596669831376,-0.2715056678172193,0.2774546809942389,-0.4942586145391403,0.5056720706732317,-0.484707260340446,0.5148427436296985,0.0,0.0,0.0,121,0.0010000000474974513,0,1736133946544676065,map,0.8508919151125129,0.18574089550201303,0.282113727581346,-0.5070274089448421,0.47797049178324424,-0.49229980536652757,0.5216400264543005,0.0,0.0,0.0,122,0.5198850035667419,0,1736133946544700384,map,0.8475869475717166,0.1854350589376895,0.18663835808915893,-0.47839890385709133,0.5044068156194144,-0.4891902383719559,0.5266888681438077,0.0,0.0,0.0,124,0.09890959411859512,0,1736133946544723987,map,0.8522239094282575,-0.046015267725041,0.28240888497451205,-0.5048556455460403,0.5072990642061602,-0.4926461662161149,0.49504362588403167,0.0,0.0,0.0,125,0.015250763855874538,0,1736133946544748306,map,0.8488159260683872,-0.0389390809272266,0.18609433519160545,-0.4986121146971955,0.487776232079549,-0.5096002289092199,0.5037538220114461,0.0,0.0,0.0,126,0.007606530096381903
1736135333039754287,1096,1736133946242876529,map,0,1736133946544501543,map,0.8305060547398292,0.3128359629749774,0.07001805529231347,-0.49462781838892234,0.4962673431297206,-0.49099341124139706,0.5176751061586019,0.0,0.0,0.0,0,0.0010000000474974513,0,1736133946544553756,map,0.8565737304720271,-0.22941735696096505,0.06166837449652404,-0.49723878647224706,0.5040677600325765,-0.49041970742773294,0.5080923076467945,0.0,0.0,0.0,1,0.0010000000474974513,0,1736133946544590473,map,0.849754849758541,-0.2599707097691944,0.18950069493108274,-0.512170979520349,0.503508456300456,-0.4705188220310195,0.512613070732341,0.0,0.0,0.0,16,0.0010000000474974513,0,1736133946544622659,map,0.8491288000208255,0.04662692760936009,0.06927032861239743,-0.4887417841135848,0.4982659681164569,-0.5027681888409067,0.5099869035260363,0.0,0.0,0.0,17,0.0010000000474974513,0,1736133946544651508,map,0.8634596669831376,-0.2715056678172193,0.2774546809942389,-0.4942586145391403,0.5056720706732317,-0.484707260340446,0.5148427436296985,0.0,0.0,0.0,121,0.0010000000474974513,0,1736133946544676065,map,0.8458592198615486,0.18422297634908597,0.28126522532133164,-0.5080005670854568,0.4861550273351488,-0.49808620847708096,0.5074434374021803,0.0,0.0,0.0,122,0.5330992937088013,0,1736133946544700384,map,0.8475869475717166,0.1854350589376895,0.18663835808915893,-0.47839890385709133,0.5044068156194144,-0.4891902383719559,0.5266888681438077,0.0,0.0,0.0,124,0.09182773530483246,0,1736133946544723987,map,0.8508749661325656,-0.04680162997602515,0.2806357336425553,-0.5033855240456886,0.5078089030677259,-0.4953599377274162,0.49330686620104014,0.0,0.0,0.0,125,0.026521120220422745,0,1736133946544748306,map,0.8488159260683872,-0.0389390809272266,0.18609433519160545,-0.4986121146971955,0.487776232079549,-0.5096002289092199,0.5037538220114461,0.0,0.0,0.0,126,0.010494014248251915
1736135333139410774,1097,1736133946242876529,map,0,1736133946544501543,map,0.8305060547398292,0.3128359629749774,0.07001805529231347,-0.49462781838892234,0.4962673431297206,-0.49099341124139706,0.5176751061586019,0.0,0.0,0.0,0,0.0010000000474974513,0,1736133946544553756,map,0.8565737304720271,-0.22941735696096505,0.06166837449652404,-0.49723878647224706,0.5040677600325765,-0.49041970742773294,0.5080923076467945,0.0,0.0,0.0,1,0.0010000000474974513,0,1736133946544590473,map,0.849754849758541,-0.2599707097691944,0.18950069493108274,-0.512170979520349,0.503508456300456,-0.4705188220310195,0.512613070732341,0.0,0.0,0.0,16,0.0010000000474974513,0,1736133946544622659,map,0.8491288000208255,0.04662692760936009,0.06927032861239743,-0.4887417841135848,0.4982659681164569,-0.5027681888409067,0.5099869035260363,0.0,0.0,0.0,17,0.0010000000474974513,0,1736133946544651508,map,0.8634596669831376,-0.2715056678172193,0.2774546809942389,-0.4942586145391403,0.5056720706732317,-0.484707260340446,0.5148427436296985,0.0,0.0,0.0,121,0.0010000000474974513,0,1736133946544676065,map,0.8451808399005823,0.18408151045282709,0.2813904948572464,-0.5027817746782632,0.4856489496413428,-0.5009981960932869,0.5102513030604716,0.0,0.0,0.0,122,0.5516044497489929,0,1736133946544700384,map,0.8475869475717166,0.1854350589376895,0.18663835808915893,-0.47839890385709133,0.5044068156194144,-0.4891902383719559,0.5266888681438077,0.0,0.0,0.0,124,0.08622844517230988,0,1736133946544723987,map,0.8488733703659646,-0.046905602742137495,0.28102019372926346,0.4958510412764704,-0.5016793159716335,0.5051401303233034,-0.4972756353655692,0.0,0.0,0.0,125,0.04171761870384216,0,1736133946544748306,map,0.8488159260683872,-0.0389390809272266,0.18609433519160545,-0.4986121146971955,0.487776232079549,-0.5096002289092199,0.5037538220114461,0.0,0.0,0.0,126,0.013908927328884602
