%time,field.boxes0.header.seq,field.boxes0.header.stamp,field.boxes0.header.frame_id,field.boxes0.pose.position.x,field.boxes0.pose.position.y,field.boxes0.pose.position.z,field.boxes0.pose.orientation.x,field.boxes0.pose.orientation.y,field.boxes0.pose.orientation.z,field.boxes0.pose.orientation.w,field.boxes0.scale.x,field.boxes0.scale.y,field.boxes0.scale.z,field.boxes0.id,field.boxes0.pdf,field.boxes1.header.seq,field.boxes1.header.stamp,field.boxes1.header.frame_id,field.boxes1.pose.position.x,field.boxes1.pose.position.y,field.boxes1.pose.position.z,field.boxes1.pose.orientation.x,field.boxes1.pose.orientation.y,field.boxes1.pose.orientation.z,field.boxes1.pose.orientation.w,field.boxes1.scale.x,field.boxes1.scale.y,field.boxes1.scale.z,field.boxes1.id,field.boxes1.pdf,field.boxes2.header.seq,field.boxes2.header.stamp,field.boxes2.header.frame_id,field.boxes2.pose.position.x,field.boxes2.pose.position.y,field.boxes2.pose.position.z,field.boxes2.pose.orientation.x,field.boxes2.pose.orientation.y,field.boxes2.pose.orientation.z,field.boxes2.pose.orientation.w,field.boxes2.scale.x,field.boxes2.scale.y,field.boxes2.scale.z,field.boxes2.id,field.boxes2.pdf,field.boxes3.header.seq,field.boxes3.header.stamp,field.boxes3.header.frame_id,field.boxes3.pose.position.x,field.boxes3.pose.position.y,field.boxes3.pose.position.z,field.boxes3.pose.orientation.x,field.boxes3.pose.orientation.y,field.boxes3.pose.orientation.z,field.boxes3.pose.orientation.w,field.boxes3.scale.x,field.boxes3.scale.y,field.boxes3.scale.z,field.boxes3.id,field.boxes3.pdf,field.boxes4.header.seq,field.boxes4.header.stamp,field.boxes4.header.frame_id,field.boxes4.pose.position.x,field.boxes4.pose.position.y,field.boxes4.pose.position.z,field.boxes4.pose.orientation.x,field.boxes4.pose.orientation.y,field.boxes4.pose.orientation.z,field.boxes4.pose.orientation.w,field.boxes4.scale.x,field.boxes4.scale.y,field.boxes4.scale.z,field.boxes4.id,field.boxes4.pdf,field.boxes5.header.seq,field.boxes5.header.stamp,field.boxes5.header.frame_id,field.boxes5.pose.position.x,field.boxes5.pose.position.y,field.boxes5.pose.position.z,field.boxes5.pose.orientation.x,field.boxes5.pose.orientation.y,field.boxes5.pose.orientation.z,field.boxes5.pose.orientation.w,field.boxes5.scale.x,field.boxes5.scale.y,field.boxes5.scale.z,field.boxes5.id,field.boxes5.pdf,field.boxes6.header.seq,field.boxes6.header.stamp,field.boxes6.header.frame_id,field.boxes6.pose.position.x,field.boxes6.pose.position.y,field.boxes6.pose.position.z,field.boxes6.pose.orientation.x,field.boxes6.pose.orientation.y,field.boxes6.pose.orientation.z,field.boxes6.pose.orientation.w,field.boxes6.scale.x,field.boxes6.scale.y,field.boxes6.scale.z,field.boxes6.id,field.boxes6.pdf,field.boxes7.header.seq,field.boxes7.header.stamp,field.boxes7.header.frame_id,field.boxes7.pose.position.x,field.boxes7.pose.position.y,field.boxes7.pose.position.z,field.boxes7.pose.orientation.x,field.boxes7.pose.orientation.y,field.boxes7.pose.orientation.z,field.boxes7.pose.orientation.w,field.boxes7.scale.x,field.boxes7.scale.y,field.boxes7.scale.z,field.boxes7.id,field.boxes7.pdf,field.boxes8.header.seq,field.boxes8.header.stamp,field.boxes8.header.frame_id,field.boxes8.pose.position.x,field.boxes8.pose.position.y,field.boxes8.pose.position.z,field.boxes8.pose.orientation.x,field.boxes8.pose.orientation.y,field.boxes8.pose.orientation.z,field.boxes8.pose.orientation.w,field.boxes8.scale.x,field.boxes8.scale.y,field.boxes8.scale.z,field.boxes8.id,field.boxes8.pdf,field.pose.pose.position.x,field.pose.pose.position.y,field.pose.pose.position.z,field.pose.pose.orientation.w,field.pose.covariance0,field.pose.covariance1,field.pose.covariance2,field.pose.covariance3,field.pose.covariance4,field.pose.covariance5,field.pose.covariance6,field.pose.covariance7,field.pose.covariance8,field.pose.covariance9,field.pose.covariance10,field.pose.covariance11,field.pose.covariance12,field.pose.covariance13,field.pose.covariance14,field.pose.covariance15,field.pose.covariance16,field.pose.covariance17,field.pose.covariance18,field.pose.covariance19,field.pose.covariance20,field.pose.covariance21,field.pose.covariance22,field.pose.covariance23,field.pose.covariance24,field.pose.covariance25,field.pose.covariance26,field.pose.covariance27,field.pose.covariance28,field.pose.covariance29,field.pose.covariance30,field.pose.covariance31,field.pose.covariance32,field.pose.covariance33,field.pose.covariance34,field.pose.covariance35,field.buttons0,field.buttons1,field.buttons2,field.buttons3,intersection_length,vacuum,desired_box
0.0,0,1735643777088230371,map,0.9806039312472214,-0.219039663726471,0.0212819868660323,0.4836303647315207,-0.4986808712569668,0.5175548448665143,-0.4995558442329015,0.0,0.0,0.0,1,0.1111111119389534,0,1735643777088253974,map,0.9815200209792186,-0.2481047176931327,0.1479127596254849,-0.5043250857093415,0.5069788135822785,-0.4934506924515681,0.495111204298629,0.0,0.0,0.0,16,0.1111111119389534,0,1735643777088270664,map,0.9953023887194612,0.0604367891500873,0.0220640045872815,-0.5091309641181598,0.5024388445292741,-0.4867314653774312,0.5014313008735488,0.0,0.0,0.0,17,0.1111111119389534,0,1735643777088284730,map,1.001498820942676,-0.2530158349654039,0.2361376164472197,-0.3913581916261596,0.6611410237540204,-0.5381517013994372,0.3465891787656948,0.0,0.0,0.0,121,0.1111111119389534,0,1735643777088297367,map,1.0165918313318572,0.2114707725168788,0.2415166791499778,-0.6376857266162225,0.2487605543943753,-0.2568682478882995,0.682271063342231,0.0,0.0,0.0,122,0.1111111119389534,0,1735643777088310956,map,1.0079067594481663,0.2115322588774199,0.1434215990013326,-0.4969893006069573,0.5046626265375352,-0.4743673586709307,0.5227742127209494,0.0,0.0,0.0,124,0.1111111119389534,0,1735643777088322877,map,1.0012520577044035,-0.0241859147492676,0.2419767235743902,0.4771311033380842,-0.5060134298273035,0.5178359707429131,-0.4981387622606135,0.0,0.0,0.0,125,0.1111111119389534,0,1735643777088343858,map,1.0042320295104423,-0.0173060262762146,0.1439503016994283,0.5060708112736841,-0.5017331915961857,0.4946684628644874,-0.4974527618526058,0.0,0.0,0.0,126,0.1111111119389534,0,1735644242188269615,map,0.9742507341088512,0.3296696001343746,0.0270678328059609,-0.5066892399979205,0.4908254397150334,-0.4826058342914511,0.5190838183826639,0.0,0.0,0.0,0,0.1111111119389534,0.952043852822053,0.6146549093823508,-0.206307391375266,1.0,0.0,0.0,0.0,0.0,0.0,0.0,0.0,0.0,0.0,0.0,0.0,0.0,0.0,0.0,0.0,0.0,0.0,0.0,0.0,0.0,0.0,0.0,0.0,0.0,0.0,0.0,0.0,0.0,0.0,0.0,0.0,0.0,0.0,0.0,0.0,0.0,0,0,0,1,1,,0
0.100153498,0,1735643777088230371,map,0.9815682588239028,-0.2185011588216214,0.020737286473586,-0.4998623120739128,0.5126591264955962,-0.4963490869754792,0.4908725627365035,0.0,0.0,0.0,1,0.0,0,1735643777088253974,map,0.984451057911018,-0.2479312495745499,0.1474001748581878,-0.5070868938528366,0.5086492314501868,-0.4900791822322479,0.4939243227159276,0.0,0.0,0.0,16,0.0,0,1735643777088270664,map,0.991050567491389,0.0597982430601264,0.0229761374234133,-0.4946369933775286,0.5038000346793625,-0.4877267124797667,0.5134612193468864,0.0,0.0,0.0,17,0.0,0,1735643777088284730,map,1.006739647300145,-0.2535579211629782,0.2357964625465498,-0.3878820718419001,0.6553088624658829,-0.5432425858198103,0.3535608661448713,0.0,0.0,0.0,121,0.0,0,1735643777088297367,map,1.0243740482140278,0.2159372837730539,0.2413799610049952,-0.5134303969201419,0.4755747130548866,-0.4901805110116997,0.5195584533481259,0.0,0.0,0.0,122,0.0,0,1735643777088310956,map,1.0015521781490928,0.208670010572701,0.1440416293227852,-0.4696136886398415,0.4936136326336792,-0.4966290267125238,0.5377435959142951,0.0,0.0,0.0,124,0.0,0,1735643777088322877,map,0.9978465399679436,-0.0242960736483558,0.2417383724333145,0.571137641835403,-0.5058272553136813,0.4318810996470182,-0.4810605966281222,0.0,0.0,0.0,125,0.0,0,1735643777088343858,map,0.9974979387011684,-0.0182760114675993,0.1448169883903609,-0.4763600663866659,0.4871628342471921,-0.5271940113586926,0.5077597211948432,0.0,0.0,0.0,126,0.0,0,1735644242188269615,map,0.9742507341088512,0.3296696001343746,0.0270678328059609,-0.5066892399979205,0.4908254397150334,-0.4826058342914511,0.5190838183826639,0.0,0.0,0.0,0,0.0,0.9476965456418258,0.6619478504553709,-0.1511353029879507,1.0,1.8899079719253903e-05,-0.0002055969423007,-0.0002398500159942,0.0,0.0,0.0,-0.0002055969423007,0.0022366222753361,0.0026092503249767,0.0,0.0,0.0,-0.0002398500159942,0.0026092503249767,0.0030439593370177,0.0,0.0,0.0,0.0,0.0,0.0,0.0,0.0,0.0,0.0,0.0,0.0,0.0,0.0,0.0,0.0,0.0,0.0,0.0,0.0,0.0,0,0,0,1,2,,0
0.199555828,0,1735643777088230371,map,0.984027890327211,-0.2189478492831978,0.0202534332184966,-0.4981002530494522,0.7491097157781119,-0.3557100281828423,0.2533794535653385,0.0,0.0,0.0,1,0.0,0,1735643777088253974,map,0.9827300784240632,-0.2472220305562592,0.1480277128077356,-0.4027121956875541,0.6985004453746528,-0.5109001744717185,0.2981627525038768,0.0,0.0,0.0,16,0.0,0,1735643777088270664,map,0.9814000187819336,0.0584121627262257,0.0263456473789492,-0.4846180843718317,0.5014762508689218,-0.5050149804098872,0.5085535878113798,0.0,0.0,0.0,17,0.0,0,1735643777088284730,map,1.0054091461090098,-0.2522766992239064,0.2357706974057689,-0.5231319898063201,0.5019727421656357,-0.4511380854226392,0.5204139844827261,0.0,0.0,0.0,121,0.0,0,1735643777088297367,map,1.0123884786951411,0.2115873925979762,0.2413576094816809,0.5150185115758782,-0.494357782548487,0.4919835556794843,-0.4983156595059818,0.0,0.0,0.0,122,0.0,0,1735643777088310956,map,1.0106794264098675,0.214001778294061,0.1427289508182852,-0.4948058899564946,0.506075746291703,-0.47834452191627,0.5198470819696421,0.0,0.0,0.0,124,0.0,0,1735643777088322877,map,1.0117293460780494,-0.021143956975231,0.2413224124762776,-0.4972422771438771,0.507802163027703,-0.5012569302439471,0.4935874501317596,0.0,0.0,0.0,125,0.0,0,1735643777088343858,map,1.0088573229039546,-0.0152673625395597,0.1432346533256997,-0.6143955750467779,0.4584248128151692,-0.3812345887762033,0.5167445758582808,0.0,0.0,0.0,126,0.0,0,1735644242188269615,map,0.97157934439769,0.3319017619844178,0.0265399065580877,-0.4929675961806019,0.4904759905642895,-0.482666073139585,0.5323999564574653,0.0,0.0,0.0,0,0.0,0.9447375968824344,0.6969852072555737,-0.1141859850670534,1.0,3.011014200090932e-05,-0.0003444121150731,-0.0003785622875076,0.0,0.0,0.0,-0.0003444121150731,0.0039463142599802,0.0043287130876883,0.0,0.0,0.0,-0.0003785622875076,0.0043287130876883,0.0047598104143175,0.0,0.0,0.0,0.0,0.0,0.0,0.0,0.0,0.0,0.0,0.0,0.0,0.0,0.0,0.0,0.0,0.0,0.0,0.0,0.0,0.0,0,0,0,1,3,,0
0.299390624,0,1735643777088230371,map,0.991769755654772,-0.2199353897951245,0.0172145994308159,-0.4896699135835468,0.5151436685329941,-0.4944703325916699,0.5003493446464514,0.0,0.0,0.0,1,0.0,0,1735643777088253974,map,0.9727811504414616,-0.2444233881443452,0.1489760669167678,-0.52073701849726,0.4605702242675435,-0.4701803061580438,0.5437264990653454,0.0,0.0,0.0,16,0.0,0,1735643777088270664,map,0.986169072294336,0.0589333547374519,0.0247177246312313,-0.4863858565381425,0.5051035907321146,-0.5021000840849069,0.5061567610445511,0.0,0.0,0.0,17,0.0,0,1735643777088284730,map,1.008013100722562,-0.2536316479258573,0.2360557665203362,-0.3330416958385289,0.6316889776025116,-0.6088253015609564,0.3455199221285232,0.0,0.0,0.0,121,0.0,0,1735643777088297367,map,1.013647298426667,0.2114696043142158,0.2415236030536343,-0.4953478046708306,0.4892408396104439,-0.5039258534149923,0.5112070886881638,0.0,0.0,0.0,122,1.0789998175301091e-43,0,1735643777088310956,map,1.0051586015991982,0.2105919019909852,0.143575258244686,-0.4769960175539636,0.503105258481893,-0.4936035769926174,0.5250860947555356,0.0,0.0,0.0,124,3.053894360646178e-36,0,1735643777088322877,map,0.9988730471444666,-0.023645285465971,0.241725802146598,-0.4819522733474093,0.5174372647654865,-0.5171371706023697,0.4822342066140181,0.0,0.0,0.0,125,0.0,0,1735643777088343858,map,0.9932076877940498,-0.0183485459883206,0.1454607785379267,0.4728003578100247,-0.5075420998445541,0.5360262450946183,-0.4811826089021273,0.0,0.0,0.0,126,0.0,0,1735644242188269615,map,0.971242588716032,0.3316472695192409,0.0266628432773066,-0.4848086538305681,0.4945271366264449,-0.4890321382626854,0.5303310740068579,0.0,0.0,0.0,0,1.2386751740295773e-17,0.9432963469662824,0.6858287195439481,-0.0902131597682567,1.0,2.881421046310813e-05,-0.000210071225368,-0.0003875742129862,0.0,0.0,0.0,-0.000210071225368,0.0033331373491641,0.0024441772231893,0.0,0.0,0.0,-0.0003875742129862,0.0024441772231893,0.005293946869158,0.0,0.0,0.0,0.0,0.0,0.0,0.0,0.0,0.0,0.0,0.0,0.0,0.0,0.0,0.0,0.0,0.0,0.0,0.0,0.0,0.0,0,0,0,1,4,,0
0.399101907,0,1735643777088230371,map,0.9801418185194554,-0.2171417778039352,0.0207900031619455,-0.4975698884517194,0.4925549308668547,-0.4818149851252202,0.526942279850153,0.0,0.0,0.0,1,2.297751225399658e-11,0,1735643777088253974,map,0.9802076006144204,-0.2457872416858445,0.147856278083869,-0.5304530187776506,0.4907360386770556,-0.4615006308093659,0.5146016935220746,0.0,0.0,0.0,16,7.568151834391745e-12,0,1735643777088270664,map,0.9884947265911264,0.0593680055402355,0.0236834952610958,-0.4954692460637981,0.5041900800200063,-0.5006390835879202,0.4996629838187325,0.0,0.0,0.0,17,1.8424459995003417e-05,0,1735643777088284730,map,1.0156018392907384,-0.2555623697590872,0.2357476060059734,-0.3452317474796813,0.6434740582291536,-0.5901079468520808,0.3442801010518202,0.0,0.0,0.0,121,1.3307386876465488e-12,0,1735643777088297367,map,1.0174471481030212,0.2124565735295699,0.2408610507129683,-0.5116897507250584,0.4791768522551597,-0.492714306032587,0.5155538341401333,0.0,0.0,0.0,122,4.409916800796054e-05,0,1735643777088310956,map,1.0071233515043128,0.2110212429088861,0.1430168304874004,-0.4779442091819068,0.5022899435590394,-0.4899144849483652,0.5284486190224342,0.0,0.0,0.0,124,0.000783308816608,0,1735643777088322877,map,1.003580665888851,-0.0232660860228381,0.2410209831634397,0.4581957431953417,-0.5363901104136434,0.5374538297950553,-0.462045118150529,0.0,0.0,0.0,125,4.973743017444576e-08,0,1735643777088343858,map,1.0067428341243476,-0.0171947283664971,0.1432003421139655,0.6492366943635335,-0.499946380462432,0.3563972819045726,-0.4489168172450859,0.0,0.0,0.0,126,5.314537929734797e-07,0,1735644242188269615,map,0.9756890679395483,0.3343618550937904,0.0248905825033715,-0.4986219588489595,0.493445301345545,-0.4858460438320503,0.5213842138254455,0.0,0.0,0.0,0,0.0500626005232334,0.9425827674175928,0.6301525746179351,-0.0677252884112655,1.0,2.5088151459718195e-05,-9.139546818147337e-06,-0.0003742469107646,0.0,0.0,0.0,-9.139546818147337e-06,0.0150658423346208,-0.003052810160446,0.0,0.0,0.0,-0.0003742469107646,-0.003052810160446,0.0062579749280007,0.0,0.0,0.0,0.0,0.0,0.0,0.0,0.0,0.0,0.0,0.0,0.0,0.0,0.0,0.0,0.0,0.0,0.0,0.0,0.0,0.0,0,0,0,1,5,,0
0.497817379,0,1735643777088230371,map,0.9891056707311918,-0.2186179929331565,0.019217453497163,-0.4749798573473976,0.762493562022519,-0.3689632188542384,0.2384614143235265,0.0,0.0,0.0,1,6.340026743600902e-07,0,1735643777088253974,map,0.9792152033331344,-0.2450692090041608,0.1486656554504937,-0.5060197139879985,0.4672726704621103,-0.479644434074278,0.5436373031316727,0.0,0.0,0.0,16,1.0373073564551305e-06,0,1735643777088270664,map,1.0007483860034785,0.0621033767226543,0.0208538603146296,-0.5156574215319047,0.4988159582345199,-0.474203413852272,0.5103049928430019,0.0,0.0,0.0,17,0.0033939676359295,0,1735643777088284730,map,1.0113446334324916,-0.2551453119430792,0.2360951352437408,-0.5072937367168657,0.4736667738866323,-0.4861049924487649,0.5310318147908424,0.0,0.0,0.0,121,2.9824542480128e-07,0,1735643777088297367,map,1.017757505257491,0.2115990784862773,0.2417315019377407,0.5384964268071712,-0.4922925901291192,0.4728559041726076,-0.4940413929105313,0.0,0.0,0.0,122,0.0007368500228039,0,1735643777088310956,map,1.0123810048353403,0.2126136808019043,0.143093398907002,-0.5037501122024683,0.5071423153555163,-0.4646722391408238,0.5226109514770045,0.0,0.0,0.0,124,0.0189013294875621,0,1735643777088322877,map,1.0092043413161549,-0.0233583890838921,0.2419042740988383,0.4868080204632314,-0.5098131854770996,0.5111043832167363,-0.4918137620919146,0.0,0.0,0.0,125,5.450202661450021e-05,0,1735643777088343858,map,0.9994842796955918,-0.0180452276920511,0.1449572521385528,-0.5072543870940639,0.5539929814260194,-0.4967794614397834,0.4347354712881555,0.0,0.0,0.0,126,0.0005036510410718,0,1735644242188269615,map,0.97130641770362,0.3304807107411974,0.0274699259227227,-0.4831884035085272,0.4913068643963686,-0.4973411182956561,0.52706578694155,0.0,0.0,0.0,0,0.2673343122005462,0.94242078907578,0.5806778531814247,-0.0548213626801283,1.0,2.103797779918054e-05,3.245287768454689e-05,-0.0003223232081011,0.0,0.0,0.0,3.245287768454689e-05,0.0247936089182855,-0.0057360991219654,0.0,0.0,0.0,-0.0003223232081011,-0.0057360991219654,0.0060475356030408,0.0,0.0,0.0,0.0,0.0,0.0,0.0,0.0,0.0,0.0,0.0,0.0,0.0,0.0,0.0,0.0,0.0,0.0,0.0,0.0,0.0,0,0,0,1,6,,0
0.599241679,0,1735643777088230371,map,0.979401487325966,-0.2189188471594656,0.0207228399247488,-0.5036913910056902,0.4874530785786782,-0.4778746429487411,0.5294528349508909,0.0,0.0,0.0,1,9.199501619150396e-06,0,1735643777088253974,map,0.985773494578242,-0.2493115549335634,0.1465932641057152,-0.507181333500717,0.4804839288213959,-0.4801917705702508,0.5303943368564543,0.0,0.0,0.0,16,4.1940911614801735e-05,0,1735643777088270664,map,0.9899172689404864,0.0582324554893093,0.0228365163787307,-0.5048368098843163,0.5053285610052005,-0.4910021500731846,0.4986980343271361,0.0,0.0,0.0,17,0.0142547907307744,0,1735643777088284730,map,1.0084473619689662,-0.2568008157487868,0.2356962798473312,-0.3039913157614736,0.6387633645696489,-0.6319600478925168,0.3165393212429661,0.0,0.0,0.0,121,2.220254464191385e-05,0,1735643777088297367,map,1.0158134943512362,0.2093570799977095,0.2409419256724316,-0.5225151977848714,0.472807866928955,-0.4764263666957745,0.5257837066427526,0.0,0.0,0.0,122,0.0021252059377729,0,1735643777088310956,map,1.004266880504692,0.2078120438613521,0.1431608464144456,-0.4877792573699158,0.5049416496502233,-0.4858280747999555,0.5206499863289478,0.0,0.0,0.0,124,0.0588257536292076,0,1735643777088322877,map,1.0004933402507938,-0.0263146132294832,0.2410220214719425,0.4505365049487914,-0.5401035176005173,0.5444280810421773,-0.4570592002758588,0.0,0.0,0.0,125,0.0007387748919427,0,1735643777088343858,map,0.9990107673204198,-0.020172409016352,0.1437413744677936,0.4809065679933877,-0.5051460660830299,0.5287949441412765,-0.4836654131031955,0.0,0.0,0.0,126,0.0055177630856633,0,1735644242188269615,map,0.978682525485868,0.3348867399765505,0.0235551688407858,-0.5066985696705281,0.4912851437822725,-0.4818580689004742,0.5193344475655151,0.0,0.0,0.0,0,0.5020883083343506,0.9421089647099012,0.5400867956022617,-0.0415514998061661,1.0,1.8615959010232077e-05,0.0001037604370408,-0.0003011042349711,0.0,0.0,0.0,0.0001037604370408,0.0311374685194715,-0.0081484829981637,0.0,0.0,0.0,-0.0003011042349711,-0.0081484829981637,0.0062401375096261,0.0,0.0,0.0,0.0,0.0,0.0,0.0,0.0,0.0,0.0,0.0,0.0,0.0,0.0,0.0,0.0,0.0,0.0,0.0,0.0,0.0,0,0,0,1,7,,0
0.699456132,0,1735643777088230371,map,0.9860536796052553,-0.2201069888192124,0.01862672624931,-0.5156583438633154,0.5026338512210377,-0.4711484065801731,0.5093867518770138,0.0,0.0,0.0,1,1.325277116848156e-05,0,1735643777088253974,map,0.984792102249324,-0.2484326160428963,0.1466650346503387,-0.5147411493650478,0.4797814444721774,-0.4751592952628806,0.5282754573286771,0.0,0.0,0.0,16,0.0001399303146172,0,1735643777088270664,map,0.993371986897212,0.0592734081873505,0.0215941382090451,-0.4985468734055223,0.5118402489643511,-0.4899208489425408,0.4994478314389893,0.0,0.0,0.0,17,0.0218720603734254,0,1735643777088284730,map,1.008687038210001,-0.2570801618716294,0.2355965817449668,-0.5009240349126733,0.4613337510005658,-0.4871038345862655,0.5467871027794188,0.0,0.0,0.0,121,8.589966455474496e-05,0,1735643777088297367,map,1.0088732550261228,0.206594408743447,0.2412785880308178,-0.4896734587458619,0.4816584502237546,-0.5111477431998669,0.5166749710887865,0.0,0.0,0.0,122,0.0020943291019648,0,1735643777088310956,map,0.9990902139364448,0.2058112026934759,0.1438513017687771,-0.4670985043463108,0.497142143932843,-0.5021550170524955,0.5315157709911381,0.0,0.0,0.0,124,0.0811677649617195,0,1735643777088322877,map,0.9967102537153498,-0.026490728510583,0.2413328035769668,-0.5627520766004088,0.4203685335156907,-0.4236633047422224,0.571935136642866,0.0,0.0,0.0,125,0.0015201615169644,0,1735643777088343858,map,1.0093492107080009,-0.0197998316650937,0.142906859315073,-0.5728933447453691,0.4880999947417766,-0.4255120559168008,0.5024849260913192,0.0,0.0,0.0,126,0.0125572122633457,0,1735644242188269615,map,0.979194643214319,0.3356239701865815,0.0236033439155303,-0.512221653429252,0.4974767060413221,-0.4773275969573844,0.5121564896468342,0.0,0.0,0.0,0,0.6224518418312073,0.9419048486531528,0.5112938013931015,-0.0323946331514998,1.0,1.658060768631105e-05,0.0001319301694904,-0.0002765496501958,0.0,0.0,0.0,0.0001319301694904,0.0330485405632386,-0.0089754978833262,0.0,0.0,0.0,-0.0002765496501958,-0.0089754978833262,0.0060470577694422,0.0,0.0,0.0,0.0,0.0,0.0,0.0,0.0,0.0,0.0,0.0,0.0,0.0,0.0,0.0,0.0,0.0,0.0,0.0,0.0,0.0,0,0,0,1,8,,0
0.799153029,0,1735643777088230371,map,0.994101285024076,-0.2232845202720214,0.0145709749072017,-0.5064896101692722,0.5177272303638466,-0.4829705842225832,0.4921038554066162,0.0,0.0,0.0,1,7.628477032994851e-05,0,1735643777088253974,map,0.984792102249324,-0.2484326160428963,0.1466650346503387,-0.5147411493650478,0.4797814444721774,-0.4751592952628806,0.5282754573286771,0.0,0.0,0.0,16,0.0003491746902,0,1735643777088270664,map,0.9881034788045544,0.0580407722718184,0.0223381148435053,-0.5035503506262137,0.4941698476506733,-0.4865126533046633,0.515304418990934,0.0,0.0,0.0,17,0.0483311600983142,0,1735643777088284730,map,1.008687038210001,-0.2570801618716294,0.2355965817449668,-0.5009240349126733,0.4613337510005658,-0.4871038345862655,0.5467871027794188,0.0,0.0,0.0,121,9.074643458006904e-05,0,1735643777088297367,map,1.016541652306079,0.2096450595978928,0.2405620850087137,-0.5100715081865187,0.492036717679547,-0.4956201056038465,0.5020832957913457,0.0,0.0,0.0,122,0.0009633432491682,0,1735643777088310956,map,1.0040790599823426,0.2076018022816129,0.1422965152144478,-0.484071501959155,0.4983606929665717,-0.4841714403098072,0.5318734972577719,0.0,0.0,0.0,124,0.0657870173454284,0,1735643777088322877,map,1.0004742118683834,-0.027089967651792,0.2404887428848822,-0.5596208847802262,0.4229097564175961,-0.422703474140152,0.5738410722442687,0.0,0.0,0.0,125,0.0008819961221888,0,1735643777088343858,map,1.004910373836395,-0.0205774301414682,0.1425542961651374,-0.5080625929807019,0.5251606779384652,-0.4939584358888658,0.4712576021404457,0.0,0.0,0.0,126,0.0151341492310166,0,1735644242188269615,map,0.980698864776634,0.3367167219772931,0.0218643209054707,-0.5046214126923944,0.4869298874565948,-0.4759110588173781,0.5308155787551473,0.0,0.0,0.0,0,0.6873466968536377,0.9422705544227694,0.4871000078463023,-0.0327556850020771,1.0,1.580824362283519e-05,4.648878265747046e-05,-0.0002468782212442,0.0,0.0,0.0,4.648878265747046e-05,0.0340591976701377,-0.007908338629274,0.0,0.0,0.0,-0.0002468782212442,-0.007908338629274,0.0053762053292368,0.0,0.0,0.0,0.0,0.0,0.0,0.0,0.0,0.0,0.0,0.0,0.0,0.0,0.0,0.0,0.0,0.0,0.0,0.0,0.0,0.0,0,0,0,1,9,,0
0.899283193,0,1735643777088230371,map,0.9838925347507788,-0.2240847865246519,0.0175197966033057,-0.5039729179967617,0.5020303611214468,-0.4875123790873276,0.506269191907539,0.0,0.0,0.0,1,0.0008598183630965,0,1735643777088253974,map,0.9761963492224316,-0.2497466200093163,0.1472952011226606,-0.5084240712333705,0.4822390270791797,-0.4770025592438254,0.5304894372436191,0.0,0.0,0.0,16,0.0004563566180877,0,1735643777088270664,map,0.9898670529720924,0.0560299712810238,0.0212133978552275,0.509801115105999,-0.5074151874941636,0.4873641609615015,-0.4950846646253892,0.0,0.0,0.0,17,0.0951098576188087,0,1735643777088284730,map,1.008687038210001,-0.2570801618716294,0.2355965817449668,-0.5009240349126733,0.4613337510005658,-0.4871038345862655,0.5467871027794188,0.0,0.0,0.0,121,4.381006147013977e-05,0,1735643777088297367,map,1.0017428253302274,0.2017882188947392,0.2409476562276165,0.5207713649415281,-0.492863569858988,0.4865155328489154,-0.4991846584777302,0.0,0.0,0.0,122,0.0006516503053717,0,1735643777088310956,map,0.9970916379488662,0.2031205431950449,0.1434997082882058,-0.4939657475976968,0.5102142099187399,-0.4785845981643721,0.5163681657471642,0.0,0.0,0.0,124,0.0436380952596664,0,1735643777088322877,map,0.9990923342642684,-0.0282104274360405,0.2401041101918188,0.4367290182090492,-0.5167700441707107,0.5604728735556881,-0.4775841748950556,0.0,0.0,0.0,125,0.0003858975833281,0,1735643777088343858,map,0.9972397394093968,-0.0219421648631727,0.1422210450370276,0.4644393667673773,-0.5294428937274286,0.544453656687313,-0.4555837053693402,0.0,0.0,0.0,126,0.0116611989215016,0,1735644242188269615,map,0.9786925873970652,0.3348136431024219,0.0220709234141438,-0.5102534557755142,0.4911168836422375,-0.4722615961544982,0.5247995829536144,0.0,0.0,0.0,0,0.6705019474029541,0.943011320919332,0.463674515978781,-0.0389032213357206,1.0,1.916603428241778e-05,-0.0001143354714769,-0.0002631753996911,0.0,0.0,0.0,-0.0001143354714769,0.0355920609262417,-0.005821423204845,0.0,0.0,0.0,-0.0002631753996911,-0.005821423204845,0.0051787146230744,0.0,0.0,0.0,0.0,0.0,0.0,0.0,0.0,0.0,0.0,0.0,0.0,0.0,0.0,0.0,0.0,0.0,0.0,0.0,0.0,0.0,0,0,0,1,10,,0
0.999398711,0,1735643777088230371,map,0.981600162984082,-0.2241085470212316,0.0167822836796235,-0.5045589963647987,0.5069098994155651,-0.4860089639401189,0.5022527849914838,0.0,0.0,0.0,1,0.0017469973536208,0,1735643777088253974,map,0.984768853287482,-0.2540698830405246,0.1448504175661983,-0.5101225390201596,0.4896447933302411,-0.4838186547918678,0.5156961128645424,0.0,0.0,0.0,16,0.0002798463974613,0,1735643777088270664,map,0.980767976223732,0.0540041558571597,0.0227889870064243,-0.4981555437640169,0.4986100394691671,-0.4879837257354475,0.5148795647285723,0.0,0.0,0.0,17,0.1078919544816017,0,1735643777088284730,map,1.008687038210001,-0.2570801618716294,0.2355965817449668,-0.5009240349126733,0.4613337510005658,-0.4871038345862655,0.5467871027794188,0.0,0.0,0.0,121,1.5606028682668693e-05,0,1735643777088297367,map,1.0082026717223824,0.2041636447803294,0.240285377602139,-0.5116648985033659,0.4924600003728249,-0.4892651074165998,0.5062626140028134,0.0,0.0,0.0,122,0.0005558169796131,0,1735643777088310956,map,0.9955646433703702,0.2021280183504251,0.1424714643062639,-0.4788453172173231,0.4962411654161581,-0.4873732662710102,0.5356483615673459,0.0,0.0,0.0,124,0.0331525057554245,0,1735643777088322877,map,0.9982262673996376,-0.0314902564402302,0.2409517282061584,-0.5410286742040632,0.4495459530960107,-0.4504864522249506,0.5497802889389278,0.0,0.0,0.0,125,0.000172142725205,0,1735643777088343858,map,0.992065446051792,-0.0253724214970317,0.1432284819918464,0.6021973056420282,-0.5097975534128489,0.3970500678047045,-0.4688455004242174,0.0,0.0,0.0,126,0.0068458374589681,0,1735644242188269615,map,0.9714879240032164,0.329869474525827,0.0229427277442385,-0.5007524870049674,0.4934528176943945,-0.4860940868520418,0.5190990292759973,0.0,0.0,0.0,0,0.6079004406929016,0.9437756200789104,0.4459504529893353,-0.046610764996823,1.0,2.326519958279387e-05,-0.0002394062021777,-0.0002981590547815,0.0,0.0,0.0,-0.0002394062021777,0.0354978431123945,-0.0039261130200627,0.0,0.0,0.0,-0.0002981590547815,-0.0039261130200627,0.005301984677491,0.0,0.0,0.0,0.0,0.0,0.0,0.0,0.0,0.0,0.0,0.0,0.0,0.0,0.0,0.0,0.0,0.0,0.0,0.0,0.0,0.0,0,0,0,1,11,,0
1.099212287,0,1735643777088230371,map,0.9847817422203172,-0.2261718642232108,0.0156236117698276,-0.5023053474383866,0.5223077356281709,-0.4762365969874982,0.4980789806120528,0.0,0.0,0.0,1,0.0021862161811441,0,1735643777088253974,map,0.9812905794461748,-0.2533238557224208,0.1454948864978734,-0.5091320313751203,0.4861366090311174,-0.4846716782083873,0.5191812172355967,0.0,0.0,0.0,16,0.0002452047483529,0,1735643777088270664,map,0.9783288320676852,0.0537162360350812,0.0233277932874647,0.4817551188454045,-0.5127725044303985,0.5129003132148615,-0.4918430978173062,0.0,0.0,0.0,17,0.1192498803138732,0,1735643777088284730,map,1.0053079298384358,-0.2650693955016346,0.2357164426190587,-0.5034454238730129,0.4694696014320767,-0.4927919749856062,0.5322565808915047,0.0,0.0,0.0,121,7.859327524784021e-06,0,1735643777088297367,map,1.005380189079422,0.2028542314984483,0.2408718503766058,-0.5075136197134447,0.4643981394352459,-0.4901726774228219,0.5352523145233294,0.0,0.0,0.0,122,0.0002619544393382,0,1735643777088310956,map,0.99556343244446,0.2022998731606622,0.1428211936048513,-0.4878189844240547,0.4992874240231186,-0.4820597784767781,0.5294932262293469,0.0,0.0,0.0,124,0.0246505588293075,0,1735643777088322877,map,0.9906263457711444,-0.0319468099067212,0.2409958627948746,-0.5616380679312557,0.492297240583797,-0.4357993623222203,0.5022798257580845,0.0,0.0,0.0,125,8.690974937053397e-05,0,1735643777088343858,map,0.9911756499789888,-0.02575911890756,0.1435649341116946,0.5213686707512253,-0.5131552148561683,0.4788936341514304,-0.4852909661164695,0.0,0.0,0.0,126,0.0054866364225745,0,1735644242188269615,map,0.9697152148452448,0.3294867432074345,0.0232709609448084,-0.4994070655513134,0.4938376775570703,-0.4784780770515285,0.5270442684286937,0.0,0.0,0.0,0,0.5901123881340027,0.9440501909578854,0.4302869887537546,-0.0474114078313254,1.0,2.2155713794286963e-05,-0.0002667637279021,-0.000275730632158,0.0,0.0,0.0,-0.0002667637279021,0.0352384747501474,-0.0034609876906167,0.0,0.0,0.0,-0.000275730632158,-0.0034609876906167,0.0048672039394663,0.0,0.0,0.0,0.0,0.0,0.0,0.0,0.0,0.0,0.0,0.0,0.0,0.0,0.0,0.0,0.0,0.0,0.0,0.0,0.0,0.0,0,0,0,1,12,,0
1.199840904,0,1735643777088230371,map,0.9836312758068244,-0.226565456739748,0.0162548264106679,-0.5023588372049815,0.5134255873176979,-0.4836973198699135,0.5000666632762064,0.0,0.0,0.0,1,0.0022772678639739,0,1735643777088253974,map,0.9776728290602515,-0.2524545445776577,0.1463476393821216,-0.5101045154166435,0.4806816140681231,-0.4830276376773105,0.5248074603969469,0.0,0.0,0.0,16,0.0002835068444255,0,1735643777088270664,map,0.9824145538530388,0.0538868350953559,0.0221405536195998,-0.5060580541025149,0.4893516157500189,-0.4718155286412957,0.5308769621802748,0.0,0.0,0.0,17,0.1335205137729644,0,1735643777088284730,map,1.003173928563753,-0.2656811165277204,0.2363483721601688,-0.5043030149069412,0.4868948111572139,-0.4774833990020485,0.5297372138158709,0.0,0.0,0.0,121,8.281391274067573e-06,0,1735643777088297367,map,1.0005367772698388,0.2010293538053433,0.241413853707852,-0.5119462281189932,0.4920582467070863,-0.4891841450932159,0.506447049109484,0.0,0.0,0.0,122,0.000196803259314,0,1735643777088310956,map,0.9929342265838113,0.2010376531521995,0.1435592407601435,-0.4874918252490872,0.5015424829939831,-0.4828995895428634,0.5268916819298616,0.0,0.0,0.0,124,0.0237197577953338,0,1735643777088322877,map,0.9990097168337287,-0.0330500077327427,0.2422557678221143,-0.5204716100887729,0.4809935354254144,-0.4781648236554268,0.5187609501390172,0.0,0.0,0.0,125,7.989356527104974e-05,0,1735643777088343858,map,0.9882626449882534,-0.0265635309367554,0.1444461507385443,-0.5622495224212603,0.4776970766683769,-0.4324195763170479,0.5183572971390841,0.0,0.0,0.0,126,0.0058937352150678,0,1735644242188269615,map,0.9622529530194892,0.3244754835253231,0.0259251721798614,-0.484569543604351,0.4955207312906178,-0.4927692177995031,0.5261464247351194,0.0,0.0,0.0,0,0.5855950713157654,0.9440048185768096,0.4181746413534121,-0.0441665594577704,1.0,2.047613195337736e-05,-0.0002396486486367,-0.0002562873014937,0.0,0.0,0.0,-0.0002396486486367,0.0342883303608489,-0.0036663906374048,0.0,0.0,0.0,-0.0002562873014937,-0.0036663906374048,0.0046191521280388,0.0,0.0,0.0,0.0,0.0,0.0,0.0,0.0,0.0,0.0,0.0,0.0,0.0,0.0,0.0,0.0,0.0,0.0,0.0,0.0,0.0,0,0,0,1,13,,0
1.299258903,0,1735643777088230371,map,0.9797714669094164,-0.224852989427026,0.0178079546329341,-0.5007656049705568,0.5075310209442514,-0.4807884341150493,0.5103807924275341,0.0,0.0,0.0,1,0.0020380313508212,0,1735643777088253974,map,0.9677090177905784,-0.2473339129091064,0.1474580748078522,-0.5149925797611652,0.4777441064566606,-0.4711681740755555,0.5334264366106864,0.0,0.0,0.0,16,0.0002502117422409,0,1735643777088270664,map,0.9807806385540042,0.0541263970532941,0.0230191158531278,-0.4995240871693212,0.4964115479484579,-0.4916093470955638,0.5122221307688162,0.0,0.0,0.0,17,0.1336577832698822,0,1735643777088284730,map,0.9997539233755632,-0.2644860918296843,0.2369342877972253,-0.5066103151363823,0.4845329935545293,-0.4770713015391772,0.5300723912846415,0.0,0.0,0.0,121,5.862760190211702e-06,0,1735643777088297367,map,0.998507209322753,0.2008101508652562,0.2421944150571214,-0.4952999802594025,0.4836738359724291,-0.5037690699313665,0.5166761791792203,0.0,0.0,0.0,122,0.0001225766609422,0,1735643777088310956,map,0.9909892013552756,0.2008634996262545,0.1443502742497418,-0.4844864555374548,0.501533420831164,-0.4827464339334014,0.5298046646781517,0.0,0.0,0.0,124,0.020284354686737,0,1735643777088322877,map,0.9928125161793792,-0.0328256100608862,0.2427223444925139,-0.529629901266803,0.4614970087094782,-0.462322437513441,0.5410828424631032,0.0,0.0,0.0,125,5.476837031892501e-05,0,1735643777088343858,map,0.9925625823382878,-0.0263861348939393,0.144538122397017,-0.4923418906066488,0.5740670196037488,-0.5049531108682781,0.4160154751708023,0.0,0.0,0.0,126,0.0054042227566242,0,1735644242188269615,map,0.962326366100785,0.3254938235644203,0.0261919325800506,-0.4879972684306989,0.4946555503885012,-0.4910548648307909,0.5253947774769366,0.0,0.0,0.0,0,0.5893411636352539,0.9439811513673234,0.4101061431850613,-0.0421033611589708,1.0,1.9020832878027848e-05,-0.0002200484231468,-0.0002386158575752,0.0,0.0,0.0,-0.0002200484231468,0.0326854725215074,-0.0036209154439084,0.0,0.0,0.0,-0.0002386158575752,-0.0036209154439084,0.0043445509241839,0.0,0.0,0.0,0.0,0.0,0.0,0.0,0.0,0.0,0.0,0.0,0.0,0.0,0.0,0.0,0.0,0.0,0.0,0.0,0.0,0.0,0,0,0,1,14,,0
1.399459983,0,1735643777088230371,map,0.9658897514928798,-0.2221851433084792,0.0219067166085414,-0.5014227679404988,0.499041021582625,-0.4898455201521559,0.5094944876596037,0.0,0.0,0.0,1,0.0016059970948845,0,1735643777088253974,map,0.9707042730767989,-0.2525850946172839,0.1475545086644721,-0.5057774761802669,0.4845995648074859,-0.4892170871187072,0.5196335709403326,0.0,0.0,0.0,16,0.0001902182411868,0,1735643777088270664,map,0.970081953942632,0.05137837550841,0.0259252022989225,0.4793183541897267,-0.5110546239999296,0.5145713719991677,-0.4942604472785946,0.0,0.0,0.0,17,0.1218979209661483,0,1735643777088284730,map,0.9955568990971392,-0.2670076373348511,0.2375720829925608,-0.5013161476900593,0.4858984238828539,-0.4836342143112114,0.5279041470579049,0.0,0.0,0.0,121,4.518339665082749e-06,0,1735643777088297367,map,0.9936812931094992,0.1977516831187443,0.2422843686571504,-0.4859568247295068,0.484512146563968,-0.5121353909572419,0.5165377872526498,0.0,0.0,0.0,122,0.0001133408295572,0,1735643777088310956,map,0.9869214802053063,0.1980825656671075,0.144919079734512,-0.4958216264540944,0.5073807280608504,-0.4770124130910714,0.5188302894876999,0.0,0.0,0.0,124,0.0202059019356966,0,1735643777088322877,map,0.9870920757247688,-0.0331913668945118,0.2419817440679789,-0.5222308810389618,0.4605030460081065,-0.4767614206344586,0.5365728275836738,0.0,0.0,0.0,125,5.300600969349034e-05,0,1735643777088343858,map,0.9822877766334384,-0.0265799246212013,0.1450643560954691,0.4415918594570012,-0.5584540230544481,0.5610991643513328,-0.4222481042702809,0.0,0.0,0.0,126,0.0050960197113454,0,1735644242188269615,map,0.9630094415914988,0.3258606682494303,0.0254877664782608,-0.506567563327093,0.4929317058066223,-0.4836103089657058,0.5162641826211839,0.0,0.0,0.0,0,0.6193700432777405,0.94381643586553,0.4056883507934626,-0.0386981816754829,1.0,1.8132614104260907e-05,-0.0001951910238019,-0.0002305605355994,0.0,0.0,0.0,-0.0001951910238019,0.0307796774746873,-0.0035901283451797,0.0,0.0,0.0,-0.0002305605355994,-0.0035901283451797,0.0042172476583117,0.0,0.0,0.0,0.0,0.0,0.0,0.0,0.0,0.0,0.0,0.0,0.0,0.0,0.0,0.0,0.0,0.0,0.0,0.0,0.0,0.0,0,0,0,1,15,,0
1.4995701,0,1735643777088230371,map,0.9703996653273318,-0.2240317973175459,0.0204928519886322,-0.497276668626667,0.4986457930812087,-0.4893674200516243,0.514381002831553,0.0,0.0,0.0,1,0.0009792308555915,0,1735643777088253974,map,0.9681628581649704,-0.2509026493524338,0.1479717414858587,-0.5029458394906172,0.4836145691760625,-0.4921983828137736,0.5204836049053195,0.0,0.0,0.0,16,0.0001233748480444,0,1735643777088270664,map,0.9723160580364332,0.0522548869873092,0.0253380806610943,-0.4955034980868696,0.4977469622275831,-0.497501151382429,0.5091334298099537,0.0,0.0,0.0,17,0.1088848263025283,0,1735643777088284730,map,0.9920564624396998,-0.2656728815439658,0.237976076473068,-0.5034703522591207,0.4769599722432849,-0.487123664990515,0.5307893407746341,0.0,0.0,0.0,121,2.6606323899613926e-06,0,1735643777088297367,map,0.9924487502439524,0.1980366006522685,0.2433966710736341,-0.5055897302261357,0.487841917118016,-0.4989984649004461,0.5073360036696402,0.0,0.0,0.0,122,9.180279448628426e-05,0,1735643777088310956,map,0.9837052573311436,0.1978666231298241,0.1457414756451265,-0.475608834255215,0.5069497464536377,-0.494424438471997,0.5218646050372062,0.0,0.0,0.0,124,0.0186654068529605,0,1735643777088322877,map,0.9865826593689176,-0.0353029403981492,0.2438478604388698,-0.5198678442889846,0.4796611004668963,-0.4787932076767249,0.5200189587465472,0.0,0.0,0.0,125,3.5605160519480705e-05,0,1735643777088343858,map,0.9796477668877202,-0.0288414759080449,0.1463345150488285,-0.549074148844715,0.4839782933657997,-0.450647613666307,0.5110766272468773,0.0,0.0,0.0,126,0.0039308844134211,0,1735644242188269615,map,0.9608160312501728,0.3258431224503524,0.0262978107878819,-0.4975866121814274,0.4980878881962579,-0.48318864243033,0.5204274731759815,0.0,0.0,0.0,0,0.6234800219535828,0.9436264142028942,0.4059446751157938,-0.0359031900432913,1.0,1.7540949206807635e-05,-0.0001837221924228,-0.0002241171364794,0.0,0.0,0.0,-0.0001837221924228,0.0288569331648926,-0.0033549989585653,0.0,0.0,0.0,-0.0002241171364794,-0.0033549989585653,0.0040708493530276,0.0,0.0,0.0,0.0,0.0,0.0,0.0,0.0,0.0,0.0,0.0,0.0,0.0,0.0,0.0,0.0,0.0,0.0,0.0,0.0,0.0,0,0,0,1,16,,0
1.599730522,0,1735643777088230371,map,0.972144535896718,-0.2249069906833801,0.0188998266522682,-0.5044779178943659,0.5006769328749471,-0.4842651137111394,0.5102077409117172,0.0,0.0,0.0,1,0.0006507139187306,0,1735643777088253974,map,0.9681628581649704,-0.2509026493524338,0.1479717414858587,-0.5029458394906172,0.4836145691760625,-0.4921983828137736,0.5204836049053195,0.0,0.0,0.0,16,7.533541065640748e-05,0,1735643777088270664,map,0.9773500075089808,0.0530156757065055,0.0226833671889871,-0.5165198863562389,0.4961896541887546,-0.4637704104340281,0.5214595290916019,0.0,0.0,0.0,17,0.0998928546905517,0,1735643777088284730,map,0.9920564624396998,-0.2656728815439658,0.237976076473068,-0.5034703522591207,0.4769599722432849,-0.487123664990515,0.5307893407746341,0.0,0.0,0.0,121,1.290952013732749e-06,0,1735643777088297367,map,0.9903042802259284,0.1975301155340703,0.2425841913337172,-0.5037550193765725,0.5054589363639465,-0.5003981129139483,0.4902487865307739,0.0,0.0,0.0,122,5.567293192143552e-05,0,1735643777088310956,map,0.983053842733722,0.1979606396249417,0.1451292990604883,-0.4757045596682877,0.5103565844058707,-0.496278046554045,0.5166714905748861,0.0,0.0,0.0,124,0.0153146376833319,0,1735643777088322877,map,0.985580921144355,-0.0351819587302508,0.2433214267423905,0.3404273084938113,-0.5337483736168165,0.6487451858716656,-0.4223169486314757,0.0,0.0,0.0,125,2.0443812900339253e-05,0,1735643777088343858,map,0.9765290721401132,-0.0282848019986281,0.1461212653288083,-0.566041888650281,0.4842278988689995,-0.4325892261509561,0.5079236986676773,0.0,0.0,0.0,126,0.0029326525982469,0,1735644242188269615,map,0.9624162944975636,0.3276710849363551,0.0250668753609235,-0.4986259937693208,0.4892797856552083,-0.4839321388522439,0.5270551154031645,0.0,0.0,0.0,0,0.6238186955451965,0.9436263965755324,0.4041118473287339,-0.0355148657919167,1.0,1.65091286702023e-05,-0.0001729144877065,-0.0002109338850322,0.0,0.0,0.0,-0.0001729144877065,0.0272132146312865,-0.0031690337823026,0.0,0.0,0.0,-0.0002109338850322,-0.0031690337823026,0.0038338003579662,0.0,0.0,0.0,0.0,0.0,0.0,0.0,0.0,0.0,0.0,0.0,0.0,0.0,0.0,0.0,0.0,0.0,0.0,0.0,0.0,0.0,0,0,0,1,17,,0
1.699391802,0,1735643777088230371,map,0.9677778772275843,-0.2259274190614679,0.0199997919302842,-0.5044604345217129,0.4950518499311668,-0.4833149782161023,0.5165752294814989,0.0,0.0,0.0,1,0.0006101003382354,0,1735643777088253974,map,0.9681628581649704,-0.2509026493524338,0.1479717414858587,-0.5029458394906172,0.4836145691760625,-0.4921983828137736,0.5204836049053195,0.0,0.0,0.0,16,5.5758911912562326e-05,0,1735643777088270664,map,0.9768092443723474,0.0504055101998969,0.0224670563758119,-0.5095340318892159,0.5099618024126462,-0.475004331775573,0.5046631700661406,0.0,0.0,0.0,17,0.0968508496880531,0,1735643777088284730,map,0.9920564624396998,-0.2656728815439658,0.237976076473068,-0.5034703522591207,0.4769599722432849,-0.487123664990515,0.5307893407746341,0.0,0.0,0.0,121,6.977890052439761e-07,0,1735643777088297367,map,0.9854106095855184,0.1936066886987421,0.2426366621589842,0.4942862031235397,-0.5011622437346458,0.5071320922415454,-0.4973274533697921,0.0,0.0,0.0,122,2.9745524443569597e-05,0,1735643777088310956,map,0.9817201711397392,0.1953612268662203,0.1453506385448345,-0.4808267671834888,0.5100399905502313,-0.4894453694011157,0.5187562610428922,0.0,0.0,0.0,124,0.0117020178586244,0,1735643777088322877,map,0.9805399269252636,-0.038224639840637,0.2434247486864275,-0.539744755521531,0.477686728306636,-0.4540225591746913,0.5237886064503213,0.0,0.0,0.0,125,1.064552543539321e-05,0,1735643777088343858,map,0.9802890681611554,-0.0320036353153221,0.1457192612358403,-0.539577663664876,0.4816040219695595,-0.4566266379778081,0.5180787820262304,0.0,0.0,0.0,126,0.0022450359538197,0,1735644242188269615,map,0.959755752643159,0.3246667733319291,0.0255097225767428,-0.4980513376099181,0.4953093231551666,-0.4841449552338346,0.521744383603859,0.0,0.0,0.0,0,0.5995945334434509,0.9437436732412288,0.3976481538774455,-0.0359048187994838,1.0,1.5825769732578185e-05,-0.0001761948143513,-0.0001999927864683,0.0,0.0,0.0,-0.0001761948143513,0.0264116180355407,-0.00295012722603,0.0,0.0,0.0,-0.0001999927864683,-0.00295012722603,0.0036233965261081,0.0,0.0,0.0,0.0,0.0,0.0,0.0,0.0,0.0,0.0,0.0,0.0,0.0,0.0,0.0,0.0,0.0,0.0,0.0,0.0,0.0,0,0,0,1,18,,0
1.799226059,0,1735643777088230371,map,0.9664924342087808,-0.2257556743838507,0.0191716102029768,-0.4996741643614272,0.5057158086791008,-0.4896424766823669,0.5048044129661609,0.0,0.0,0.0,1,0.0006314415950328,0,1735643777088253974,map,0.9656399127927592,-0.2532070618443869,0.1464096453224662,-0.5005240755079616,0.4891219073795205,-0.489197353025114,0.5205010656584117,0.0,0.0,0.0,16,3.3485346648376435e-05,0,1735643777088270664,map,0.9706060565261044,0.0495276602601001,0.0235211189003853,-0.493661059910755,0.5001758862789526,-0.4920164425863363,0.5138508158381584,0.0,0.0,0.0,17,0.0918687582015991,0,1735643777088284730,map,0.989901153471216,-0.270811633944347,0.2369496533267851,-0.4967044309088814,0.4905905001069193,-0.4890510236274611,0.5229099021908645,0.0,0.0,0.0,121,2.95792091264957e-07,0,1735643777088297367,map,0.985656785773449,0.1928373629998043,0.241567815248484,0.5056674341740246,-0.5029458235618871,0.5004124222366826,-0.4908496228466817,0.0,0.0,0.0,122,2.5692568669910543e-05,0,1735643777088310956,map,0.980676226316343,0.1940709503696909,0.144339094035534,-0.4870773578911012,0.5043656215514162,-0.4834411237225762,0.524075993650473,0.0,0.0,0.0,124,0.0099153202027082,0,1735643777088322877,map,0.9784791686884484,-0.0389789946019212,0.2421387893347297,-0.5358389019176284,0.4842175570991184,-0.4577085007809442,0.5185681796075932,0.0,0.0,0.0,125,6.660307462880155e-06,0,1735643777088343858,map,0.9730901544304812,-0.0319582695915557,0.1453627604901274,-0.5366229559220963,0.4651851892657593,-0.464674846711626,0.528881678354184,0.0,0.0,0.0,126,0.001550835208036,0,1735644242188269615,map,0.960531482895096,0.3243865020786701,0.0239946073335277,-0.5008442541664071,0.4952204110089837,-0.4821449245395113,0.5210067651474193,0.0,0.0,0.0,0,0.5817552804946899,0.9440597141491046,0.390941806655827,-0.0392237476835036,1.0,1.6790707881613803e-05,-0.0002050720442298,-0.0002083473616966,0.0,0.0,0.0,-0.0002050720442298,0.0258310845507998,-0.0023942153610267,0.0,0.0,0.0,-0.0002083473616966,-0.0023942153610267,0.0036309666466559,0.0,0.0,0.0,0.0,0.0,0.0,0.0,0.0,0.0,0.0,0.0,0.0,0.0,0.0,0.0,0.0,0.0,0.0,0.0,0.0,0.0,0,0,0,1,19,,0
1.899691277,0,1735643777088230371,map,0.9668729670062538,-0.2265911032318066,0.0181983289326623,-0.4974576008860235,0.5069548679253918,-0.4867948629612441,0.5084913554840574,0.0,0.0,0.0,1,0.0005619974690489,0,1735643777088253974,map,0.9656399127927592,-0.2532070618443869,0.1464096453224662,-0.5005240755079616,0.4891219073795205,-0.489197353025114,0.5205010656584117,0.0,0.0,0.0,16,1.957097447302658e-05,0,1735643777088270664,map,0.9694548602749616,0.0494002440488749,0.0229167877458105,-0.4849145727147226,0.5145951285182547,-0.5042874818315538,0.4957255758402717,0.0,0.0,0.0,17,0.0859619081020355,0,1735643777088284730,map,0.989901153471216,-0.270811633944347,0.2369496533267851,-0.4967044309088814,0.4905905001069193,-0.4890510236274611,0.5229099021908645,0.0,0.0,0.0,121,1.316785329663617e-07,0,1735643777088297367,map,0.9895327501231912,0.1938531083162607,0.2418555370487946,-0.517775603619339,0.4774275611304331,-0.4875824690576096,0.5159793445840257,0.0,0.0,0.0,122,1.938710920512676e-05,0,1735643777088310956,map,0.9803661220840656,0.1938938403233974,0.143890427871965,-0.4867714247888318,0.5045986475459747,-0.4836557363871982,0.5239378909408832,0.0,0.0,0.0,124,0.0081825153902173,0,1735643777088322877,map,0.9828498915418078,-0.0406767456509105,0.2425770182470448,-0.5235913805367626,0.4953145626724241,-0.4713671196255903,0.5082603552984504,0.0,0.0,0.0,125,3.7498780329769934e-06,0,1735643777088343858,map,0.978681100650701,-0.0334685940746693,0.1443536513445577,0.5106887830129575,-0.5036310836906333,0.4899137791423898,-0.4955170909784689,0.0,0.0,0.0,126,0.0011183823226019,0,1735644242188269615,map,0.9575198711106492,0.3230568929131871,0.0241120050560511,-0.4970057250433601,0.4911317018888914,-0.4855348239765242,0.525386424815041,0.0,0.0,0.0,0,0.5470965504646301,0.9443403246944224,0.3854537385145457,-0.0422693623345498,1.0,1.7447275772261524e-05,-0.0002240786281017,-0.0002141679937849,0.0,0.0,0.0,-0.0002240786281017,0.0251117892698034,-0.0019569283189719,0.0,0.0,0.0,-0.0002141679937849,-0.0019569283189719,0.0036256579177738,0.0,0.0,0.0,0.0,0.0,0.0,0.0,0.0,0.0,0.0,0.0,0.0,0.0,0.0,0.0,0.0,0.0,0.0,0.0,0.0,0.0,0,0,0,1,20,,0
1.999393234,0,1735643777088230371,map,0.961467519258195,-0.225900601718942,0.0205854681535855,-0.4966185978080662,0.5053186085923582,-0.4874828660533301,0.5102778923546114,0.0,0.0,0.0,1,0.0004447802493814,0,1735643777088253974,map,0.9656399127927592,-0.2532070618443869,0.1464096453224662,-0.5005240755079616,0.4891219073795205,-0.489197353025114,0.5205010656584117,0.0,0.0,0.0,16,1.1177175110788085e-05,0,1735643777088270664,map,0.965690289736415,0.0481656368158897,0.0246787911008944,-0.490907876312611,0.5035880037871981,-0.4921270665634545,0.513049246926176,0.0,0.0,0.0,17,0.0743788257241249,0,1735643777088284730,map,0.989901153471216,-0.270811633944347,0.2369496533267851,-0.4967044309088814,0.4905905001069193,-0.4890510236274611,0.5229099021908645,0.0,0.0,0.0,121,5.930272095611144e-08,0,1735643777088297367,map,0.9848173934923709,0.1918327537614308,0.2436390541381899,-0.5318424956534588,0.4855310081061386,-0.4740256963415326,0.5066585035232932,0.0,0.0,0.0,122,1.1483614798635244e-05,0,1735643777088310956,map,0.9762632793484498,0.1921011811993704,0.1455779220354296,-0.4788866443404462,0.4975219118238097,-0.4889692868280891,0.5329620677556318,0.0,0.0,0.0,124,0.0058875018730759,0,1735643777088322877,map,0.98047166963856,-0.0423646007123074,0.2445205896781429,-0.5163354609957453,0.4946505198767634,-0.4801407330504226,0.5081175369634097,0.0,0.0,0.0,125,1.807508510864864e-06,0,1735643777088343858,map,0.97618710220965,-0.0352806753113491,0.1459012575859203,0.5174597210655096,-0.4998326126114778,0.4835766650798821,-0.4985543154311364,0.0,0.0,0.0,126,0.0007026245584711,0,1735644242188269615,map,0.9543580991222442,0.3214238582298063,0.0257053669897503,-0.4961872435891241,0.4939688530395325,-0.4818946411854894,0.5268496429940374,0.0,0.0,0.0,0,0.5000052452087402,0.9445623248128788,0.3818856275380317,-0.0448426558943071,1.0,1.7602134168332455e-05,-0.0002292506384288,-0.0002153949473922,0.0,0.0,0.0,-0.0002292506384288,0.0241706180995795,-0.0016801053162364,0.0,0.0,0.0,-0.0002153949473922,-0.0016801053162364,0.0035854443356307,0.0,0.0,0.0,0.0,0.0,0.0,0.0,0.0,0.0,0.0,0.0,0.0,0.0,0.0,0.0,0.0,0.0,0.0,0.0,0.0,0.0,0,0,0,1,21,,0
2.099713098,0,1735643777088230371,map,0.961467519258195,-0.225900601718942,0.0205854681535855,-0.4966185978080662,0.5053186085923582,-0.4874828660533301,0.5102778923546114,0.0,0.0,0.0,1,0.0003036146517843,0,1735643777088253974,map,0.9656399127927592,-0.2532070618443869,0.1464096453224662,-0.5005240755079616,0.4891219073795205,-0.489197353025114,0.5205010656584117,0.0,0.0,0.0,16,6.358843620546395e-06,0,1735643777088270664,map,0.9657826997839174,0.0486668731317864,0.0246780824394361,-0.502750330564795,0.4905958864614336,-0.4852211492147943,0.5206901359338237,0.0,0.0,0.0,17,0.0650683715939521,0,1735643777088284730,map,0.989901153471216,-0.270811633944347,0.2369496533267851,-0.4967044309088814,0.4905905001069193,-0.4890510236274611,0.5229099021908645,0.0,0.0,0.0,121,2.6881879833240422e-08,0,1735643777088297367,map,0.9791509225201576,0.1905991091881677,0.2431668604817729,-0.5112653588792745,0.4933903301780812,-0.4913045198272155,0.5037793005812762,0.0,0.0,0.0,122,6.775917881896021e-06,0,1735643777088310956,map,0.9753525992415172,0.1923782938941042,0.1459450728187043,-0.4774121984031498,0.5024836201887634,-0.4912734820338544,0.5274828623834129,0.0,0.0,0.0,124,0.0044271727092564,0,1735643777088322877,map,0.9796458944573074,-0.0423503948912581,0.2450534977877704,-0.511395292785308,0.4818405590267365,-0.4906748360678437,0.5153083886796588,0.0,0.0,0.0,125,9.273427963307768e-07,0,1735643777088343858,map,0.9747652419675076,-0.0349800505790099,0.1462978336079548,-0.5073537120194489,0.4965368689908582,-0.4945205150610374,0.501490586967101,0.0,0.0,0.0,126,0.0004781430761795,0,1735644242188269615,map,0.9551761070251552,0.3229351549536124,0.0254493156766147,-0.5069578123833803,0.4941486315993373,-0.4840077995875422,0.5143416727141455,0.0,0.0,0.0,0,0.4786510765552521,0.94464157965076,0.3822285429348943,-0.0461036399473434,1.0,1.6933945076559714e-05,-0.0002182594230759,-0.0002077029887858,0.0,0.0,0.0,-0.0002182594230759,0.0230744230508652,-0.0016128175205578,0.0,0.0,0.0,-0.0002077029887858,-0.0016128175205578,0.0034558612895243,0.0,0.0,0.0,0.0,0.0,0.0,0.0,0.0,0.0,0.0,0.0,0.0,0.0,0.0,0.0,0.0,0.0,0.0,0.0,0.0,0.0,0,0,0,1,22,,0
2.199043613,0,1735643777088230371,map,0.961467519258195,-0.225900601718942,0.0205854681535855,-0.4966185978080662,0.5053186085923582,-0.4874828660533301,0.5102778923546114,0.0,0.0,0.0,1,0.0002162713644793,0,1735643777088253974,map,0.9656399127927592,-0.2532070618443869,0.1464096453224662,-0.5005240755079616,0.4891219073795205,-0.489197353025114,0.5205010656584117,0.0,0.0,0.0,16,3.6669860037363833e-06,0,1735643777088270664,map,0.9652805051777512,0.0491695871108738,0.0251523368200731,-0.5091885352946443,0.4894040586371816,-0.4723450575391045,0.5273526804068879,0.0,0.0,0.0,17,0.0562045611441135,0,1735643777088284730,map,0.989901153471216,-0.270811633944347,0.2369496533267851,-0.4967044309088814,0.4905905001069193,-0.4890510236274611,0.5229099021908645,0.0,0.0,0.0,121,1.1934066179719592e-08,0,1735643777088297367,map,0.9845802589677786,0.1929131936451241,0.2454276651578499,-0.5034345157371484,0.4933298100418533,-0.4978927313964038,0.5052546040475044,0.0,0.0,0.0,122,3.586288812584826e-06,0,1735643777088310956,map,0.9728073043929448,0.192430084694352,0.1467326796393778,-0.4675521504761507,0.5134923680195472,-0.5022199858626801,0.51526271005274,0.0,0.0,0.0,124,0.0033340479712933,0,1735643777088322877,map,0.9738945023904444,-0.0411462965746247,0.2450243795385477,-0.5236970667168426,0.4868981021823914,-0.4720889316796768,0.5155615006853228,0.0,0.0,0.0,125,4.837266374124738e-07,0,1735643777088343858,map,0.9685316710902532,-0.0338236674493793,0.1474671407598404,-0.5317227765515615,0.4852600760150601,-0.4719448847562263,0.5089809164149363,0.0,0.0,0.0,126,0.0003110956749878,0,1735644242188269615,map,0.9525446419452764,0.3226977733723532,0.0262886129011643,-0.492578664672914,0.4962732231390608,-0.4864353283237213,0.5238891280250147,0.0,0.0,0.0,0,0.456604391336441,0.9445372533358748,0.3866443170905955,-0.0454742690818648,1.0,1.6437134154476213e-05,-0.0002189048747329,-0.000200116942804,0.0,0.0,0.0,-0.0002189048747329,0.0225001666167165,-0.0014815535084171,0.0,0.0,0.0,-0.000200116942804,-0.0014815535084171,0.0033143208199482,0.0,0.0,0.0,0.0,0.0,0.0,0.0,0.0,0.0,0.0,0.0,0.0,0.0,0.0,0.0,0.0,0.0,0.0,0.0,0.0,0.0,0,0,0,1,23,,0
2.299671439,0,1735643777088230371,map,0.961467519258195,-0.225900601718942,0.0205854681535855,-0.4966185978080662,0.5053186085923582,-0.4874828660533301,0.5102778923546114,0.0,0.0,0.0,1,0.0001890544808702,0,1735643777088253974,map,0.9656399127927592,-0.2532070618443869,0.1464096453224662,-0.5005240755079616,0.4891219073795205,-0.489197353025114,0.5205010656584117,0.0,0.0,0.0,16,2.094341652991716e-06,0,1735643777088270664,map,0.966395442405698,0.0499797758935175,0.0248217925849848,-0.5115169525733918,0.4984845001533504,-0.4671917955969025,0.5211481905023146,0.0,0.0,0.0,17,0.0498214960098266,0,1735643777088284730,map,0.989901153471216,-0.270811633944347,0.2369496533267851,-0.4967044309088814,0.4905905001069193,-0.4890510236274611,0.5229099021908645,0.0,0.0,0.0,121,5.567598826416997e-09,0,1735643777088297367,map,0.9791445416743648,0.192374257946654,0.2449248409796291,-0.4788125691944305,0.498545576461381,-0.5170855539294413,0.5047904136269828,0.0,0.0,0.0,122,4.8700526349421125e-06,0,1735643777088310956,map,0.9719243877613252,0.1930674027279957,0.1472246238930543,-0.4672986920437618,0.5179998298222136,-0.5040178958513409,0.5091896202594217,0.0,0.0,0.0,124,0.0034162509255111,0,1735643777088322877,map,0.9754972095781403,-0.0415278412717218,0.2461452936086901,-0.5186328497242347,0.469441808271167,-0.4869649342307586,0.5229813655032546,0.0,0.0,0.0,125,3.280989346876595e-07,0,1735643777088343858,map,0.9650154836744138,-0.0322506485920432,0.1478440686383774,-0.5288515301942456,0.4789924570732695,-0.4701608689734791,0.5194526372675567,0.0,0.0,0.0,126,0.0002263785572722,0,1735644242188269615,map,0.9541088722149832,0.3249111058429424,0.0260951746330566,-0.5038054932479887,0.4939754987330386,-0.4851383709137958,0.5165355676927822,0.0,0.0,0.0,0,0.4803620278835296,0.9442113126097896,0.3948885774536503,-0.0423325166906435,1.0,1.8195712773885325e-05,-0.0002715880630873,-0.0002153313131321,0.0,0.0,0.0,-0.0002715880630873,0.0231259197398315,-0.000824089343915,0.0,0.0,0.0,-0.0002153313131321,-0.000824089343915,0.0034032481051352,0.0,0.0,0.0,0.0,0.0,0.0,0.0,0.0,0.0,0.0,0.0,0.0,0.0,0.0,0.0,0.0,0.0,0.0,0.0,0.0,0.0,0,0,0,1,24,,0
2.399173218,0,1735643777088230371,map,0.961467519258195,-0.225900601718942,0.0205854681535855,-0.4966185978080662,0.5053186085923582,-0.4874828660533301,0.5102778923546114,0.0,0.0,0.0,1,0.0001696733816061,0,1735643777088253974,map,0.9656399127927592,-0.2532070618443869,0.1464096453224662,-0.5005240755079616,0.4891219073795205,-0.489197353025114,0.5205010656584117,0.0,0.0,0.0,16,1.218788611367927e-06,0,1735643777088270664,map,0.9689448618343556,0.0480501211250807,0.0248995652062364,-0.5165247300086596,0.5069766542500346,-0.4609498050146346,0.5135193789837849,0.0,0.0,0.0,17,0.0420204885303974,0,1735643777088284730,map,0.989901153471216,-0.270811633944347,0.2369496533267851,-0.4967044309088814,0.4905905001069193,-0.4890510236274611,0.5229099021908645,0.0,0.0,0.0,121,3.703882311967277e-09,0,1735643777088297367,map,0.9773457560078236,0.1904159599686727,0.246580704167316,-0.4667195549933467,0.4940207873948011,-0.5279729505579928,0.5092748590768248,0.0,0.0,0.0,122,1.9073047951678745e-05,0,1735643777088310956,map,0.9680546846573856,0.1910577089582092,0.148719375007419,-0.4515979784551463,0.5301027454393165,-0.520512749256399,0.4940817978781139,0.0,0.0,0.0,124,0.0051168375648558,0,1735643777088322877,map,0.9684535821064528,-0.0416485804053501,0.2462834122742705,-0.5325774385874151,0.4694659077618912,-0.4670233163346806,0.5271169275945594,0.0,0.0,0.0,125,5.101697411191708e-07,0,1735643777088343858,map,0.964277493816396,-0.0343362929460461,0.1491687373215104,-0.5301684372706421,0.4732181101753671,-0.4724194405783239,0.5213500939749818,0.0,0.0,0.0,126,0.0001840301702031,0,1735644242188269615,map,0.9519312198230048,0.3235757096018493,0.0276869661248373,-0.4982266346190133,0.5012033832018172,-0.4930772781669896,0.50738563931067,0.0,0.0,0.0,0,0.5171460509300232,0.943655616928323,0.4056346413845238,-0.0362754250028711,1.0,2.4879028832549185e-05,-0.0004040415322235,-0.0002874996532422,0.0,0.0,0.0,-0.0004040415322235,0.0249723523103923,0.0007710316981286,0.0,0.0,0.0,-0.0002874996532422,0.0007710316981286,0.0041476388140677,0.0,0.0,0.0,0.0,0.0,0.0,0.0,0.0,0.0,0.0,0.0,0.0,0.0,0.0,0.0,0.0,0.0,0.0,0.0,0.0,0.0,0,0,0,1,25,,0
2.499351504,0,1735643777088230371,map,0.961467519258195,-0.225900601718942,0.0205854681535855,-0.4966185978080662,0.5053186085923582,-0.4874828660533301,0.5102778923546114,0.0,0.0,0.0,1,0.0001261005672859,0,1735643777088253974,map,0.9656399127927592,-0.2532070618443869,0.1464096453224662,-0.5005240755079616,0.4891219073795205,-0.489197353025114,0.5205010656584117,0.0,0.0,0.0,16,7.842140803404618e-07,0,1735643777088270664,map,0.9701903642216476,0.0476145168897451,0.0253146874402378,-0.5141185409184681,0.5134005369066024,-0.4628938161991876,0.5077709419732791,0.0,0.0,0.0,17,0.0358957685530185,0,1735643777088284730,map,0.989901153471216,-0.270811633944347,0.2369496533267851,-0.4967044309088814,0.4905905001069193,-0.4890510236274611,0.5229099021908645,0.0,0.0,0.0,121,3.119889679936705e-09,0,1735643777088297367,map,0.979052647854244,0.1902361554119926,0.248108637696598,0.4689255933241072,-0.5021611921552109,0.5288402942962536,-0.4982678678658129,0.0,0.0,0.0,122,6.605939415749162e-05,0,1735643777088310956,map,0.9682444929961456,0.1906928967143634,0.149761544898081,-0.4606997169982763,0.5377183183504258,-0.515796188126162,0.4822541582844248,0.0,0.0,0.0,124,0.007801610045135,0,1735643777088322877,map,0.9685061414165442,-0.0423529990579875,0.247408898198394,-0.526489401367067,0.4703663116589801,-0.4756080800204381,0.5247488897784807,0.0,0.0,0.0,125,8.424780162386014e-07,0,1735643777088343858,map,0.9660379778119712,-0.0355410918404552,0.1502919151601646,-0.5365106333464791,0.4842447275510484,-0.4634242543268366,0.5127390609723299,0.0,0.0,0.0,126,0.000170767205418,0,1735644242188269615,map,0.954854278901889,0.3253613244122125,0.0278281612123093,-0.5012805843403263,0.5002705428015857,-0.4884235427541982,0.5097936863593605,0.0,0.0,0.0,0,0.5664989352226257,0.9430386876069428,0.4154945678123859,-0.0291125514476423,1.0,3.343718779768452e-05,-0.0005405734162918,-0.0003869166423103,0.0,0.0,0.0,-0.0005405734162918,0.0264423309506024,0.0025070117894818,0.0,0.0,0.0,-0.0003869166423103,0.0025070117894818,0.0052707831835008,0.0,0.0,0.0,0.0,0.0,0.0,0.0,0.0,0.0,0.0,0.0,0.0,0.0,0.0,0.0,0.0,0.0,0.0,0.0,0.0,0.0,0,0,0,1,26,,0
