%time,field.boxes0.header.seq,field.boxes0.header.stamp,field.boxes0.header.frame_id,field.boxes0.pose.position.x,field.boxes0.pose.position.y,field.boxes0.pose.position.z,field.boxes0.pose.orientation.x,field.boxes0.pose.orientation.y,field.boxes0.pose.orientation.z,field.boxes0.pose.orientation.w,field.boxes0.scale.x,field.boxes0.scale.y,field.boxes0.scale.z,field.boxes0.id,field.boxes0.pdf,field.boxes1.header.seq,field.boxes1.header.stamp,field.boxes1.header.frame_id,field.boxes1.pose.position.x,field.boxes1.pose.position.y,field.boxes1.pose.position.z,field.boxes1.pose.orientation.x,field.boxes1.pose.orientation.y,field.boxes1.pose.orientation.z,field.boxes1.pose.orientation.w,field.boxes1.scale.x,field.boxes1.scale.y,field.boxes1.scale.z,field.boxes1.id,field.boxes1.pdf,field.boxes2.header.seq,field.boxes2.header.stamp,field.boxes2.header.frame_id,field.boxes2.pose.position.x,field.boxes2.pose.position.y,field.boxes2.pose.position.z,field.boxes2.pose.orientation.x,field.boxes2.pose.orientation.y,field.boxes2.pose.orientation.z,field.boxes2.pose.orientation.w,field.boxes2.scale.x,field.boxes2.scale.y,field.boxes2.scale.z,field.boxes2.id,field.boxes2.pdf,field.boxes3.header.seq,field.boxes3.header.stamp,field.boxes3.header.frame_id,field.boxes3.pose.position.x,field.boxes3.pose.position.y,field.boxes3.pose.position.z,field.boxes3.pose.orientation.x,field.boxes3.pose.orientation.y,field.boxes3.pose.orientation.z,field.boxes3.pose.orientation.w,field.boxes3.scale.x,field.boxes3.scale.y,field.boxes3.scale.z,field.boxes3.id,field.boxes3.pdf,field.boxes4.header.seq,field.boxes4.header.stamp,field.boxes4.header.frame_id,field.boxes4.pose.position.x,field.boxes4.pose.position.y,field.boxes4.pose.position.z,field.boxes4.pose.orientation.x,field.boxes4.pose.orientation.y,field.boxes4.pose.orientation.z,field.boxes4.pose.orientation.w,field.boxes4.scale.x,field.boxes4.scale.y,field.boxes4.scale.z,field.boxes4.id,field.boxes4.pdf,field.boxes5.header.seq,field.boxes5.header.stamp,field.boxes5.header.frame_id,field.boxes5.pose.position.x,field.boxes5.pose.position.y,field.boxes5.pose.position.z,field.boxes5.pose.orientation.x,field.boxes5.pose.orientation.y,field.boxes5.pose.orientation.z,field.boxes5.pose.orientation.w,field.boxes5.scale.x,field.boxes5.scale.y,field.boxes5.scale.z,field.boxes5.id,field.boxes5.pdf,field.boxes6.header.seq,field.boxes6.header.stamp,field.boxes6.header.frame_id,field.boxes6.pose.position.x,field.boxes6.pose.position.y,field.boxes6.pose.position.z,field.boxes6.pose.orientation.x,field.boxes6.pose.orientation.y,field.boxes6.pose.orientation.z,field.boxes6.pose.orientation.w,field.boxes6.scale.x,field.boxes6.scale.y,field.boxes6.scale.z,field.boxes6.id,field.boxes6.pdf,field.boxes7.header.seq,field.boxes7.header.stamp,field.boxes7.header.frame_id,field.boxes7.pose.position.x,field.boxes7.pose.position.y,field.boxes7.pose.position.z,field.boxes7.pose.orientation.x,field.boxes7.pose.orientation.y,field.boxes7.pose.orientation.z,field.boxes7.pose.orientation.w,field.boxes7.scale.x,field.boxes7.scale.y,field.boxes7.scale.z,field.boxes7.id,field.boxes7.pdf,field.boxes8.header.seq,field.boxes8.header.stamp,field.boxes8.header.frame_id,field.boxes8.pose.position.x,field.boxes8.pose.position.y,field.boxes8.pose.position.z,field.boxes8.pose.orientation.x,field.boxes8.pose.orientation.y,field.boxes8.pose.orientation.z,field.boxes8.pose.orientation.w,field.boxes8.scale.x,field.boxes8.scale.y,field.boxes8.scale.z,field.boxes8.id,field.boxes8.pdf,field.pose.pose.position.x,field.pose.pose.position.y,field.pose.pose.position.z,field.pose.pose.orientation.w,field.pose.covariance0,field.pose.covariance1,field.pose.covariance2,field.pose.covariance3,field.pose.covariance4,field.pose.covariance5,field.pose.covariance6,field.pose.covariance7,field.pose.covariance8,field.pose.covariance9,field.pose.covariance10,field.pose.covariance11,field.pose.covariance12,field.pose.covariance13,field.pose.covariance14,field.pose.covariance15,field.pose.covariance16,field.pose.covariance17,field.pose.covariance18,field.pose.covariance19,field.pose.covariance20,field.pose.covariance21,field.pose.covariance22,field.pose.covariance23,field.pose.covariance24,field.pose.covariance25,field.pose.covariance26,field.pose.covariance27,field.pose.covariance28,field.pose.covariance29,field.pose.covariance30,field.pose.covariance31,field.pose.covariance32,field.pose.covariance33,field.pose.covariance34,field.pose.covariance35,field.buttons0,field.buttons1,field.buttons2,field.buttons3,intersection_length,vacuum,desired_box
0.0,0,1735643777088230371,map,0.9843216486118864,-0.2214794299449354,0.019226789912038,-0.4910974947789785,0.5171912959854666,-0.4974853933703754,0.4938063358866587,0.0,0.0,0.0,1,0.1111111119389534,0,1735643777088253974,map,0.9773966004402674,-0.2483195491309365,0.1479859616594401,-0.5026959286152954,0.4828361271364614,-0.490264251659983,0.5232657462797904,0.0,0.0,0.0,16,0.1111111119389534,0,1735643777088270664,map,0.9882758103702292,0.056434568464562,0.0231463488125229,-0.4960234515570835,0.4980813547230542,-0.4848226364106499,0.5204062939727688,0.0,0.0,0.0,17,0.1111111119389534,0,1735643777088284730,map,1.002818339296244,-0.2563318659254035,0.2349933616317545,-0.4726045708316971,0.4664339208404755,-0.5174869284345597,0.5397143652134283,0.0,0.0,0.0,121,0.1111111119389534,0,1735643777088297367,map,1.0098366398919456,0.2047532132189725,0.2400459198115217,-0.513295532332526,0.4906990727959295,-0.4861286496394315,0.5093339301916054,0.0,0.0,0.0,122,0.1111111119389534,0,1735643777088310956,map,1.0049113721201828,0.2065375928890803,0.1425476646565858,-0.4802954543414824,0.500700060109964,-0.4894923516289882,0.528216777508544,0.0,0.0,0.0,124,0.1111111119389534,0,1735643777088322877,map,0.9898656351139956,-0.0282645910708129,0.2406908082544313,-0.456805639068929,0.5394701016926641,-0.5387288471682963,0.4583359539936319,0.0,0.0,0.0,125,0.1111111119389534,0,1735643777088343858,map,0.995085975810278,-0.0219298719940244,0.1445187099593406,0.6373262875501416,-0.4996596866552873,0.3621933877068033,-0.4614881912146435,0.0,0.0,0.0,126,0.1111111119389534,0,1735644242188269615,map,0.9747237129768636,0.331529245730428,0.024841041748646,-0.4970115897217638,0.496594927863115,-0.4838008551546776,0.5218330095485297,0.0,0.0,0.0,0,0.1111111119389534,0.9330562778025286,0.3031615992947499,0.1443517559126578,1.0,0.0,0.0,0.0,0.0,0.0,0.0,0.0,0.0,0.0,0.0,0.0,0.0,0.0,0.0,0.0,0.0,0.0,0.0,0.0,0.0,0.0,0.0,0.0,0.0,0.0,0.0,0.0,0.0,0.0,0.0,0.0,0.0,0.0,0.0,0.0,0.0,0,0,0,1,1,,0
0.099970879,0,1735643777088230371,map,0.9774465322805064,-0.2196535545047838,0.0220527787895999,-0.5047104631179278,0.5005638113625203,-0.4831816164670047,0.5111151970758119,0.0,0.0,0.0,1,0.0,0,1735643777088253974,map,0.9794539324080448,-0.2486275728517006,0.1479695450112303,-0.5013162856083371,0.4868147026369137,-0.4929783719480693,0.5183297713539371,0.0,0.0,0.0,16,0.0,0,1735643777088270664,map,0.9816897061337204,0.0555634807012624,0.0260135817026177,-0.4904056170422651,0.4922088113403536,-0.4988464867511027,0.5180588764497652,0.0,0.0,0.0,17,0.0,0,1735643777088284730,map,1.0064429449850036,-0.256990874370858,0.2350681277349512,-0.4774325684231142,0.4746184372714652,-0.51435076604637,0.5312614903024807,0.0,0.0,0.0,121,0.0,0,1735643777088297367,map,1.018268764070258,0.2083348403931249,0.2402774173547348,-0.6335782363023827,0.2884672884723282,-0.2894788336061743,0.6569377800518047,0.0,0.0,0.0,122,0.0,0,1735643777088310956,map,1.0130910762393222,0.2098579100390851,0.1417282276443069,-0.5069736638599884,0.5048963577297736,-0.4622829408043649,0.5237860772728273,0.0,0.0,0.0,124,0.0,0,1735643777088322877,map,0.994857221996106,-0.0279743707247951,0.2408571170084737,0.4541275791756394,-0.5306054076441521,0.537995142455359,-0.472003463870017,0.0,0.0,0.0,125,0.0,0,1735643777088343858,map,1.007121671845653,-0.0204181748601955,0.142959698979757,0.5247260932246554,-0.5157807021925711,0.4782574788780965,-0.4794815723592468,0.0,0.0,0.0,126,0.0,0,1735644242188269615,map,0.9785786064780272,0.3338807726058544,0.0241318479941801,-0.5022133633508372,0.4950831567117359,-0.475385791272451,0.5260064211285335,0.0,0.0,0.0,0,0.0,0.9316285609712164,0.3052505352349941,0.1653172409307726,1.0,2.0383753504126503e-06,-2.9824090014199902e-06,-2.993277583699005e-05,0.0,0.0,0.0,-2.9824090014199902e-06,4.3636533624439285e-06,4.379555515899153e-05,0.0,0.0,0.0,-2.993277583699005e-05,4.379555515899153e-05,0.0004395515620447,0.0,0.0,0.0,0.0,0.0,0.0,0.0,0.0,0.0,0.0,0.0,0.0,0.0,0.0,0.0,0.0,0.0,0.0,0.0,0.0,0.0,0,0,0,1,2,,0
0.20035656,0,1735643777088230371,map,0.9770387272641792,-0.218397860220479,0.0224944026501811,-0.5003111372734012,0.4990903645111006,-0.4919920687623167,0.5084696433882245,0.0,0.0,0.0,1,0.0,0,1735643777088253974,map,0.979991574323614,-0.2477045200374319,0.1477551019319688,-0.518454601592229,0.4938583530781544,-0.4654275433867119,0.5202748841139521,0.0,0.0,0.0,16,0.0,0,1735643777088270664,map,0.9907658867318654,0.0574393545917411,0.0230309709895528,-0.5005613950371637,0.4885933240658857,-0.4862695425236997,0.5236953174227246,0.0,0.0,0.0,17,0.0,0,1735643777088284730,map,1.0121528393693393,-0.2577166755341228,0.2352295255658425,-0.3449006285816781,0.627318508269735,-0.6102264858975884,0.339320912257524,0.0,0.0,0.0,121,0.0,0,1735643777088297367,map,1.0132066696206854,0.2068007408887748,0.2403789629581734,-0.5120692379557823,0.4916599972939671,-0.4870248662327303,0.5087851435245251,0.0,0.0,0.0,122,0.0,0,1735643777088310956,map,1.008401251064066,0.2082376062995115,0.142515224803156,-0.4960259029522684,0.502415574673427,-0.4680917882095292,0.5314385869851399,0.0,0.0,0.0,124,0.0,0,1735643777088322877,map,0.993184089927909,-0.0273414601929769,0.2409953141925013,-0.4916871177356265,0.5113231587868486,-0.5069505798121949,0.489687160510821,0.0,0.0,0.0,125,0.0,0,1735643777088343858,map,0.9956875927163498,-0.0211876275381752,0.1443873587033316,-0.463427683499082,0.4830987904843186,-0.543535061997862,0.5063792819401707,0.0,0.0,0.0,126,0.0,0,1735644242188269615,map,0.973712384139122,0.3305782457645151,0.0264445081945688,0.8716769124656327,-0.2339962639446891,0.1053283549013899,-0.4175296952170901,0.0,0.0,0.0,0,0.0,0.9316546218841344,0.3055923530005767,0.1648541007427504,1.0,1.3602752426393637e-06,-1.97045650156782e-06,-1.997932360354467e-05,0.0,0.0,0.0,-1.97045650156782e-06,3.1427810113650107e-06,2.888041768421849e-05,0.0,0.0,0.0,-1.997932360354467e-05,2.888041768421849e-05,0.000293463372364,0.0,0.0,0.0,0.0,0.0,0.0,0.0,0.0,0.0,0.0,0.0,0.0,0.0,0.0,0.0,0.0,0.0,0.0,0.0,0.0,0.0,0,0,0,1,3,,0
0.299284768,0,1735643777088230371,map,0.97497539060527,-0.2174246545477273,0.0232540119348603,-0.4979428282727635,0.4865125504829128,-0.4842976833255843,0.5299190805394767,0.0,0.0,0.0,1,0.0,0,1735643777088253974,map,0.9740757280426152,-0.2455255913073871,0.1491802934110169,-0.5219741501950155,0.4799008303166004,-0.465764238998637,0.5294354099034646,0.0,0.0,0.0,16,0.0,0,1735643777088270664,map,0.9879515760879862,0.0575679518824543,0.0244129313854101,-0.4983177791480815,0.5038024878212162,-0.4953625510338106,0.5024722751389902,0.0,0.0,0.0,17,0.0,0,1735643777088284730,map,1.0079993453854328,-0.2565399625357829,0.2352796147628056,-0.4990485525212313,0.4913610194311795,-0.4772130366428811,0.5308319964622482,0.0,0.0,0.0,121,0.0,0,1735643777088297367,map,1.0142617197164323,0.2075179919937812,0.2407428190032218,-0.4978010650612867,0.4656553672318122,-0.4993754178677981,0.534774130471377,0.0,0.0,0.0,122,0.0,0,1735643777088310956,map,1.004937568824346,0.2069306733331284,0.1431939792997967,-0.4797051570063175,0.5007788299838566,-0.487110826150627,0.5308734018844772,0.0,0.0,0.0,124,0.0,0,1735643777088322877,map,0.9954383106770996,-0.0270499694510197,0.2413116007404496,-0.5947229492764599,0.4821393790004999,-0.3986095878738057,0.5049323016761719,0.0,0.0,0.0,125,0.0,0,1735643777088343858,map,0.9999021240404158,-0.0205107291503634,0.1438143792200767,-0.4737491584344535,0.4800817241923806,-0.5293923133403866,0.5146134972532613,0.0,0.0,0.0,126,0.0,0,1735644242188269615,map,0.976658155605162,0.3327448964408522,0.0254107096117694,-0.5059565574275054,0.4903273772156709,-0.4817216782029556,0.5210866049883043,0.0,0.0,0.0,0,0.0,0.9317750293142052,0.3061270420897778,0.1629354541383005,1.0,1.0637002796282477e-06,-1.2847007588231531e-06,-1.5677550623225833e-05,0.0,0.0,0.0,-1.2847007588231531e-06,3.214763024855821e-06,1.8582675046867636e-05,0.0,0.0,0.0,-1.5677550623225833e-05,1.8582675046867636e-05,0.0002311411436513,0.0,0.0,0.0,0.0,0.0,0.0,0.0,0.0,0.0,0.0,0.0,0.0,0.0,0.0,0.0,0.0,0.0,0.0,0.0,0.0,0.0,0,0,0,1,4,,0
0.398340147,0,1735643777088230371,map,0.984746503570512,-0.2190751911320458,0.0196301844103675,-0.4978762620307913,0.4962022861329817,-0.4921476510294417,0.513510670316452,0.0,0.0,0.0,1,0.0,0,1735643777088253974,map,0.9747108044579548,-0.2445512066706988,0.1488558679840433,-0.5055256354456941,0.4700978963059987,-0.4794361337302367,0.5418420373777806,0.0,0.0,0.0,16,0.0,0,1735643777088270664,map,0.9920836148645074,0.0589826144285854,0.0227058282906191,-0.4929600016354324,0.4999286144548679,-0.4934196985150817,0.5134187553587384,0.0,0.0,0.0,17,0.0,0,1735643777088284730,map,1.0104819904791984,-0.2566198195576456,0.2349636130399857,-0.5138820831628809,0.5064904437060628,-0.4653654336226358,0.5126671905123535,0.0,0.0,0.0,121,0.0,0,1735643777088297367,map,1.0055005391826528,0.2043146990723434,0.2402109004355838,-0.4919001170183422,0.4917637414190053,-0.5086875788190732,0.5073851048839644,0.0,0.0,0.0,122,0.0,0,1735643777088310956,map,1.004821832116661,0.2075542959736876,0.1426411223397582,-0.4807810611131463,0.4994738175942964,-0.4872133779701077,0.5310354047892228,0.0,0.0,0.0,124,0.0,0,1735643777088322877,map,1.0057703172034735,-0.0258721119055909,0.2401232253358003,-0.4931563528751674,0.5126019519308751,-0.5054745492163183,0.4883968986286461,0.0,0.0,0.0,125,0.0,0,1735643777088343858,map,1.0050931339808358,-0.0197624901643124,0.1423008310601717,0.5062301261875112,-0.5031612266764355,0.4945965729350197,-0.4959174017420391,0.0,0.0,0.0,126,0.0,0,1735644242188269615,map,0.9719830072849924,0.3307633517739518,0.0267631235554331,-0.4936956835517879,0.4987851634335364,-0.4869051040204445,0.520001300440444,0.0,0.0,0.0,0,4.1010761522187166e-32,0.931825432029252,0.3079696953640608,0.1617895549502103,1.0,8.611219584389825e-07,-6.562616954030311e-07,-1.2773066219579665e-05,0.0,0.0,0.0,-6.562616954030311e-07,1.6153294776788942e-05,6.420160473763678e-06,0.0,0.0,0.0,-1.2773066219579665e-05,6.420160473763678e-06,0.0001901652547181,0.0,0.0,0.0,0.0,0.0,0.0,0.0,0.0,0.0,0.0,0.0,0.0,0.0,0.0,0.0,0.0,0.0,0.0,0.0,0.0,0.0,0,0,0,1,5,,0
0.499821168,0,1735643777088230371,map,0.9925805121894378,-0.2202371959105463,0.016832064216208,-0.494267438573904,0.5119930171347722,-0.4935612413396709,0.499960149029968,0.0,0.0,0.0,1,0.0,0,1735643777088253974,map,0.9842987578154154,-0.2465374675378129,0.1469306705442871,-0.5137264851909601,0.4966118205793325,-0.4710221855654762,0.5173005884196784,0.0,0.0,0.0,16,0.0,0,1735643777088270664,map,0.9898082464258332,0.0591255805117046,0.0237112332360105,-0.4970930875328561,0.4879752030083151,-0.4941044035297778,0.5202302394022561,0.0,0.0,0.0,17,0.0,0,1735643777088284730,map,1.010286706757573,-0.2561961509823771,0.2347744492761958,-0.512152198533383,0.4867400412463041,-0.4728930766548376,0.5264564519852433,0.0,0.0,0.0,121,0.0,0,1735643777088297367,map,1.013681852853364,0.2084641723503805,0.2404537149484455,-0.5047893192072556,0.4843519110211701,-0.4978480321952344,0.512580048718002,0.0,0.0,0.0,122,0.0008075694204308,0,1735643777088310956,map,0.9980086702235345,0.2049881518586954,0.1439522623828569,-0.4656179967125868,0.5002048017747583,-0.50698172968027,0.5253232939716593,0.0,0.0,0.0,124,4.6793232483244296e-11,0,1735643777088322877,map,1.0021472205085993,-0.0256548116279099,0.2406623607223802,0.5702820484141603,-0.5207766340384213,0.4304434197916875,-0.4672135968207676,0.0,0.0,0.0,125,8.1839849240565e-38,0,1735643777088343858,map,1.0005010567561057,-0.0195523281239946,0.1437805383555024,0.641029569456927,-0.5346503429756856,0.3553589210937916,-0.4206544175887198,0.0,0.0,0.0,126,0.0,0,1735644242188269615,map,0.9727466075076469,0.331413667949459,0.0267703036057504,-0.4870986500410317,0.4889442259715259,-0.4880021704876888,0.5343428961038175,0.0,0.0,0.0,0,6.916477962004243e-21,0.932151237218132,0.3228895220971478,0.1537453619455659,1.0,1.2483467375372611e-06,2.375790008796183e-05,-2.374842095596545e-05,0.0,0.0,0.0,2.375790008796183e-05,0.0011264672277073,-0.0005947396954558,0.0,0.0,0.0,-2.374842095596545e-05,-0.0005947396954558,0.0004820162510782,0.0,0.0,0.0,0.0,0.0,0.0,0.0,0.0,0.0,0.0,0.0,0.0,0.0,0.0,0.0,0.0,0.0,0.0,0.0,0.0,0.0,0,0,0,1,6,,0
0.598559419,0,1735643777088230371,map,0.9905224345384148,-0.2213731026667723,0.016325233841622,-0.5030558813867141,0.5162508236748249,-0.485009853528001,0.4951619020462381,0.0,0.0,0.0,1,0.0,0,1735643777088253974,map,0.9785623314630304,-0.2461252751241263,0.1475779224436437,-0.5192911541860933,0.4771209645160579,-0.4694018020288684,0.5313701446782578,0.0,0.0,0.0,16,0.0,0,1735643777088270664,map,0.9888619491934354,0.0584828165993579,0.0228903584750012,-0.5129289073946788,0.4938487984974494,-0.4724287965423719,0.5194500287602775,0.0,0.0,0.0,17,0.0,0,1735643777088284730,map,1.0057876288116163,-0.2561701686790388,0.2348637715234927,-0.2788581227671469,0.6879518685709881,-0.6156932474865724,0.2643524142048014,0.0,0.0,0.0,121,0.0,0,1735643777088297367,map,1.0168544539186135,0.2092647251146195,0.2399053824664926,-0.5035686059126607,0.4797761467327976,-0.4961056255985606,0.5197236923740052,0.0,0.0,0.0,122,0.0385077372193336,0,1735643777088310956,map,1.0046284450134084,0.207659956216256,0.1422343572291953,-0.4858422019588519,0.50737104804264,-0.4847207720793316,0.5211312190981304,0.0,0.0,0.0,124,6.205044290885642e-12,0,1735643777088322877,map,1.0008530723912628,-0.026916851457018,0.2404981978760568,-0.4673627524910028,0.5339225103421436,-0.5310561591691862,0.463117875213697,0.0,0.0,0.0,125,6.463889586471123e-30,0,1735643777088343858,map,1.0139244262678018,-0.0203101835458069,0.140628330595217,0.5913435330817673,-0.5388645658559839,0.4110093485909926,-0.4370459025297262,0.0,0.0,0.0,126,0.0,0,1735644242188269615,map,0.9801530807417244,0.3368585797540778,0.0229863311453009,-0.5061841347390994,0.4914585304312948,-0.4822746585564951,0.5192853630894649,0.0,0.0,0.0,0,6.009908801864143e-24,0.9326875377039824,0.3440661233170928,0.1412201855099112,1.0,2.795720756058973e-06,8.85060434986316e-05,-6.065933863766183e-05,0.0,0.0,0.0,8.85060434986316e-05,0.0036562339734063,-0.0021012208813432,0.0,0.0,0.0,-6.065933863766183e-05,-0.0021012208813432,0.0013544370551042,0.0,0.0,0.0,0.0,0.0,0.0,0.0,0.0,0.0,0.0,0.0,0.0,0.0,0.0,0.0,0.0,0.0,0.0,0.0,0.0,0.0,0,0,0,1,7,,0
0.699751954,0,1735643777088230371,map,0.9932824888682336,-0.2215990296084453,0.0144475840821021,-0.5043067804903664,0.5163823275327282,-0.4798617195471708,0.4987551434086228,0.0,0.0,0.0,1,0.0,0,1735643777088253974,map,0.9785623314630304,-0.2461252751241263,0.1475779224436437,-0.5192911541860933,0.4771209645160579,-0.4694018020288684,0.5313701446782578,0.0,0.0,0.0,16,0.0,0,1735643777088270664,map,0.9992503714130366,0.0608681543773458,0.0179262357747667,-0.5140242041090287,0.5043153242663962,-0.4695005267422669,0.5108957101883832,0.0,0.0,0.0,17,0.0,0,1735643777088284730,map,1.0057876288116163,-0.2561701686790388,0.2348637715234927,-0.2788581227671469,0.6879518685709881,-0.6156932474865724,0.2643524142048014,0.0,0.0,0.0,121,0.0,0,1735643777088297367,map,1.0071049819010542,0.2062181341792208,0.2388660198818119,0.5084353759386969,-0.5025794946264437,0.4979732053541593,-0.4908462150454137,0.0,0.0,0.0,122,0.0960243642330169,0,1735643777088310956,map,1.0022424159916636,0.2073140523081038,0.1415494870325189,-0.483749592590774,0.5135760975836277,-0.4882283307712571,0.5136720945227062,0.0,0.0,0.0,124,1.690926858168712e-13,0,1735643777088322877,map,0.9953236885659242,-0.0264895491638561,0.2392655868229355,0.4299033708741236,-0.5600717776054744,0.5638881925471058,-0.4284072851234765,0.0,0.0,0.0,125,7.584250995290692e-31,0,1735643777088343858,map,1.0007340601543362,-0.0202785970536698,0.1419142136401915,0.6301689857701027,-0.5395636142428759,0.3653639451809982,-0.4222171753024994,0.0,0.0,0.0,126,0.0,0,1735644242188269615,map,0.9706420949399656,0.3318817399599479,0.025293955720669,-0.4995502137670971,0.4929061463432954,-0.4858721694614766,0.5209811414677575,0.0,0.0,0.0,0,4.094597550803228e-27,0.9332950992950126,0.3680784364032466,0.1270260928980622,1.0,5.030173269818459e-06,0.0001795655020618,-0.0001134434197413,0.0,0.0,0.0,0.0001795655020618,0.0072353429849628,-0.0042243992415623,0.0,0.0,0.0,-0.0001134434197413,-0.0042243992415623,0.0025954382787324,0.0,0.0,0.0,0.0,0.0,0.0,0.0,0.0,0.0,0.0,0.0,0.0,0.0,0.0,0.0,0.0,0.0,0.0,0.0,0.0,0.0,0,0,0,1,8,,0
0.799446311,0,1735643777088230371,map,0.9897228041329444,-0.2199287420675235,0.0145250914707203,-0.5074478995377542,0.5056769211018277,-0.4795952622098681,0.5067305646845717,0.0,0.0,0.0,1,0.0,0,1735643777088253974,map,0.9785623314630304,-0.2461252751241263,0.1475779224436437,-0.5192911541860933,0.4771209645160579,-0.4694018020288684,0.5313701446782578,0.0,0.0,0.0,16,0.0,0,1735643777088270664,map,0.9956066853137452,0.0609839022741031,0.0182946769832245,-0.510257984487182,0.5116839689150364,-0.4874753577097114,0.490085789273902,0.0,0.0,0.0,17,0.0,0,1735643777088284730,map,1.0057876288116163,-0.2561701686790388,0.2348637715234927,-0.2788581227671469,0.6879518685709881,-0.6156932474865724,0.2643524142048014,0.0,0.0,0.0,121,0.0,0,1735643777088297367,map,1.0087806322427253,0.207109241135109,0.2382465142724061,0.5241110985892126,-0.4993619282132367,0.4871380801355989,-0.4885096845187103,0.0,0.0,0.0,122,0.1207979172468185,0,1735643777088310956,map,1.0007762998286225,0.2073191907522499,0.1408445213157322,-0.4815937459776901,0.5174834621289965,-0.4960782465178822,0.5041673368931258,0.0,0.0,0.0,124,5.962955671091506e-15,0,1735643777088322877,map,1.0027291833368537,-0.0261502210276112,0.238524982937849,-0.4347739261094056,0.5778176521691765,-0.5510661869991235,0.416442614970371,0.0,0.0,0.0,125,4.926387769644518e-35,0,1735643777088343858,map,1.00561514036876,-0.020301094029104,0.14015963213011,0.5787175690991105,-0.5373959316108561,0.4163515598275366,-0.4504919161686405,0.0,0.0,0.0,126,0.0,0,1735644242188269615,map,0.97417740189618,0.3350371328198719,0.0230804650034559,-0.4996310600965475,0.4995872949967172,-0.4805222967579506,0.5194994328997166,0.0,0.0,0.0,0,1.236474950280799e-28,0.933828133551203,0.3863161417819907,0.115172136545366,1.0,6.7442692749057816e-06,0.0002373843533799,-0.0001513871137846,0.0,0.0,0.0,0.0002373843533799,0.0090923271664886,-0.0054845332563191,0.0,0.0,0.0,-0.0001513871137846,-0.0054845332563191,0.0034311864974551,0.0,0.0,0.0,0.0,0.0,0.0,0.0,0.0,0.0,0.0,0.0,0.0,0.0,0.0,0.0,0.0,0.0,0.0,0.0,0.0,0.0,0,0,0,1,9,,0
0.89963388,0,1735643777088230371,map,0.9841110065938456,-0.2222996676091145,0.0172805573782312,-0.5086915616757313,0.505737613624961,-0.4808611127313357,0.5042171670100273,0.0,0.0,0.0,1,0.0,0,1735643777088253974,map,0.9785623314630304,-0.2461252751241263,0.1475779224436437,-0.5192911541860933,0.4771209645160579,-0.4694018020288684,0.5313701446782578,0.0,0.0,0.0,16,0.0,0,1735643777088270664,map,0.9887571624176298,0.0570695949689686,0.0208477792955157,-0.4958377329852839,0.5118669208518722,-0.4919051048005801,0.5001665380218557,0.0,0.0,0.0,17,0.0,0,1735643777088284730,map,1.0057876288116163,-0.2561701686790388,0.2348637715234927,-0.2788581227671469,0.6879518685709881,-0.6156932474865724,0.2643524142048014,0.0,0.0,0.0,121,0.0,0,1735643777088297367,map,1.009497902415681,0.205859169666551,0.2383430748309759,-0.5047034257519941,0.491117683491665,-0.4996364448828108,0.5044217441197875,0.0,0.0,0.0,122,0.1209026649594307,0,1735643777088310956,map,0.9959711372803366,0.2044875457573412,0.1417367048277696,-0.4663640917387171,0.5100554751220974,-0.5092044687418197,0.5128925377192127,0.0,0.0,0.0,124,2.7071869149450963e-16,0,1735643777088322877,map,0.9974078647064158,-0.0278995271337408,0.2387484508011118,-0.5524172318496827,0.4451401728629928,-0.4401820732880529,0.5503863832026277,0.0,0.0,0.0,125,9.790883580625211e-39,0,1735643777088343858,map,1.0005716811564205,-0.0217756951731147,0.1408695070754464,0.5962472685716858,-0.53765015571241,0.3996658242924729,-0.4423671932635188,0.0,0.0,0.0,126,0.0,0,1735644242188269615,map,0.9723478604464958,0.3320084175733085,0.0239520002669106,-0.502510797632371,0.4928879449836263,-0.4850586396270699,0.5189050858064823,0.0,0.0,0.0,0,2.336959317626833e-30,0.9342635857279976,0.4005760925772624,0.1056235656046178,1.0,7.776409731890612e-06,0.000269531657575,-0.0001736699164189,0.0,0.0,0.0,0.000269531657575,0.0100132102199918,-0.0061615392967093,0.0,0.0,0.0,-0.0001736699164189,-0.0061615392967093,0.0039086447108041,0.0,0.0,0.0,0.0,0.0,0.0,0.0,0.0,0.0,0.0,0.0,0.0,0.0,0.0,0.0,0.0,0.0,0.0,0.0,0.0,0.0,0,0,0,1,10,,0
1.000294,0,1735643777088230371,map,0.9862374005770206,-0.2231843767306802,0.0154437724988417,-0.5124471377414304,0.5157508092077991,-0.4753563211767574,0.4954143737715077,0.0,0.0,0.0,1,0.0,0,1735643777088253974,map,0.9785623314630304,-0.2461252751241263,0.1475779224436437,-0.5192911541860933,0.4771209645160579,-0.4694018020288684,0.5313701446782578,0.0,0.0,0.0,16,0.0,0,1735643777088270664,map,0.9941861438851932,0.057537530553409,0.0179827590604004,-0.509684321280268,0.5097709473652343,-0.4809431426376634,0.4990482616072643,0.0,0.0,0.0,17,5.604147076136029e-36,0,1735643777088284730,map,1.0057876288116163,-0.2561701686790388,0.2348637715234927,-0.2788581227671469,0.6879518685709881,-0.6156932474865724,0.2643524142048014,0.0,0.0,0.0,121,1.5694542800437953e-43,0,1735643777088297367,map,1.0029599729237375,0.2018494223772199,0.2390135752411567,-0.5044757029677014,0.4991503965995258,-0.4953827491413508,0.5009481794985756,0.0,0.0,0.0,122,0.1127864271402359,0,1735643777088310956,map,0.996272083478231,0.2028982812484103,0.1417777105934278,-0.4817182289451062,0.5149547594836601,-0.4933734043964523,0.5092659692354975,0.0,0.0,0.0,124,0.000102189311292,0,1735643777088322877,map,0.9891271618292552,-0.0301943673354341,0.2393635031553292,-0.5530494153006786,0.4521007595064646,-0.4418638056234219,0.5426763536116551,0.0,0.0,0.0,125,3.0069699443087405e-13,0,1735643777088343858,map,1.0021246383125693,-0.0246095800682258,0.1407549768891814,-0.4935483854942383,0.6062990496076437,-0.492218849465896,0.3827950598575804,0.0,0.0,0.0,126,1.098135918524689e-25,0,1735644242188269615,map,0.9701478103428784,0.3313321115197417,0.0241304278708435,-0.4909409758369613,0.4947462449341491,-0.4861677818469772,0.527109096166819,0.0,0.0,0.0,0,1.029680515785003e-05,0.9350787930370136,0.4107764572464368,0.0912403166848274,1.0,1.3715092959362388e-05,0.000328182897943,-0.0002751350386672,0.0,0.0,0.0,0.000328182897943,0.0101433927756522,-0.0070685432017385,0.0,0.0,0.0,-0.0002751350386672,-0.0070685432017385,0.0056220918683448,0.0,0.0,0.0,0.0,0.0,0.0,0.0,0.0,0.0,0.0,0.0,0.0,0.0,0.0,0.0,0.0,0.0,0.0,0.0,0.0,0.0,0,0,0,1,11,,0
1.099219845,0,1735643777088230371,map,0.9823094083284803,-0.2212705687213312,0.0159412643555531,-0.5040426175639892,0.4995594887986163,-0.4852180801597716,0.51082753598115,0.0,0.0,0.0,1,0.0,0,1735643777088253974,map,0.9785623314630304,-0.2461252751241263,0.1475779224436437,-0.5192911541860933,0.4771209645160579,-0.4694018020288684,0.5313701446782578,0.0,0.0,0.0,16,5.787362657661495e-43,0,1735643777088270664,map,0.9892615810479998,0.0573017424858212,0.0187884115349067,-0.4972304080478036,0.5253839331352981,-0.4836217758850203,0.4927916618670802,0.0,0.0,0.0,17,1.7663017235166204e-22,0,1735643777088284730,map,1.0057876288116163,-0.2561701686790388,0.2348637715234927,-0.2788581227671469,0.6879518685709881,-0.6156932474865724,0.2643524142048014,0.0,0.0,0.0,121,4.069518830876542e-33,0,1735643777088297367,map,0.9985214025169652,0.2008274680390948,0.2380364290420532,-0.4934877560252949,0.4969044955665502,-0.5068702131595193,0.5026314195814808,0.0,0.0,0.0,122,0.0867032781243324,0,1735643777088310956,map,0.997932353971331,0.2034625854300878,0.1404388634132309,-0.4801405430629106,0.519491704525545,-0.4950192832731523,0.5045288267523785,0.0,0.0,0.0,124,0.0011119617847725,0,1735643777088322877,map,0.9856208807158932,-0.0300983178475468,0.2383124159055911,-0.5560677982563271,0.4365423973919218,-0.4347041852721486,0.5578992833196255,0.0,0.0,0.0,125,4.108840351291221e-11,0,1735643777088343858,map,0.9951572656498698,-0.0249621047630373,0.1411461815420062,-0.5613299991395649,0.4705043597264097,-0.4323014654001661,0.5259750208491714,0.0,0.0,0.0,126,3.3846845138143866e-18,0,1735644242188269615,map,0.9719874175773764,0.3329552002712885,0.0222032253794441,-0.4991217097202952,0.4966573064226126,-0.4832643796715908,0.5202543399180417,0.0,0.0,0.0,0,0.0023405931424349,0.9359813905482344,0.420806896344038,0.0755826812386458,1.0,2.1533673485965404e-05,0.0004004222661399,-0.0004076650894168,0.0,0.0,0.0,0.0004004222661399,0.0104048168377454,-0.008207080481236,0.0,0.0,0.0,-0.0004076650894168,-0.008207080481236,0.0078503612380701,0.0,0.0,0.0,0.0,0.0,0.0,0.0,0.0,0.0,0.0,0.0,0.0,0.0,0.0,0.0,0.0,0.0,0.0,0.0,0.0,0.0,0,0,0,1,12,,0
1.199418134,0,1735643777088230371,map,0.9823094083284803,-0.2212705687213312,0.0159412643555531,-0.5040426175639892,0.4995594887986163,-0.4852180801597716,0.51082753598115,0.0,0.0,0.0,1,0.0,0,1735643777088253974,map,0.9785623314630304,-0.2461252751241263,0.1475779224436437,-0.5192911541860933,0.4771209645160579,-0.4694018020288684,0.5313701446782578,0.0,0.0,0.0,16,1.401298464324817e-45,0,1735643777088270664,map,0.9896369354197992,0.0571276261876592,0.0176503323708037,0.5183676943633782,-0.5094782031719535,0.4730986355453057,-0.4979001656740467,0.0,0.0,0.0,17,1.6700666568681005e-23,0,1735643777088284730,map,1.0057876288116163,-0.2561701686790388,0.2348637715234927,-0.2788581227671469,0.6879518685709881,-0.6156932474865724,0.2643524142048014,0.0,0.0,0.0,121,1.2912359180668686e-35,0,1735643777088297367,map,0.9977987466739492,0.2005865409388399,0.2376230257368732,-0.5014216866702895,0.5207600637104286,-0.5045660358037624,0.4720152155326233,0.0,0.0,0.0,122,0.0800462663173675,0,1735643777088310956,map,0.9954518570884332,0.2025998363938012,0.1401808310502304,-0.484554885419632,0.5143649916652319,-0.488473577176984,0.5118874708030217,0.0,0.0,0.0,124,0.0005970930214971,0,1735643777088322877,map,0.9904206572982246,-0.0309170706655668,0.2381030859327877,-0.5633237569011288,0.4824692922522847,-0.4226837718639827,0.5207956950160154,0.0,0.0,0.0,125,4.333408198248234e-12,0,1735643777088343858,map,0.9978087917598706,-0.025556050842844,0.1401325916001601,-0.4555545085422506,0.648557744556419,-0.5078068591992666,0.337602037127882,0.0,0.0,0.0,126,1.473788731361495e-19,0,1735644242188269615,map,0.9647372414404952,0.3294000984442362,0.0240619426728631,-0.493702251385936,0.4992784058091489,-0.4932271862772225,0.5135232255567289,0.0,0.0,0.0,0,0.0022871030960232,0.9368761916146984,0.4361980492945575,0.0589069386408752,1.0,2.948526444650737e-05,0.0005348847942507,-0.0005553639035115,0.0,0.0,0.0,0.0005348847942507,0.0124470973815204,-0.0106556734566933,0.0,0.0,0.0,-0.0005553639035115,-0.0106556734566933,0.0105834519909253,0.0,0.0,0.0,0.0,0.0,0.0,0.0,0.0,0.0,0.0,0.0,0.0,0.0,0.0,0.0,0.0,0.0,0.0,0.0,0.0,0.0,0,0,0,1,13,,0
1.299645998,0,1735643777088230371,map,0.9823094083284803,-0.2212705687213312,0.0159412643555531,-0.5040426175639892,0.4995594887986163,-0.4852180801597716,0.51082753598115,0.0,0.0,0.0,1,0.0,0,1735643777088253974,map,0.9785623314630304,-0.2461252751241263,0.1475779224436437,-0.5192911541860933,0.4771209645160579,-0.4694018020288684,0.5313701446782578,0.0,0.0,0.0,16,0.0,0,1735643777088270664,map,0.9909545875786506,0.053939577628566,0.0175232173667204,-0.5142696660234614,0.5032750721264466,-0.4706953983130288,0.5105749253451217,0.0,0.0,0.0,17,2.3614494498413426e-25,0,1735643777088284730,map,1.0057876288116163,-0.2561701686790388,0.2348637715234927,-0.2788581227671469,0.6879518685709881,-0.6156932474865724,0.2643524142048014,0.0,0.0,0.0,121,1.0306533613735212e-36,0,1735643777088297367,map,1.0007844407775597,0.1988050613458092,0.2394935521770241,-0.4925692154719686,0.4961049996083134,-0.5080669086614718,0.5031137184137798,0.0,0.0,0.0,122,0.0954279601573944,0,1735643777088310956,map,0.992820463862296,0.1990748318275249,0.1418319315704123,-0.4760157275994307,0.5208342016564563,-0.4995907804393639,0.5025433449592718,0.0,0.0,0.0,124,0.0003765601140912,0,1735643777088322877,map,0.9904206572982246,-0.0309170706655668,0.2381030859327877,-0.5633237569011288,0.4824692922522847,-0.4226837718639827,0.5207956950160154,0.0,0.0,0.0,125,3.027591198578872e-12,0,1735643777088343858,map,1.0003704553713435,-0.0307257015086812,0.1406870805130906,0.5422800094040693,-0.5177234869354914,0.4550235531922478,-0.480466802720417,0.0,0.0,0.0,126,6.699608815292599e-21,0,1735644242188269615,map,0.9683882701013984,0.3298270831216296,0.0230666732809206,-0.4956164981847956,0.5020265477747388,-0.4861007106788763,0.5157903945731346,0.0,0.0,0.0,0,0.0012805002043023,0.9377557869172888,0.4557094425566537,0.0415868295427706,1.0,3.743711678130736e-05,0.0007197864257028,-0.0007137459791003,0.0,0.0,0.0,0.0007197864257028,0.0165070470684923,-0.0142877669034943,0.0,0.0,0.0,-0.0007137459791003,-0.0142877669034943,0.0137273114636439,0.0,0.0,0.0,0.0,0.0,0.0,0.0,0.0,0.0,0.0,0.0,0.0,0.0,0.0,0.0,0.0,0.0,0.0,0.0,0.0,0.0,0,0,0,1,14,,0
1.398243542,0,1735643777088230371,map,0.9823094083284803,-0.2212705687213312,0.0159412643555531,-0.5040426175639892,0.4995594887986163,-0.4852180801597716,0.51082753598115,0.0,0.0,0.0,1,0.0,0,1735643777088253974,map,0.9785623314630304,-0.2461252751241263,0.1475779224436437,-0.5192911541860933,0.4771209645160579,-0.4694018020288684,0.5313701446782578,0.0,0.0,0.0,16,2.0332840717353096e-42,0,1735643777088270664,map,0.9819081802866572,0.0540791788755064,0.0199227195931434,-0.5137878743351538,0.4909591779333992,-0.4649055910114243,0.5280567178205796,0.0,0.0,0.0,17,7.890071284784036e-23,0,1735643777088284730,map,1.0057876288116163,-0.2561701686790388,0.2348637715234927,-0.2788581227671469,0.6879518685709881,-0.6156932474865724,0.2643524142048014,0.0,0.0,0.0,121,4.8123912937883003e-32,0,1735643777088297367,map,0.9964424914735426,0.197407726925797,0.2389472846620815,0.4740640315373067,-0.513730045835843,0.5240014957781499,-0.486587264969357,0.0,0.0,0.0,122,0.114518865942955,0,1735643777088310956,map,0.991399442091738,0.1985927421187161,0.1413698784858361,-0.4806236557977763,0.5271938609535862,-0.4970522313770456,0.4939702559299815,0.0,0.0,0.0,124,0.0008328704279847,0,1735643777088322877,map,0.9904206572982246,-0.0309170706655668,0.2381030859327877,-0.5633237569011288,0.4824692922522847,-0.4226837718639827,0.5207956950160154,0.0,0.0,0.0,125,1.24118493260994e-10,0,1735643777088343858,map,1.0003704553713435,-0.0307257015086812,0.1406870805130906,0.5422800094040693,-0.5177234869354914,0.4550235531922478,-0.480466802720417,0.0,0.0,0.0,126,1.3243554517764936e-18,0,1735644242188269615,map,0.9677075753986076,0.3301011500089693,0.0221885445330015,-0.4972463047888779,0.5046250133614401,-0.4926314986870739,0.5053849174293785,0.0,0.0,0.0,0,0.0016451005358248,0.9382785333941835,0.4726841954082288,0.0301545340686696,1.0,3.8767003303369626e-05,0.0007960295554798,-0.0007498296043736,0.0,0.0,0.0,0.0007960295554798,0.019440568545135,-0.0160520945727146,0.0,0.0,0.0,-0.0007498296043736,-0.0160520945727146,0.0146419206833677,0.0,0.0,0.0,0.0,0.0,0.0,0.0,0.0,0.0,0.0,0.0,0.0,0.0,0.0,0.0,0.0,0.0,0.0,0.0,0.0,0.0,0,0,0,1,15,,0
1.498209061,0,1735643777088230371,map,0.9823094083284803,-0.2212705687213312,0.0159412643555531,-0.5040426175639892,0.4995594887986163,-0.4852180801597716,0.51082753598115,0.0,0.0,0.0,1,0.0,0,1735643777088253974,map,0.9785623314630304,-0.2461252751241263,0.1475779224436437,-0.5192911541860933,0.4771209645160579,-0.4694018020288684,0.5313701446782578,0.0,0.0,0.0,16,4.610622757789042e-33,0,1735643777088270664,map,0.9800492613761264,0.0541466694282725,0.0210659314782278,-0.5200728165485123,0.4892552263037468,-0.4564239523468743,0.5308773537699886,0.0,0.0,0.0,17,3.637807571519901e-18,0,1735643777088284730,map,1.0057876288116163,-0.2561701686790388,0.2348637715234927,-0.2788581227671469,0.6879518685709881,-0.6156932474865724,0.2643524142048014,0.0,0.0,0.0,121,7.552004569142641e-25,0,1735643777088297367,map,0.995117240289909,0.1971356830576223,0.2397877264666976,-0.4860347949910162,0.5230622690086836,-0.5182406002759479,0.4707469819586246,0.0,0.0,0.0,122,0.1251807808876037,0,1735643777088310956,map,0.9879392787463894,0.1976612443014038,0.1424232574427339,-0.4679985500205205,0.5351593257545144,-0.5119569464625595,0.4821638084773639,0.0,0.0,0.0,124,0.0033013555221259,0,1735643777088322877,map,0.9904206572982246,-0.0309170706655668,0.2381030859327877,-0.5633237569011288,0.4824692922522847,-0.4226837718639827,0.5207956950160154,0.0,0.0,0.0,125,1.89771593994692e-08,0,1735643777088343858,map,1.0003704553713435,-0.0307257015086812,0.1406870805130906,0.5422800094040693,-0.5177234869354914,0.4550235531922478,-0.480466802720417,0.0,0.0,0.0,126,1.0788942405215354e-14,0,1735644242188269615,map,0.9696645209936896,0.3315713518214018,0.0218272958549243,-0.5024149844427195,0.5091998109213576,-0.4862665747596739,0.5018361826697736,0.0,0.0,0.0,0,0.0048628807999193,0.9384780130716092,0.4858014936960045,0.0243861621852338,1.0,3.6940947722496274e-05,0.0007855272247294,-0.0007202253485389,0.0,0.0,0.0,0.0007855272247294,0.0208064857266213,-0.0161838204813677,0.0,0.0,0.0,-0.0007202253485389,-0.0161838204813677,0.0142259123534414,0.0,0.0,0.0,0.0,0.0,0.0,0.0,0.0,0.0,0.0,0.0,0.0,0.0,0.0,0.0,0.0,0.0,0.0,0.0,0.0,0.0,0,0,0,1,16,,0
1.600418519,0,1735643777088230371,map,0.9755765605027844,-0.2247614630516351,0.0170831469265675,-0.501291451550455,0.5167110679557634,-0.4769880291988849,0.5041814880134096,0.0,0.0,0.0,1,0.0,0,1735643777088253974,map,0.9785623314630304,-0.2461252751241263,0.1475779224436437,-0.5192911541860933,0.4771209645160579,-0.4694018020288684,0.5313701446782578,0.0,0.0,0.0,16,1.1739959628669737e-33,0,1735643777088270664,map,0.9819589032480192,0.0525377713335248,0.0203502475868584,-0.5085966661998242,0.5089460767283939,-0.4718231204583979,0.5095942161309333,0.0,0.0,0.0,17,7.327690608695807e-19,0,1735643777088284730,map,1.0057876288116163,-0.2561701686790388,0.2348637715234927,-0.2788581227671469,0.6879518685709881,-0.6156932474865724,0.2643524142048014,0.0,0.0,0.0,121,3.3944167061691087e-25,0,1735643777088297367,map,0.9914683947161124,0.1944841991522201,0.2400487009450353,-0.4882238075666149,0.5215894518271845,-0.5146889616404416,0.4740012977126306,0.0,0.0,0.0,122,0.1060811653733253,0,1735643777088310956,map,0.9844610099877612,0.1956473513802164,0.1431693176735511,-0.4583071853725085,0.5348100861822732,-0.517721681863605,0.4856922437943176,0.0,0.0,0.0,124,0.00256870361045,0,1735643777088322877,map,0.9884019921043026,-0.037830816658703,0.2407774948175099,-0.5355570425437788,0.4796668477603456,-0.4585767195074391,0.5223081098999038,0.0,0.0,0.0,125,8.915368887585373e-09,0,1735643777088343858,map,0.9834592197913294,-0.0307423037647827,0.1436754497112233,-0.5395394033131525,0.4883940837001255,-0.4552650280889581,0.5129348939956825,0.0,0.0,0.0,126,1.2000966084606268e-14,0,1735644242188269615,map,0.9662230922703924,0.3290139917251489,0.0231387634058348,-0.500832576638735,0.5064648697413368,-0.4849631403412444,0.5074158239606392,0.0,0.0,0.0,0,0.0035667393822222,0.9387125616495944,0.4944847081909828,0.0190307700845138,1.0,3.5648159364602286e-05,0.000771905910716,-0.0006979567451945,0.0,0.0,0.0,0.000771905910716,0.0207889462249787,-0.0159758633343314,0.0,0.0,0.0,-0.0006979567451945,-0.0159758633343314,0.0138479775725488,0.0,0.0,0.0,0.0,0.0,0.0,0.0,0.0,0.0,0.0,0.0,0.0,0.0,0.0,0.0,0.0,0.0,0.0,0.0,0.0,0.0,0,0,0,1,17,,0
1.70121104,0,1735643777088230371,map,0.9709249349704984,-0.2252193395777381,0.0183637961116407,-0.50179736085752,0.5074231416331783,-0.4832773026501488,0.5071136092777822,0.0,0.0,0.0,1,1.418408318574223e-40,0,1735643777088253974,map,0.9785623314630304,-0.2461252751241263,0.1475779224436437,-0.5192911541860933,0.4771209645160579,-0.4694018020288684,0.5313701446782578,0.0,0.0,0.0,16,1.244422540937556e-28,0,1735643777088270664,map,0.9792702670413852,0.0498380234289858,0.0212509635742863,-0.5134141459970076,0.4956805432464345,-0.4682925810068147,0.5209690703977141,0.0,0.0,0.0,17,1.0237334432930856e-15,0,1735643777088284730,map,1.0057876288116163,-0.2561701686790388,0.2348637715234927,-0.2788581227671469,0.6879518685709881,-0.6156932474865724,0.2643524142048014,0.0,0.0,0.0,121,6.20908152339683e-22,0,1735643777088297367,map,0.9922794458770652,0.1918400359569636,0.2408097176147102,0.464068875006069,-0.5150223768001584,0.5347490483111835,-0.4831516179999821,0.0,0.0,0.0,122,0.0889846757054328,0,1735643777088310956,map,0.9853344032747476,0.1928652068129386,0.1432756775160045,-0.473268820041039,0.5376167085530871,-0.5028846982614715,0.4838304237188649,0.0,0.0,0.0,124,0.0046450328081846,0,1735643777088322877,map,0.9808062603236724,-0.0394120792168312,0.2406481760310518,-0.5432113020416476,0.472442405668789,-0.4555835129521649,0.52360607080731,0.0,0.0,0.0,125,5.570762695583654e-08,0,1735643777088343858,map,0.9836323513232426,-0.033784814788345,0.1435990200754601,-0.3362566681973775,0.6912824027503744,-0.5819828386848725,0.2652471832400214,0.0,0.0,0.0,126,9.379463351832928e-13,0,1735644242188269615,map,0.9628887850333578,0.3257785743291224,0.0240124559759569,-0.4917779942931122,0.5035019913206571,-0.4907987275882184,0.5135725441093615,0.0,0.0,0.0,0,0.010566284880042,0.9391635360339394,0.4968709511182222,0.0117634426127469,1.0,3.71251302872705e-05,0.0007473165344047,-0.0007148968055125,0.0,0.0,0.0,0.0007473165344047,0.0197308054082681,-0.0153831227205634,0.0,0.0,0.0,-0.0007148968055125,-0.0153831227205634,0.0139764843110773,0.0,0.0,0.0,0.0,0.0,0.0,0.0,0.0,0.0,0.0,0.0,0.0,0.0,0.0,0.0,0.0,0.0,0.0,0.0,0.0,0.0,0,0,0,1,18,,0
1.797971015,0,1735643777088230371,map,0.9709249349704984,-0.2252193395777381,0.0183637961116407,-0.50179736085752,0.5074231416331783,-0.4832773026501488,0.5071136092777822,0.0,0.0,0.0,1,2.312793187134651e-26,0,1735643777088253974,map,0.9785623314630304,-0.2461252751241263,0.1475779224436437,-0.5192911541860933,0.4771209645160579,-0.4694018020288684,0.5313701446782578,0.0,0.0,0.0,16,2.362148397500769e-19,0,1735643777088270664,map,0.9724421317598336,0.0501988026422257,0.0225395873729335,-0.5098575853432417,0.4833025558657683,-0.4657382584430692,0.5381001363909804,0.0,0.0,0.0,17,3.921843405585434e-10,0,1735643777088284730,map,1.0057876288116163,-0.2561701686790388,0.2348637715234927,-0.2788581227671469,0.6879518685709881,-0.6156932474865724,0.2643524142048014,0.0,0.0,0.0,121,1.8169750338364096e-15,0,1735643777088297367,map,0.9920834577284194,0.1906650890482993,0.239576290701451,0.4607694985827712,-0.5085370051864199,0.5362596353887437,-0.4914338073276406,0.0,0.0,0.0,122,0.0846302434802055,0,1735643777088310956,map,0.986841812462354,0.192025244360783,0.1419593502036386,-0.4898287620828721,0.5399357564174379,-0.486743628370945,0.4812668729702653,0.0,0.0,0.0,124,0.0196272991597652,0,1735643777088322877,map,0.9875573825520156,-0.0430040006000209,0.2404918252254416,-0.5227905102358443,0.4690102781236136,-0.4795906103117858,0.5260344930919693,0.0,0.0,0.0,125,3.1308602501667337e-06,0,1735643777088343858,map,0.9850120333361256,-0.0362899460256632,0.1426093044237617,-0.5358536440917927,0.4932003307297948,-0.4613608514553036,0.506715374373035,0.0,0.0,0.0,126,5.744003495067318e-09,0,1735644242188269615,map,0.9631052940183864,0.3252356951862908,0.0226135010090869,-0.4973096637586023,0.5005564084532979,-0.4857375742073174,0.515931574234251,0.0,0.0,0.0,0,0.0623768679797649,0.9396379128160728,0.4944492761330336,0.0051631781796488,1.0,3.9221776027314575e-05,0.0006873059302623,-0.000733628877508,0.0,0.0,0.0,0.0006873059302623,0.0187979031409376,-0.0142857781677203,0.0,0.0,0.0,-0.000733628877508,-0.0142857781677203,0.0140250227042149,0.0,0.0,0.0,0.0,0.0,0.0,0.0,0.0,0.0,0.0,0.0,0.0,0.0,0.0,0.0,0.0,0.0,0.0,0.0,0.0,0.0,0,0,0,1,19,,0
1.899393325,0,1735643777088230371,map,0.9709249349704984,-0.2252193395777381,0.0183637961116407,-0.50179736085752,0.5074231416331783,-0.4832773026501488,0.5071136092777822,0.0,0.0,0.0,1,1.967898058621885e-20,0,1735643777088253974,map,0.9785623314630304,-0.2461252751241263,0.1475779224436437,-0.5192911541860933,0.4771209645160579,-0.4694018020288684,0.5313701446782578,0.0,0.0,0.0,16,1.8374327853367322e-15,0,1735643777088270664,map,0.9771924324578332,0.0485698520754041,0.0206376157679684,-0.5054266242809634,0.4968710200950099,-0.4744818461880281,0.5220441499487322,0.0,0.0,0.0,17,5.4012101458056356e-08,0,1735643777088284730,map,1.0057876288116163,-0.2561701686790388,0.2348637715234927,-0.2788581227671469,0.6879518685709881,-0.6156932474865724,0.2643524142048014,0.0,0.0,0.0,121,9.39036934148596e-13,0,1735643777088297367,map,0.9952474008481348,0.1897522574967781,0.2402608787436835,-0.4925841853534664,0.3696031207472377,-0.4784717009650024,0.6259546188416713,0.0,0.0,0.0,122,0.0778738483786583,0,1735643777088310956,map,0.9867733061321304,0.1908343987046377,0.1422123292945071,-0.5967798065294955,0.4865855689546472,-0.3742174224784415,0.5167684852206946,0.0,0.0,0.0,124,0.0364635065197944,0,1735643777088322877,map,0.9862878214423614,-0.0437656486086544,0.2404765381427899,-0.5295958304178267,0.4931604461845638,-0.4679225359680334,0.5073160070965029,0.0,0.0,0.0,125,1.930816688400228e-05,0,1735643777088343858,map,0.984994297374132,-0.0375411322055167,0.1427409527801227,-0.5168889348983408,0.4925957891627521,-0.4846020633328007,0.5053078840591906,0.0,0.0,0.0,126,2.552647515585704e-07,0,1735644242188269615,map,0.961670140501858,0.3239341884037209,0.0231110139001222,-0.4946083272714965,0.5018653066616542,-0.4948429610200934,0.5085511385219408,0.0,0.0,0.0,0,0.1346683353185653,0.9400317783790028,0.4910754582422127,-2.8273322824353548e-05,1.0,4.020815877752821e-05,0.0006276928507761,-0.000735797379033,0.0,0.0,0.0,0.0006276928507761,0.0180742782799388,-0.0132387040321252,0.0,0.0,0.0,-0.000735797379033,-0.0132387040321252,0.0138358437743522,0.0,0.0,0.0,0.0,0.0,0.0,0.0,0.0,0.0,0.0,0.0,0.0,0.0,0.0,0.0,0.0,0.0,0.0,0.0,0.0,0.0,0,0,0,1,20,,0
2.001561165,0,1735643777088230371,map,0.9709249349704984,-0.2252193395777381,0.0183637961116407,-0.50179736085752,0.5074231416331783,-0.4832773026501488,0.5071136092777822,0.0,0.0,0.0,1,9.900402742506837e-19,0,1735643777088253974,map,0.9785623314630304,-0.2461252751241263,0.1475779224436437,-0.5192911541860933,0.4771209645160579,-0.4694018020288684,0.5313701446782578,0.0,0.0,0.0,16,1.9370335684835288e-14,0,1735643777088270664,map,0.9776326304284456,0.0489349851566006,0.0211587023772013,-0.5038944960853383,0.5060706426313618,-0.4746501454371273,0.5144803989639427,0.0,0.0,0.0,17,2.773572873593366e-07,0,1735643777088284730,map,1.0057876288116163,-0.2561701686790388,0.2348637715234927,-0.2788581227671469,0.6879518685709881,-0.6156932474865724,0.2643524142048014,0.0,0.0,0.0,121,4.029287754142574e-12,0,1735643777088297367,map,0.9884289722558192,0.1892715369804675,0.2407611638229991,-0.5179478276959423,0.5226017785355364,-0.4851399656755007,0.4725004154082014,0.0,0.0,0.0,122,0.0679792761802673,0,1735643777088310956,map,0.9861753009086984,0.1910872161339638,0.1432722195170496,-0.4721141565056435,0.5162429216328553,-0.5007549626381005,0.5097508572668153,0.0,0.0,0.0,124,0.0428492724895477,0,1735643777088322877,map,0.993154481712715,-0.0474819987349115,0.2427212153625144,-0.5160469112158217,0.4888105305210212,-0.4835069595136806,0.5108628688583701,0.0,0.0,0.0,125,2.3119966499507427e-05,0,1735643777088343858,map,0.9831349212089452,-0.037069722109632,0.143805774278759,-0.5154047296760323,0.4914610818124024,-0.4828661599007114,0.5095726065185411,0.0,0.0,0.0,126,7.6899527812202e-07,0,1735644242188269615,map,0.9599044903735692,0.3239681685481835,0.0245768004612502,-0.4975932035637113,0.4918038880744257,-0.4885790403866402,0.5213640385919909,0.0,0.0,0.0,0,0.1801161020994186,0.9403601711444992,0.4895329778918427,-0.004625743336663,1.0,4.04503207186361e-05,0.0005876719272652,-0.0007309549264455,0.0,0.0,0.0,0.0005876719272652,0.017261183274472,-0.0124664594112497,0.0,0.0,0.0,-0.0007309549264455,-0.0124664594112497,0.0135997286813746,0.0,0.0,0.0,0.0,0.0,0.0,0.0,0.0,0.0,0.0,0.0,0.0,0.0,0.0,0.0,0.0,0.0,0.0,0.0,0.0,0.0,0,0,0,1,21,,0
2.09971406,0,1735643777088230371,map,0.9709249349704984,-0.2252193395777381,0.0183637961116407,-0.50179736085752,0.5074231416331783,-0.4832773026501488,0.5071136092777822,0.0,0.0,0.0,1,1.2823884433986157e-18,0,1735643777088253974,map,0.9785623314630304,-0.2461252751241263,0.1475779224436437,-0.5192911541860933,0.4771209645160579,-0.4694018020288684,0.5313701446782578,0.0,0.0,0.0,16,1.7033712290605473e-14,0,1735643777088270664,map,0.9737656549828946,0.046800757078746,0.0225283325608741,-0.5072865624567561,0.5058773081964653,-0.4678499219777198,0.5175567052103061,0.0,0.0,0.0,17,3.1260071864380734e-07,0,1735643777088284730,map,1.0057876288116163,-0.2561701686790388,0.2348637715234927,-0.2788581227671469,0.6879518685709881,-0.6156932474865724,0.2643524142048014,0.0,0.0,0.0,121,2.8544696988042077e-12,0,1735643777088297367,map,0.994087833433225,0.1893946460148203,0.2418952076863749,-0.4832708421594769,0.491441116118825,-0.5202273673763449,0.5042800895722852,0.0,0.0,0.0,122,0.0584159381687641,0,1735643777088310956,map,0.981431172873408,0.1905626155158482,0.1433941817197849,-0.4612318617858597,0.5311082080560986,-0.5119494570084759,0.4930486735381371,0.0,0.0,0.0,124,0.0399667955935001,0,1735643777088322877,map,0.993154481712715,-0.0474819987349115,0.2427212153625144,-0.5160469112158217,0.4888105305210212,-0.4835069595136806,0.5108628688583701,0.0,0.0,0.0,125,1.7922398910741322e-05,0,1735643777088343858,map,0.9806153227000176,-0.0373584698235934,0.1437325401470054,-0.5270445515893957,0.4892310432514672,-0.4717580923345253,0.5102169433445977,0.0,0.0,0.0,126,6.986479093029629e-07,0,1735644242188269615,map,0.9624441803153376,0.3241469322430275,0.0236652595356169,-0.5080258720804072,0.5011060934858013,-0.4835736075643841,0.5069111977807436,0.0,0.0,0.0,0,0.1867504119873047,0.9406346019090716,0.4898411663568358,-0.0088059224138491,1.0,4.019322691229937e-05,0.0005627356712527,-0.0007218202670604,0.0,0.0,0.0,0.0005627356712527,0.0164785786174523,-0.0119268561077209,0.0,0.0,0.0,-0.0007218202670604,-0.0119268561077209,0.0133485110353218,0.0,0.0,0.0,0.0,0.0,0.0,0.0,0.0,0.0,0.0,0.0,0.0,0.0,0.0,0.0,0.0,0.0,0.0,0.0,0.0,0.0,0,0,0,1,22,,0
2.197829495,0,1735643777088230371,map,0.9709249349704984,-0.2252193395777381,0.0183637961116407,-0.50179736085752,0.5074231416331783,-0.4832773026501488,0.5071136092777822,0.0,0.0,0.0,1,2.2071140711930178e-19,0,1735643777088253974,map,0.9785623314630304,-0.2461252751241263,0.1475779224436437,-0.5192911541860933,0.4771209645160579,-0.4694018020288684,0.5313701446782578,0.0,0.0,0.0,16,4.150130675180169e-15,0,1735643777088270664,map,0.9693615866870288,0.0477337965940645,0.0236244330515759,-0.3994840337659447,0.7949573651925429,-0.4073249522573116,0.2062563394439022,0.0,0.0,0.0,17,1.9563461250982078e-07,0,1735643777088284730,map,1.0057876288116163,-0.2561701686790388,0.2348637715234927,-0.2788581227671469,0.6879518685709881,-0.6156932474865724,0.2643524142048014,0.0,0.0,0.0,121,8.482983738199168e-13,0,1735643777088297367,map,0.9856256245411557,0.1862035498726626,0.2419517999064475,-0.4985741479972229,0.49265478259765,-0.5033740715933962,0.5053015220440094,0.0,0.0,0.0,122,0.0478178113698959,0,1735643777088310956,map,0.9768192286192646,0.1876710823688821,0.1443495640940507,-0.4392192119140812,0.5419671382273378,-0.5347489576649063,0.4768664983447037,0.0,0.0,0.0,124,0.0318012498319149,0,1735643777088322877,map,0.9805792491096164,-0.0477292521740905,0.2427750896155367,-0.5233194943688583,0.4746511774896685,-0.4823651016055266,0.5178483129974296,0.0,0.0,0.0,125,1.0944653695332818e-05,0,1735643777088343858,map,0.9767129788888138,-0.0401705376672367,0.1446638797870502,-0.516597701253003,0.4849432761996374,-0.4867963548889697,0.5108680287468453,0.0,0.0,0.0,126,3.215969286429754e-07,0,1735644242188269615,map,0.9563774633443332,0.3219848154055613,0.0244323915604203,-0.4892013739234648,0.5070838645268292,-0.4992290566040062,0.5042998305871268,0.0,0.0,0.0,0,0.1692196875810623,0.9408208629710736,0.492191134223137,-0.012096349641054,1.0,3.9208945338213615e-05,0.0005478984681672,-0.0007039201035234,0.0,0.0,0.0,0.0005478984681672,0.0158836103549614,-0.011578409908023,0.0,0.0,0.0,-0.0007039201035234,-0.011578409908023,0.0130063330397335,0.0,0.0,0.0,0.0,0.0,0.0,0.0,0.0,0.0,0.0,0.0,0.0,0.0,0.0,0.0,0.0,0.0,0.0,0.0,0.0,0.0,0,0,0,1,23,,0
2.298100542,0,1735643777088230371,map,0.9709249349704984,-0.2252193395777381,0.0183637961116407,-0.50179736085752,0.5074231416331783,-0.4832773026501488,0.5071136092777822,0.0,0.0,0.0,1,1.9765837458593762e-19,0,1735643777088253974,map,0.9785623314630304,-0.2461252751241263,0.1475779224436437,-0.5192911541860933,0.4771209645160579,-0.4694018020288684,0.5313701446782578,0.0,0.0,0.0,16,2.5402136923330207e-15,0,1735643777088270664,map,0.97098964618145,0.0457083877584425,0.0218856637063831,-0.5074865686025923,0.5095778373279698,-0.467193459600045,0.5143132136150667,0.0,0.0,0.0,17,1.496180459525931e-07,0,1735643777088284730,map,1.0057876288116163,-0.2561701686790388,0.2348637715234927,-0.2788581227671469,0.6879518685709881,-0.6156932474865724,0.2643524142048014,0.0,0.0,0.0,121,4.333914141192025e-13,0,1735643777088297367,map,0.9902165172158272,0.1849420619902938,0.2430789062919858,-0.4580166692532709,0.4058217326535867,-0.5350816285809514,0.5824234737262379,0.0,0.0,0.0,122,0.0401227734982967,0,1735643777088310956,map,0.9784029932685694,0.1866087781206423,0.1443104838680808,-0.4767858903539204,0.5533901170690736,-0.4945559461624265,0.4710085022641136,0.0,0.0,0.0,124,0.0271586775779724,0,1735643777088322877,map,0.978471755073828,-0.0486077165391251,0.2427954023956664,-0.5215296444334128,0.4760604154892122,-0.4845914933971721,0.5162793771869021,0.0,0.0,0.0,125,7.031707355054095e-06,0,1735643777088343858,map,0.9748632299802724,-0.0408582329345299,0.1448402102793968,-0.5186250166290617,0.4892245198435542,-0.4807728038959698,0.510436060975669,0.0,0.0,0.0,126,2.355282475718923e-07,0,1735644242188269615,map,0.9556389541256908,0.321587663394957,0.0242492085672923,-0.4948777519354552,0.5009280985990473,-0.4921737725249265,0.511792954535167,0.0,0.0,0.0,0,0.1697747260332107,0.941158974046704,0.49413202220447,-0.017577064639078,1.0,4.020457857012689e-05,0.000540162786957,-0.0007172111794036,0.0,0.0,0.0,0.000540162786957,0.0153084353184279,-0.0113406376008372,0.0,0.0,0.0,-0.0007172111794036,-0.0113406376008372,0.0131552819448712,0.0,0.0,0.0,0.0,0.0,0.0,0.0,0.0,0.0,0.0,0.0,0.0,0.0,0.0,0.0,0.0,0.0,0.0,0.0,0.0,0.0,0,0,0,1,24,,0
2.400604647,0,1735643777088230371,map,0.9709249349704984,-0.2252193395777381,0.0183637961116407,-0.50179736085752,0.5074231416331783,-0.4832773026501488,0.5071136092777822,0.0,0.0,0.0,1,3.5363312123963064e-20,0,1735643777088253974,map,0.9785623314630304,-0.2461252751241263,0.1475779224436437,-0.5192911541860933,0.4771209645160579,-0.4694018020288684,0.5313701446782578,0.0,0.0,0.0,16,7.471472751636066e-16,0,1735643777088270664,map,0.9680091004079756,0.0465005416272699,0.0224210040232791,-0.4974589316115965,0.5000548394345289,-0.4857407414576742,0.5162709569655316,0.0,0.0,0.0,17,8.724458666620195e-08,0,1735643777088284730,map,1.0057876288116163,-0.2561701686790388,0.2348637715234927,-0.2788581227671469,0.6879518685709881,-0.6156932474865724,0.2643524142048014,0.0,0.0,0.0,121,1.7224656217399578e-13,0,1735643777088297367,map,0.9873331424725388,0.1842600201821124,0.2428540536578617,-0.5046695202280098,0.4919472444018727,-0.4979484632841048,0.5053156557947054,0.0,0.0,0.0,122,0.0369532257318496,0,1735643777088310956,map,0.9778880792981705,0.1860013696235786,0.1442751485998227,-0.5240895189466473,0.5112654875350112,-0.4453402021910486,0.5153735360864923,0.0,0.0,0.0,124,0.0232940725982189,0,1735643777088322877,map,0.9815481163861058,-0.0514595405586883,0.2435764664046317,-0.51307866873649,0.4915937365633865,-0.4864112674879239,0.508419075881335,0.0,0.0,0.0,125,4.298902240407188e-06,0,1735643777088343858,map,0.979530428955302,-0.0443693116301056,0.1446014235585994,0.504475559172727,-0.5007582577150104,0.4968119362872391,-0.4979191475431693,0.0,0.0,0.0,126,1.00818141390846e-07,0,1735644242188269615,map,0.9573953712714232,0.3224355211573222,0.0233406660878009,-0.5057793706771443,0.4954382578003146,-0.4818328411773383,0.5162995971993345,0.0,0.0,0.0,0,0.1547085046768188,0.9414470480038424,0.4997983148514653,-0.0230962730193927,1.0,4.0588073942076046e-05,0.0005577317477617,-0.0007266812969888,0.0,0.0,0.0,0.0005577317477617,0.0154666628423642,-0.0116375748935064,0.0,0.0,0.0,-0.0007266812969888,-0.0116375748935064,0.0133601505345645,0.0,0.0,0.0,0.0,0.0,0.0,0.0,0.0,0.0,0.0,0.0,0.0,0.0,0.0,0.0,0.0,0.0,0.0,0.0,0.0,0.0,0,0,0,1,25,,0
2.500098195,0,1735643777088230371,map,0.9709249349704984,-0.2252193395777381,0.0183637961116407,-0.50179736085752,0.5074231416331783,-0.4832773026501488,0.5071136092777822,0.0,0.0,0.0,1,2.59154594034455e-17,0,1735643777088253974,map,0.9785623314630304,-0.2461252751241263,0.1475779224436437,-0.5192911541860933,0.4771209645160579,-0.4694018020288684,0.5313701446782578,0.0,0.0,0.0,16,2.2398866073546078e-13,0,1735643777088270664,map,0.9642214392363416,0.0456306867598666,0.0244864257114828,-0.4993678088066439,0.4948288286955097,-0.4804298343330338,0.5243695224764834,0.0,0.0,0.0,17,9.295143854615162e-07,0,1735643777088284730,map,1.0057876288116163,-0.2561701686790388,0.2348637715234927,-0.2788581227671469,0.6879518685709881,-0.6156932474865724,0.2643524142048014,0.0,0.0,0.0,121,2.676895684283753e-11,0,1735643777088297367,map,0.9804854560285424,0.1823727426670493,0.2439008659885173,-0.5062216851332058,0.4868661463574975,-0.4991096753432236,0.5075337358350471,0.0,0.0,0.0,122,0.0428404286503791,0,1735643777088310956,map,0.9735768183506116,0.1842155497076167,0.1459029550164257,-0.5315485218065549,0.4871082342154342,-0.4372943826221215,0.5375456818279966,0.0,0.0,0.0,124,0.0373551249504089,0,1735643777088322877,map,0.9736710099021852,-0.0475742910223077,0.2429075149951517,-0.5227999799939171,0.4856972627018159,-0.477741383752397,0.512388056235377,0.0,0.0,0.0,125,3.898001159541309e-05,0,1735643777088343858,map,0.9692253394626336,-0.038850430750298,0.1454865610494317,-0.5182783736035083,0.4920078603744037,-0.482433445874705,0.506531107718136,0.0,0.0,0.0,126,2.0723075522255385e-06,0,1735644242188269615,map,0.9547973058623436,0.3209720757608999,0.0247801991837532,-0.5021911119289253,0.5002393686393759,-0.4844703576536212,0.5126920456939434,0.0,0.0,0.0,0,0.184915229678154,0.9416237696747892,0.5113489874937704,-0.0281917044050973,1.0,3.980775789962952e-05,0.0005873118809416,-0.0007212438450523,0.0,0.0,0.0,0.0005873118809416,0.0182072421568234,-0.0126613673568308,0.0,0.0,0.0,-0.0007212438450523,-0.0126613673568308,0.0134953841160879,0.0,0.0,0.0,0.0,0.0,0.0,0.0,0.0,0.0,0.0,0.0,0.0,0.0,0.0,0.0,0.0,0.0,0.0,0.0,0.0,0.0,0,0,0,1,26,,0
