%time,field.boxes0.header.seq,field.boxes0.header.stamp,field.boxes0.header.frame_id,field.boxes0.pose.position.x,field.boxes0.pose.position.y,field.boxes0.pose.position.z,field.boxes0.pose.orientation.x,field.boxes0.pose.orientation.y,field.boxes0.pose.orientation.z,field.boxes0.pose.orientation.w,field.boxes0.scale.x,field.boxes0.scale.y,field.boxes0.scale.z,field.boxes0.id,field.boxes0.pdf,field.boxes1.header.seq,field.boxes1.header.stamp,field.boxes1.header.frame_id,field.boxes1.pose.position.x,field.boxes1.pose.position.y,field.boxes1.pose.position.z,field.boxes1.pose.orientation.x,field.boxes1.pose.orientation.y,field.boxes1.pose.orientation.z,field.boxes1.pose.orientation.w,field.boxes1.scale.x,field.boxes1.scale.y,field.boxes1.scale.z,field.boxes1.id,field.boxes1.pdf,field.boxes2.header.seq,field.boxes2.header.stamp,field.boxes2.header.frame_id,field.boxes2.pose.position.x,field.boxes2.pose.position.y,field.boxes2.pose.position.z,field.boxes2.pose.orientation.x,field.boxes2.pose.orientation.y,field.boxes2.pose.orientation.z,field.boxes2.pose.orientation.w,field.boxes2.scale.x,field.boxes2.scale.y,field.boxes2.scale.z,field.boxes2.id,field.boxes2.pdf,field.boxes3.header.seq,field.boxes3.header.stamp,field.boxes3.header.frame_id,field.boxes3.pose.position.x,field.boxes3.pose.position.y,field.boxes3.pose.position.z,field.boxes3.pose.orientation.x,field.boxes3.pose.orientation.y,field.boxes3.pose.orientation.z,field.boxes3.pose.orientation.w,field.boxes3.scale.x,field.boxes3.scale.y,field.boxes3.scale.z,field.boxes3.id,field.boxes3.pdf,field.boxes4.header.seq,field.boxes4.header.stamp,field.boxes4.header.frame_id,field.boxes4.pose.position.x,field.boxes4.pose.position.y,field.boxes4.pose.position.z,field.boxes4.pose.orientation.x,field.boxes4.pose.orientation.y,field.boxes4.pose.orientation.z,field.boxes4.pose.orientation.w,field.boxes4.scale.x,field.boxes4.scale.y,field.boxes4.scale.z,field.boxes4.id,field.boxes4.pdf,field.boxes5.header.seq,field.boxes5.header.stamp,field.boxes5.header.frame_id,field.boxes5.pose.position.x,field.boxes5.pose.position.y,field.boxes5.pose.position.z,field.boxes5.pose.orientation.x,field.boxes5.pose.orientation.y,field.boxes5.pose.orientation.z,field.boxes5.pose.orientation.w,field.boxes5.scale.x,field.boxes5.scale.y,field.boxes5.scale.z,field.boxes5.id,field.boxes5.pdf,field.boxes6.header.seq,field.boxes6.header.stamp,field.boxes6.header.frame_id,field.boxes6.pose.position.x,field.boxes6.pose.position.y,field.boxes6.pose.position.z,field.boxes6.pose.orientation.x,field.boxes6.pose.orientation.y,field.boxes6.pose.orientation.z,field.boxes6.pose.orientation.w,field.boxes6.scale.x,field.boxes6.scale.y,field.boxes6.scale.z,field.boxes6.id,field.boxes6.pdf,field.boxes7.header.seq,field.boxes7.header.stamp,field.boxes7.header.frame_id,field.boxes7.pose.position.x,field.boxes7.pose.position.y,field.boxes7.pose.position.z,field.boxes7.pose.orientation.x,field.boxes7.pose.orientation.y,field.boxes7.pose.orientation.z,field.boxes7.pose.orientation.w,field.boxes7.scale.x,field.boxes7.scale.y,field.boxes7.scale.z,field.boxes7.id,field.boxes7.pdf,field.boxes8.header.seq,field.boxes8.header.stamp,field.boxes8.header.frame_id,field.boxes8.pose.position.x,field.boxes8.pose.position.y,field.boxes8.pose.position.z,field.boxes8.pose.orientation.x,field.boxes8.pose.orientation.y,field.boxes8.pose.orientation.z,field.boxes8.pose.orientation.w,field.boxes8.scale.x,field.boxes8.scale.y,field.boxes8.scale.z,field.boxes8.id,field.boxes8.pdf,field.pose.pose.position.x,field.pose.pose.position.y,field.pose.pose.position.z,field.pose.pose.orientation.w,field.pose.covariance0,field.pose.covariance1,field.pose.covariance2,field.pose.covariance3,field.pose.covariance4,field.pose.covariance5,field.pose.covariance6,field.pose.covariance7,field.pose.covariance8,field.pose.covariance9,field.pose.covariance10,field.pose.covariance11,field.pose.covariance12,field.pose.covariance13,field.pose.covariance14,field.pose.covariance15,field.pose.covariance16,field.pose.covariance17,field.pose.covariance18,field.pose.covariance19,field.pose.covariance20,field.pose.covariance21,field.pose.covariance22,field.pose.covariance23,field.pose.covariance24,field.pose.covariance25,field.pose.covariance26,field.pose.covariance27,field.pose.covariance28,field.pose.covariance29,field.pose.covariance30,field.pose.covariance31,field.pose.covariance32,field.pose.covariance33,field.pose.covariance34,field.pose.covariance35,field.buttons0,field.buttons1,field.buttons2,field.buttons3,intersection_length,vacuum,desired_box
0.0,0,1735643777088230371,map,0.985189221008059,-0.220912762125615,0.020567236126462,-0.4966414770604473,0.5096293372472694,-0.4954461258349476,0.4981549139326717,0.0,0.0,0.0,1,0.1111111119389534,0,1735643777088253974,map,0.9732600119899496,-0.245928702044663,0.1495344312482012,-0.5033792925970143,0.4706774489925442,-0.4939421299668161,0.5301822319148815,0.0,0.0,0.0,16,0.1111111119389534,0,1735643777088270664,map,0.9865093453613568,0.0563176361578461,0.025846982617974,-0.5047296717127286,0.48263229595001,-0.4737968094469252,0.5364984704141267,0.0,0.0,0.0,17,0.1111111119389534,0,1735643777088284730,map,1.0052361364979605,-0.255924016277352,0.2373698001453058,-0.5245145016961137,0.5122310448757822,-0.4571825660333188,0.5034759135163589,0.0,0.0,0.0,121,0.1111111119389534,0,1735643777088297367,map,1.01571008552287,0.2069682765204948,0.2430211402346039,-0.6294507192667296,0.2814147012548698,-0.2985500971122858,0.6598980204898893,0.0,0.0,0.0,122,0.1111111119389534,0,1735643777088310956,map,1.010269413681458,0.2079843226105211,0.1446551102355982,-0.7174322380551059,0.32783557430151,-0.233783559055648,0.5684716945784685,0.0,0.0,0.0,124,0.1111111119389534,0,1735643777088322877,map,1.0003113562060908,-0.0268595603620678,0.2430550561593198,-0.498246014722652,0.4941589371392171,-0.4998310268417036,0.5076680000401864,0.0,0.0,0.0,125,0.1111111119389534,0,1735643777088343858,map,0.9961869726924754,-0.0214277152340757,0.1463048952223041,0.4611809212816427,-0.5126752988079728,0.5490415264764301,-0.4722600957548736,0.0,0.0,0.0,126,0.1111111119389534,0,1735644242188269615,map,0.9785587957540052,0.3331566474960922,0.025166910631098,-0.5083663590950549,0.4886901640140491,-0.4801503061999165,0.5217290982804065,0.0,0.0,0.0,0,0.1111111119389534,0.9224242374364162,0.7293536833934193,0.2135363576071267,1.0,0.0,0.0,0.0,0.0,0.0,0.0,0.0,0.0,0.0,0.0,0.0,0.0,0.0,0.0,0.0,0.0,0.0,0.0,0.0,0.0,0.0,0.0,0.0,0.0,0.0,0.0,0.0,0.0,0.0,0.0,0.0,0.0,0.0,0.0,0.0,0.0,0,0,0,1,1,,0
0.099699783,0,1735643777088230371,map,0.9760488301660104,-0.2183192724467652,0.0240086178565522,-0.4874320508436621,0.488985650832025,-0.5065797282479948,0.5164106970415223,0.0,0.0,0.0,1,0.0,0,1735643777088253974,map,0.9774437845120224,-0.2470558581512857,0.1495181188544183,-0.5270988996308931,0.4931287424527337,-0.4667789928718883,0.5109874413215978,0.0,0.0,0.0,16,0.0,0,1735643777088270664,map,0.9885388028045052,0.0571111783009476,0.0253021165378812,-0.4847496054936591,0.4958646624200161,-0.4999843779110623,0.5187983022155278,0.0,0.0,0.0,17,0.0,0,1735643777088284730,map,1.0083200166140136,-0.2564517462972695,0.2374702282355408,-0.4832550187493024,0.4771919674053356,-0.4971650179568639,0.5399808867148802,0.0,0.0,0.0,121,0.0,0,1735643777088297367,map,1.0083460772710404,0.204374199787996,0.2428096737292285,-0.5010619624939117,0.5052085524043624,-0.5009676389008242,0.492679056885283,0.0,0.0,0.0,122,0.0,0,1735643777088310956,map,1.0102928330528695,0.2083458323190592,0.1447755764398245,-0.4874058110175914,0.4981011360134189,-0.4776249371217623,0.5349815446609898,0.0,0.0,0.0,124,0.0,0,1735643777088322877,map,1.0051476952142435,-0.0269624769407054,0.243288651805365,-0.576744168910081,0.4287494231319544,-0.4091840374064046,0.562235288223739,0.0,0.0,0.0,125,0.0,0,1735643777088343858,map,1.0097121036820385,-0.0200373486915579,0.1450959574907343,-0.5018926473637331,0.5410626667720966,-0.5056778021475535,0.4468164293789013,0.0,0.0,0.0,126,0.0,0,1735644242188269615,map,0.9811689752856716,0.3347196415851552,0.0248160282459017,-0.4927084936284436,0.4976553164322468,-0.4807382447215251,0.5277009251414836,0.0,0.0,0.0,0,0.0,0.92226938523122,0.697473717085048,0.2226081386304656,1.0,2.397920545415313e-08,4.936683084434638e-06,-1.404785296521854e-06,0.0,0.0,0.0,4.936683084434638e-06,0.0010163322518228,-0.0002892080733809,0.0,0.0,0.0,-1.404785296521854e-06,-0.0002892080733809,8.22972109354108e-05,0.0,0.0,0.0,0.0,0.0,0.0,0.0,0.0,0.0,0.0,0.0,0.0,0.0,0.0,0.0,0.0,0.0,0.0,0.0,0.0,0.0,0,0,0,1,2,,0
0.200405908,0,1735643777088230371,map,0.9845173851848824,-0.2192079570074527,0.0216660576130645,-0.4899995235173365,0.5149518897954194,-0.4968790987446028,0.4978314768871698,0.0,0.0,0.0,1,0.0,0,1735643777088253974,map,0.9811126803433524,-0.2469117901365225,0.1489528620153551,-0.5261396493713996,0.4936726278787036,-0.467746941112426,0.5105655735776203,0.0,0.0,0.0,16,0.0,0,1735643777088270664,map,0.9959727541584776,0.0592423067155169,0.0232936522192006,-0.5126908715680472,0.5000685509887012,-0.4797002883149033,0.5069192715940632,0.0,0.0,0.0,17,5.00933288625172e-22,0,1735643777088284730,map,1.0153540936248378,-0.2572038918354914,0.237644084700294,-0.3249807466010214,0.626125623345317,-0.6168118211033234,0.3491380750881845,0.0,0.0,0.0,121,0.0,0,1735643777088297367,map,1.022716616688962,0.2105417848862234,0.2430551806930019,-0.5352655124144479,0.4747003814370224,-0.4661197427979095,0.5204639895874208,0.0,0.0,0.0,122,6.5207322089658875e-40,0,1735643777088310956,map,1.011368565822598,0.2092252278732307,0.1446660905750753,-0.4829989314137319,0.5028292632766176,-0.4842260557593577,0.5285829085106917,0.0,0.0,0.0,124,3.672315585352833e-21,0,1735643777088322877,map,1.0048925062135423,-0.0263596170872797,0.2429395170015698,0.4826580000464947,-0.5033977146290175,0.5149650248580402,-0.498440587302397,0.0,0.0,0.0,125,0.0,0,1735643777088343858,map,1.0038062719965024,-0.0201626293035154,0.1457981325047193,-0.503236851556965,0.5063500343756518,-0.4988039731681719,0.4914843947415372,0.0,0.0,0.0,126,0.0,0,1735644242188269615,map,0.9776565919922682,0.3329136175908092,0.0260075599746104,-0.488069866836058,0.5035166292470286,-0.4867828298688324,0.5208658999236127,0.0,0.0,0.0,0,2.0026009224238805e-05,0.9247579312831904,0.6516486449409935,0.1949962866695967,1.0,1.2401709042523529e-05,-0.0002247844826743,-0.0001383632539006,0.0,0.0,0.0,-0.0002247844826743,0.0048774293085641,0.0023378248340215,0.0,0.0,0.0,-0.0001383632539006,0.0023378248340215,0.0015796935447081,0.0,0.0,0.0,0.0,0.0,0.0,0.0,0.0,0.0,0.0,0.0,0.0,0.0,0.0,0.0,0.0,0.0,0.0,0.0,0.0,0.0,0,0,0,1,3,,0
0.301264952,0,1735643777088230371,map,0.9904526880510094,-0.2201585376652377,0.0194495184902468,-0.4980953113963589,0.501189115409928,-0.4920505717928975,0.5085241057785376,0.0,0.0,0.0,1,0.0,0,1735643777088253974,map,0.98445154883737,-0.2471877825074976,0.1482471110689151,-0.5129928210938702,0.4787409447330097,-0.4838115978877822,0.5230409267844814,0.0,0.0,0.0,16,0.0,0,1735643777088270664,map,0.9875607872037564,0.057831895346078,0.0259892691432915,-0.4873573874482336,0.4981452179985421,-0.4958125131498543,0.518173784061721,0.0,0.0,0.0,17,8.39893610080605e-30,0,1735643777088284730,map,1.009610046692987,-0.2554949655147346,0.237051803941631,-0.4863000026828463,0.4609794809032448,-0.5047099651570406,0.5443143178789418,0.0,0.0,0.0,121,0.0,0,1735643777088297367,map,1.0145438015537986,0.2074644599930055,0.242296485529226,-0.495807314862721,0.4799418277781327,-0.5045001435011194,0.5189513981915397,0.0,0.0,0.0,122,4.203895392974451e-45,0,1735643777088310956,map,1.0090690497945087,0.2082102607276608,0.1447552121181134,-0.4844283741203499,0.4972529308189019,-0.4889903338936817,0.5281639201021523,0.0,0.0,0.0,124,7.012790869256067e-27,0,1735643777088322877,map,1.0042786029673911,-0.0255482509723002,0.2429504688517736,-0.4815019804968969,0.5641185676549714,-0.5050053925544251,0.4414698606874769,0.0,0.0,0.0,125,0.0,0,1735643777088343858,map,0.9936262605585258,-0.0205314385101615,0.1467379236597306,0.6557810866253609,-0.4906041890023846,0.3526251604020139,-0.4526744883569509,0.0,0.0,0.0,126,0.0,0,1735644242188269615,map,0.986119872048872,0.3384735869320771,0.0235364166564855,-0.506932710646304,0.4894438173518,-0.4792022519778082,0.5232868985865079,0.0,0.0,0.0,0,0.0003346308949403,0.9271504112862128,0.6212078470873272,0.1655676152892126,1.0,2.6473163476480825e-05,-0.0003870753624286,-0.0003149949638047,0.0,0.0,0.0,-0.0003870753624286,0.0064379985033264,0.0044408653352929,0.0,0.0,0.0,-0.0003149949638047,0.0044408653352929,0.003782910256175,0.0,0.0,0.0,0.0,0.0,0.0,0.0,0.0,0.0,0.0,0.0,0.0,0.0,0.0,0.0,0.0,0.0,0.0,0.0,0.0,0.0,0,0,0,1,4,,0
0.401360824,0,1735643777088230371,map,0.9901176229388003,-0.2193279350581485,0.0190211203935084,-0.5045086573757692,0.5074890050636601,-0.4808338997183358,0.5066800620253896,0.0,0.0,0.0,1,0.0,0,1735643777088253974,map,0.9885184986122038,-0.2473349670362485,0.1475613103793792,-0.5139519671974667,0.4839788525530671,-0.4792003530139838,0.521521684464361,0.0,0.0,0.0,16,0.0,0,1735643777088270664,map,0.9882484482941056,0.0583670028914308,0.0250165583988327,-0.4851285018697657,0.4941068599818873,-0.5050424098106745,0.5152095805447172,0.0,0.0,0.0,17,4.216054670953102e-34,0,1735643777088284730,map,1.0090421461787875,-0.2550041624830204,0.2364551096162229,-0.5224177464538967,0.489400742085639,-0.4582587350432633,0.5268448951945972,0.0,0.0,0.0,121,0.0,0,1735643777088297367,map,1.0120628148952753,0.2066418753557586,0.2416608891908317,0.5288568891471291,-0.5074906933633445,0.4905604334070101,-0.4712897708700452,0.0,0.0,0.0,122,0.0,0,1735643777088310956,map,1.0084080739828665,0.2080290688895015,0.1439823043396695,-0.4808491609091724,0.5039357243549726,-0.490390863985317,0.5237839923971602,0.0,0.0,0.0,124,2.886757867851059e-32,0,1735643777088322877,map,1.009751560884557,-0.0252321940482062,0.242198163735797,-0.5577440518746105,0.4551423245016512,-0.435506504648262,0.5404638021688215,0.0,0.0,0.0,125,0.0,0,1735643777088343858,map,0.9983901527816204,-0.0197308125274456,0.1454464745176646,-0.6121155586147856,0.4734718895611902,-0.386163707161291,0.5020124539974223,0.0,0.0,0.0,126,0.0,0,1735644242188269615,map,0.9801284372242484,0.3336914887014302,0.0245021147730038,-0.5116263545769273,0.4999205363199598,-0.4820244182555019,0.5059351646933958,0.0,0.0,0.0,0,0.0003896374546457,0.9288942359108968,0.594611061193666,0.145051265120816,1.0,3.334222806780196e-05,-0.0004951808106581,-0.0003951036375729,0.0,0.0,0.0,-0.0004951808106581,0.0079799548821542,0.0057353681592272,0.0,0.0,0.0,-0.0003951036375729,0.0057353681592272,0.004710010701869,0.0,0.0,0.0,0.0,0.0,0.0,0.0,0.0,0.0,0.0,0.0,0.0,0.0,0.0,0.0,0.0,0.0,0.0,0.0,0.0,0.0,0,0,0,1,5,,0
0.50115765,0,1735643777088230371,map,0.98565589919729,-0.2197088719146142,0.0201785890704119,-0.5029985638070495,0.4942013666054852,-0.4850482346876699,0.5171901623964733,0.0,0.0,0.0,1,0.0,0,1735643777088253974,map,0.9909290692122392,-0.2502223849473953,0.1471402661816721,-0.5034354726167954,0.4804207376984938,-0.4893902477819163,0.525590929408311,0.0,0.0,0.0,16,0.0,0,1735643777088270664,map,0.9912437420292411,0.0573101885282915,0.0245280149989357,0.7188006042800944,-0.5166662338390068,0.2606500410375029,-0.385283337563845,0.0,0.0,0.0,17,7.550616515321411e-41,0,1735643777088284730,map,1.0144138394352529,-0.2589938553161499,0.2368187171958065,-0.5041204428764211,0.4845980162027267,-0.4797641162144997,0.5299563515605621,0.0,0.0,0.0,121,0.0,0,1735643777088297367,map,1.0122320751960854,0.2049979405273044,0.2420912875552575,-0.5051960597449039,0.5055727641544423,-0.498505627238967,0.4905764578274667,0.0,0.0,0.0,122,0.0,0,1735643777088310956,map,1.0079812961722618,0.2065670175241488,0.1441469479340395,-0.4966523914181616,0.5061024346781053,-0.4786488362304136,0.5177760319740428,0.0,0.0,0.0,124,7.024176708243865e-39,0,1735643777088322877,map,1.0042634238701278,-0.0270862424811569,0.2424676618880215,0.4296583463208347,-0.5425112807315199,0.5639078388351699,-0.4506474952955348,0.0,0.0,0.0,125,0.0,0,1735643777088343858,map,1.0007447882492937,-0.0216054927849581,0.1451021899881519,0.6170230870745027,-0.4841261847026079,0.3829094781868117,-0.488144116851827,0.0,0.0,0.0,126,0.0,0,1735644242188269615,map,0.9831982122408742,0.3355377253510728,0.023757208389265,-0.5105313258412143,0.4909527055323701,-0.4785378347356032,0.5189650729979979,0.0,0.0,0.0,0,0.000202412775252,0.9303596735829206,0.5742666459882781,0.1273853643223378,1.0,3.8522727909433854e-05,-0.0005617180378348,-0.0004586944140124,0.0,0.0,0.0,-0.0005617180378348,0.0087194385520412,0.0065764855701298,0.0,0.0,0.0,-0.0004586944140124,0.0065764855701298,0.0054854291733326,0.0,0.0,0.0,0.0,0.0,0.0,0.0,0.0,0.0,0.0,0.0,0.0,0.0,0.0,0.0,0.0,0.0,0.0,0.0,0.0,0.0,0,0,0,1,6,,0
0.601146842,0,1735643777088230371,map,0.9859908893349464,-0.2193800455905425,0.0194667844891672,-0.5173166236448752,0.5032206092481762,-0.4691223180518912,0.5089958546335922,0.0,0.0,0.0,1,0.0,0,1735643777088253974,map,0.9909290692122392,-0.2502223849473953,0.1471402661816721,-0.5034354726167954,0.4804207376984938,-0.4893902477819163,0.525590929408311,0.0,0.0,0.0,16,0.0,0,1735643777088270664,map,1.0024050119728365,0.0595573550192015,0.0197969529419856,-0.5111171541802116,0.504959295443074,-0.4819322202440591,0.5015144063125083,0.0,0.0,0.0,17,5.943159807836518e-28,0,1735643777088284730,map,1.0144138394352529,-0.2589938553161499,0.2368187171958065,-0.5041204428764211,0.4845980162027267,-0.4797641162144997,0.5299563515605621,0.0,0.0,0.0,121,0.0,0,1735643777088297367,map,1.0228125172106837,0.2085388046938732,0.2414894658024926,-0.6148878730133142,0.3015546348102744,-0.3251779087447511,0.6521020115825394,0.0,0.0,0.0,122,0.0,0,1735643777088310956,map,1.003862163458551,0.2052700634640782,0.1438529346639296,-0.4712438639148624,0.5034415790295909,-0.5011890863044314,0.5227669624183534,0.0,0.0,0.0,124,3.2211505577503796e-30,0,1735643777088322877,map,1.0126718355459454,-0.0271423890499284,0.2418897037310223,0.4654347174657326,-0.5222914575355267,0.5320852802429565,-0.4769354376766135,0.0,0.0,0.0,125,0.0,0,1735643777088343858,map,1.011829813972746,-0.0211562635850209,0.1430452549124652,-0.5072760515341465,0.5480231078595568,-0.493301270688706,0.4460891582730816,0.0,0.0,0.0,126,0.0,0,1735644242188269615,map,0.9828036468836324,0.335975529988851,0.0230602785888171,-0.5063050793017306,0.4961331536355718,-0.4770248010902033,0.5195713614911258,0.0,0.0,0.0,0,0.0096562271937727,0.9316431221697182,0.5491393403524517,0.1134609514558992,1.0,4.2902922714947326e-05,-0.0006749702333084,-0.0005003942486745,0.0,0.0,0.0,-0.0006749702333084,0.0112620934042756,0.0077362854989064,0.0,0.0,0.0,-0.0005003942486745,0.0077362854989064,0.0058651320763353,0.0,0.0,0.0,0.0,0.0,0.0,0.0,0.0,0.0,0.0,0.0,0.0,0.0,0.0,0.0,0.0,0.0,0.0,0.0,0.0,0.0,0,0,0,1,7,,0
0.700111597,0,1735643777088230371,map,0.9884652309141018,-0.2199695209727734,0.0191501553811889,-0.371752439996488,0.794003400431471,-0.4347935799990938,0.2057018868447501,0.0,0.0,0.0,1,6.071517960257281e-40,0,1735643777088253974,map,0.9918585627845332,-0.250448626013514,0.1461598943801816,-0.5037493554524304,0.4867868275055492,-0.4852474778360957,0.5232686276684774,0.0,0.0,0.0,16,0.0,0,1735643777088270664,map,0.995867656287326,0.0580358663110211,0.0216958179078736,-0.512708891809753,0.4969234205159575,-0.4764205789474299,0.5130498400324592,0.0,0.0,0.0,17,9.66612857464244e-13,0,1735643777088284730,map,1.0130391328510822,-0.2592724731795272,0.2359409623935584,0.2377556901495275,-0.6309606654407444,0.6900605482635624,-0.2630157983815547,0.0,0.0,0.0,121,0.0,0,1735643777088297367,map,1.0065870781620674,0.2023831875823853,0.2410208804906416,0.4873561114912551,-0.5092737565147403,0.5113287528133132,-0.4915965500935398,0.0,0.0,0.0,122,9.244223744132068e-30,0,1735643777088310956,map,1.0063065530726478,0.2051576579574296,0.1435516983151891,-0.4899166054321461,0.5092247983977406,-0.4835627715161077,0.5165644881544651,0.0,0.0,0.0,124,3.3992698487571218e-15,0,1735643777088322877,map,1.0034665563419047,-0.0283772412271114,0.2417652527666281,0.4307559258643742,-0.5189328115233116,0.5654927135514679,-0.474737885972285,0.0,0.0,0.0,125,0.0,0,1735643777088343858,map,1.0027242650767112,-0.022546067406749,0.1440414895997923,0.6031203792259611,-0.5001246060096141,0.3966531037731823,-0.478317365243164,0.0,0.0,0.0,126,1.9257056879798607e-38,0,1735644242188269615,map,0.9735590552249976,0.3295696383745896,0.0259489402847489,-0.4873042798526754,0.4945158875709095,-0.4922170509775407,0.525081851242446,0.0,0.0,0.0,0,0.1752978414297104,0.9328958789973092,0.5187350951445011,0.1011140162981335,1.0,4.852585505911043e-05,-0.0008572228345489,-0.0005461189188212,0.0,0.0,0.0,-0.0008572228345489,0.0163252586153975,0.0093970445202668,0.0,0.0,0.0,-0.0005461189188212,0.0093970445202668,0.0061991182213239,0.0,0.0,0.0,0.0,0.0,0.0,0.0,0.0,0.0,0.0,0.0,0.0,0.0,0.0,0.0,0.0,0.0,0.0,0.0,0.0,0.0,0,0,0,1,8,,0
0.799177262,0,1735643777088230371,map,0.984162009345471,-0.2222895583584742,0.019798640150222,-0.5050895447083726,0.4990845645260313,-0.48506375051944,0.5104040626897132,0.0,0.0,0.0,1,1.980315269482012e-22,0,1735643777088253974,map,0.9755018186683486,-0.2441095759307763,0.1477359934402729,-0.5068203234550925,0.4563432629801263,-0.4850593304077153,0.5473585954837517,0.0,0.0,0.0,16,6.866362475191605e-44,0,1735643777088270664,map,0.9898532232523428,0.0568225016012764,0.023568113341902,-0.4918174750783665,0.5040831590784255,-0.4876336917223162,0.5159739553875953,0.0,0.0,0.0,17,5.605060096058878e-07,0,1735643777088284730,map,1.0130391328510822,-0.2592724731795272,0.2359409623935584,0.2377556901495275,-0.6309606654407444,0.6900605482635624,-0.2630157983815547,0.0,0.0,0.0,121,0.0,0,1735643777088297367,map,1.0185194224240584,0.205383659279957,0.2416824170933393,-0.5030378155593292,0.478449845367859,-0.4967127481952584,0.5208792061170072,0.0,0.0,0.0,122,2.3360291356836414e-19,0,1735643777088310956,map,1.004355173915616,0.2036652374759013,0.1437368778871786,-0.4706065590705536,0.4996968830958787,-0.4991013397292602,0.5288954001165965,0.0,0.0,0.0,124,2.3250235070548797e-09,0,1735643777088322877,map,1.00337309938944,-0.0294236701115888,0.2414227409493084,-0.4362977097541161,0.5646947572897422,-0.5490829110418973,0.4350541303729319,0.0,0.0,0.0,125,9.255228834846263e-39,0,1735643777088343858,map,0.9998754247124204,-0.0232840771117533,0.1446596271582715,0.5936826619482075,-0.4984833556798342,0.4049301811204905,-0.4848574939402186,0.0,0.0,0.0,126,2.51476534577119e-23,0,1735644242188269615,map,0.9682702804285466,0.3255363652721481,0.0272652737569037,-0.4783766497662522,0.4922532821430391,-0.4948464729969432,0.5328878449920843,0.0,0.0,0.0,0,0.5008313059806824,0.9340689533975388,0.4869765543015186,0.0902486135959567,1.0,5.414292177366448e-05,-0.0010600169029447,-0.000587406445017,0.0,0.0,0.0,-0.0010600169029447,0.0225801803232675,0.0111134831463996,0.0,0.0,0.0,-0.000587406445017,0.0111134831463996,0.0064547831148872,0.0,0.0,0.0,0.0,0.0,0.0,0.0,0.0,0.0,0.0,0.0,0.0,0.0,0.0,0.0,0.0,0.0,0.0,0.0,0.0,0.0,0,0,0,1,9,,0
0.899639868,0,1735643777088230371,map,0.9956568951797778,-0.2279508402008835,0.0153265041729578,-0.504238745661607,0.518057395055798,-0.4817818516451382,0.495223252914271,0.0,0.0,0.0,1,2.0838821120083842e-13,0,1735643777088253974,map,0.9755018186683486,-0.2441095759307763,0.1477359934402729,-0.5068203234550925,0.4563432629801263,-0.4850593304077153,0.5473585954837517,0.0,0.0,0.0,16,2.676881807547901e-27,0,1735643777088270664,map,0.9851277777483716,0.0543566368530727,0.0241552742569027,-0.4851495697312309,0.5132948342211423,-0.5110378633240635,0.4898965303007029,0.0,0.0,0.0,17,0.000253775739111,0,1735643777088284730,map,1.0130391328510822,-0.2592724731795272,0.2359409623935584,0.2377556901495275,-0.6309606654407444,0.6900605482635624,-0.2630157983815547,0.0,0.0,0.0,121,4.773579270661062e-40,0,1735643777088297367,map,0.9988499020779154,0.1979721068184183,0.2410653951856517,-0.5075582553077244,0.5155931136424918,-0.499884004841136,0.4760927854288554,0.0,0.0,0.0,122,5.173660436695593e-13,0,1735643777088310956,map,1.0001512866337612,0.2011736473460608,0.1441520452035125,-0.4843067448627899,0.5031640426102817,-0.4828254612633496,0.5283488403132162,0.0,0.0,0.0,124,5.528244400920812e-06,0,1735643777088322877,map,0.996734918722577,-0.0318509926490654,0.242043836467871,-0.5342605566553235,0.4426742877518712,-0.461590692644727,0.5527559724050733,0.0,0.0,0.0,125,4.2307083663546005e-25,0,1735643777088343858,map,1.0074457577266285,-0.0267946085774133,0.1436648238711913,0.5346287250966498,-0.5024177462598441,0.4641430471553734,-0.4963061215842839,0.0,0.0,0.0,126,1.582898580005515e-14,0,1735644242188269615,map,0.971624220624004,0.3280301029700186,0.0255322884317327,-0.4898495455398909,0.4932793633548549,-0.4880561773590112,0.5277537874466655,0.0,0.0,0.0,0,0.6731622815132141,0.9345703088520244,0.4655741848017876,0.0872625538181036,1.0,5.0990845221982585e-05,-0.0010505869648387,-0.0005421394967288,0.0,0.0,0.0,-0.0010505869648387,0.0244447150727679,0.0105773136241847,0.0,0.0,0.0,-0.0005421394967288,0.0105773136241847,0.0058895537803707,0.0,0.0,0.0,0.0,0.0,0.0,0.0,0.0,0.0,0.0,0.0,0.0,0.0,0.0,0.0,0.0,0.0,0.0,0.0,0.0,0.0,0,0,0,1,10,,0
1.00094869,0,1735643777088230371,map,0.991058793058107,-0.2259216457316646,0.0168814625272398,-0.5044926010044881,0.5201298246967193,-0.4812253045670671,0.4933298969624888,0.0,0.0,0.0,1,1.1984776018825194e-11,0,1735643777088253974,map,0.9755018186683486,-0.2441095759307763,0.1477359934402729,-0.5068203234550925,0.4563432629801263,-0.4850593304077153,0.5473585954837517,0.0,0.0,0.0,16,9.605169593110136e-24,0,1735643777088270664,map,0.9832220208246392,0.0551016414871486,0.024910147981501,0.4864389245155572,-0.506802576863725,0.507715292574661,-0.4987519448445913,0.0,0.0,0.0,17,0.0009598102187737,0,1735643777088284730,map,1.0130391328510822,-0.2592724731795272,0.2359409623935584,0.2377556901495275,-0.6309606654407444,0.6900605482635624,-0.2630157983815547,0.0,0.0,0.0,121,4.4331175088496105e-35,0,1735643777088297367,map,1.0066204583300418,0.2014571975647472,0.2424218542225265,-0.5094860064985839,0.4943698558607271,-0.4914422093661996,0.504486877581209,0.0,0.0,0.0,122,2.3688077541161867e-11,0,1735643777088310956,map,0.9983212842833116,0.2014685504387772,0.1448012866146451,-0.4884881817193945,0.5070865192761571,-0.4811947451764456,0.5222012787263616,0.0,0.0,0.0,124,3.540129910106771e-05,0,1735643777088322877,map,1.0028824061910222,-0.032254046943753,0.2430406338462479,0.4031798335298038,-0.5366859004851275,0.5870002681565525,-0.4525980018067722,0.0,0.0,0.0,125,4.55411041414773e-22,0,1735643777088343858,map,0.9925736941980864,-0.0257490629683152,0.1458790523290279,-0.5600655451775879,0.4776798177354766,-0.4338575862214455,0.5195345722001903,0.0,0.0,0.0,126,9.218604612309944e-13,0,1735644242188269615,map,0.9720678100054576,0.3296142752148435,0.0256943788848404,-0.4983386958503791,0.4889021963850909,-0.4842807593338255,0.5273569310505273,0.0,0.0,0.0,0,0.678174614906311,0.9347257948931436,0.4546753981384304,0.0872387047505143,1.0,4.659707292799506e-05,-0.0009720251508572,-0.0004928911699063,0.0,0.0,0.0,-0.0009720251508572,0.0234103037553045,0.0096183389173475,0.0,0.0,0.0,-0.0004928911699063,0.0096183389173475,0.0053541454881172,0.0,0.0,0.0,0.0,0.0,0.0,0.0,0.0,0.0,0.0,0.0,0.0,0.0,0.0,0.0,0.0,0.0,0.0,0.0,0.0,0.0,0,0,0,1,11,,0
1.101216727,0,1735643777088230371,map,0.9864105165629428,-0.2228227027198299,0.0189453283385687,-0.5040288185655798,0.5008521821425915,-0.4792541301876341,0.515186879099696,0.0,0.0,0.0,1,1.181191863069975e-12,0,1735643777088253974,map,0.9781680658163732,-0.2473691116921452,0.148873391932238,-0.507683124272262,0.47887033626774,-0.4840990717641832,0.5278154365770604,0.0,0.0,0.0,16,3.781567759887413e-26,0,1735643777088270664,map,0.9877542784238488,0.0568442947870024,0.0242863306780898,-0.4993899514167728,0.5051484592059224,-0.4877283688558967,0.5074995062056737,0.0,0.0,0.0,17,0.000612391391769,0,1735643777088284730,map,1.0130391328510822,-0.2592724731795272,0.2359409623935584,0.2377556901495275,-0.6309606654407444,0.6900605482635624,-0.2630157983815547,0.0,0.0,0.0,121,3.329795118456074e-38,0,1735643777088297367,map,1.003178270515634,0.2014016509407112,0.2431680906717226,-0.5050595824022058,0.4949720799586783,-0.4948343728735113,0.5050310898429605,0.0,0.0,0.0,122,2.076196202807634e-12,0,1735643777088310956,map,0.9943674336995224,0.2016603627393129,0.1461137586780237,-0.4758179806913934,0.5101944048977688,-0.4988514956047594,0.5142432340776795,0.0,0.0,0.0,124,1.1648814506770576e-05,0,1735643777088322877,map,1.000095572036258,-0.0311561424729431,0.2436854183302571,0.3671192879873483,-0.5469140915321721,0.6223304334457505,-0.4228631415463234,0.0,0.0,0.0,125,4.8092195111984286e-24,0,1735643777088343858,map,0.9901668370964668,-0.024617818987053,0.1469071527457426,-0.5783355546110877,0.4809022083729642,-0.4170108070377749,0.510257816273691,0.0,0.0,0.0,126,6.667070866737956e-14,0,1735644242188269615,map,0.9708841037766244,0.3294333526200526,0.0257344873219129,-0.5019682818816982,0.4958372562908978,-0.4811759594372998,0.5202335584314461,0.0,0.0,0.0,0,0.6659179329872131,0.934833879562806,0.4524376974851874,0.0860918216446212,1.0,4.284248877130484e-05,-0.0008936835274474,-0.0004531804710455,0.0,0.0,0.0,-0.0008936835274474,0.0215145254553779,0.008845040866063,0.0,0.0,0.0,-0.0004531804710455,0.008845040866063,0.0049224354468852,0.0,0.0,0.0,0.0,0.0,0.0,0.0,0.0,0.0,0.0,0.0,0.0,0.0,0.0,0.0,0.0,0.0,0.0,0.0,0.0,0.0,0,0,0,1,12,,0
1.202342696,0,1735643777088230371,map,0.9864105165629428,-0.2228227027198299,0.0189453283385687,-0.5040288185655798,0.5008521821425915,-0.4792541301876341,0.515186879099696,0.0,0.0,0.0,1,3.6463020103294497e-11,0,1735643777088253974,map,0.9781680658163732,-0.2473691116921452,0.148873391932238,-0.507683124272262,0.47887033626774,-0.4840990717641832,0.5278154365770604,0.0,0.0,0.0,16,1.8526074989253198e-21,0,1735643777088270664,map,0.9814906299088828,0.0548091708253007,0.0246019533274706,-0.4935327235468458,0.4982496973527889,-0.4966208445842239,0.5114102331795282,0.0,0.0,0.0,17,0.0008791619911789,0,1735643777088284730,map,1.0130391328510822,-0.2592724731795272,0.2359409623935584,0.2377556901495275,-0.6309606654407444,0.6900605482635624,-0.2630157983815547,0.0,0.0,0.0,121,1.2071016071644856e-30,0,1735643777088297367,map,0.9974022973866138,0.1988372166157814,0.2427536287281318,-0.4995487148120003,0.4959813746154098,-0.5006409072001619,0.5037978161942418,0.0,0.0,0.0,122,3.718402252772535e-10,0,1735643777088310956,map,0.9918060796480972,0.2000173933585698,0.1453546259539798,-0.4714904011571934,0.5147296400694398,-0.4995530246212106,0.5130272652037262,0.0,0.0,0.0,124,7.52267224015668e-05,0,1735643777088322877,map,0.9928394046273764,-0.0333980867618286,0.2432662946111149,-0.5443624178701444,0.4724878634109732,-0.45328902171995,0.5243604101456125,0.0,0.0,0.0,125,2.0512511425560362e-19,0,1735643777088343858,map,0.9901668370964668,-0.024617818987053,0.1469071527457426,-0.5783355546110877,0.4809022083729642,-0.4170108070377749,0.510257816273691,0.0,0.0,0.0,126,1.5387351115503378e-11,0,1735644242188269615,map,0.970626160473576,0.3311246033231904,0.0253019329245701,-0.5079721038199024,0.4997705095068712,-0.4816300033358077,0.5101238275701054,0.0,0.0,0.0,0,0.6620590686798096,0.9351088950052756,0.4561389177227394,0.0811844777291272,1.0,4.045451463513497e-05,-0.000812723928065,-0.0004345155791104,0.0,0.0,0.0,-0.000812723928065,0.0200239503337727,0.0079466951797832,0.0,0.0,0.0,-0.0004345155791104,0.0079466951797832,0.0048327708580148,0.0,0.0,0.0,0.0,0.0,0.0,0.0,0.0,0.0,0.0,0.0,0.0,0.0,0.0,0.0,0.0,0.0,0.0,0.0,0.0,0.0,0,0,0,1,13,,0
1.303444479,0,1735643777088230371,map,0.9864105165629428,-0.2228227027198299,0.0189453283385687,-0.5040288185655798,0.5008521821425915,-0.4792541301876341,0.515186879099696,0.0,0.0,0.0,1,2.5730555464065222e-08,0,1735643777088253974,map,0.9781680658163732,-0.2473691116921452,0.148873391932238,-0.507683124272262,0.47887033626774,-0.4840990717641832,0.5278154365770604,0.0,0.0,0.0,16,3.9567151909492705e-14,0,1735643777088270664,map,0.9854521750339832,0.0553660269150006,0.0210696141789466,-0.5037811362045268,0.5337099779851123,-0.4895979703686276,0.4707993772452629,0.0,0.0,0.0,17,0.0042332131415605,0,1735643777088284730,map,1.0130391328510822,-0.2592724731795272,0.2359409623935584,0.2377556901495275,-0.6309606654407444,0.6900605482635624,-0.2630157983815547,0.0,0.0,0.0,121,1.8738627771819218e-19,0,1735643777088297367,map,0.995033109630593,0.1985287538676431,0.2411225945203458,0.4748751649760676,-0.5025501378852048,0.5235772905557218,-0.4977989126292296,0.0,0.0,0.0,122,1.1568949958018493e-06,0,1735643777088310956,map,0.9894559805671131,0.199745635885551,0.1438124836677632,-0.4710370988738376,0.5186172904705295,-0.5038133069114262,0.5053041750158982,0.0,0.0,0.0,124,0.0019214556086808,0,1735643777088322877,map,0.992303737053787,-0.0336365104272403,0.2419454776152809,-0.5355447408815108,0.4579238245114645,-0.4618324119271524,0.5387099634798835,0.0,0.0,0.0,125,2.345614371138116e-12,0,1735643777088343858,map,0.9901668370964668,-0.024617818987053,0.1469071527457426,-0.5783355546110877,0.4809022083729642,-0.4170108070377749,0.510257816273691,0.0,0.0,0.0,126,9.004025258718684e-08,0,1735644242188269615,map,0.9678177426944544,0.3306213011607585,0.0241719532629315,-0.509522105860015,0.4960316973720494,-0.4774337059848862,0.5161364502064509,0.0,0.0,0.0,0,0.6213685870170593,0.9353331625446042,0.4662105115827648,0.0756892857149236,1.0,3.821875352646539e-05,-0.0007253087084801,-0.0004194998635162,0.0,0.0,0.0,-0.0007253087084801,0.0199123492045316,0.0066595846475641,0.0,0.0,0.0,-0.0004194998635162,0.0066595846475641,0.0048801356981337,0.0,0.0,0.0,0.0,0.0,0.0,0.0,0.0,0.0,0.0,0.0,0.0,0.0,0.0,0.0,0.0,0.0,0.0,0.0,0.0,0.0,0,0,0,1,14,,0
1.40229062,0,1735643777088230371,map,0.9864105165629428,-0.2228227027198299,0.0189453283385687,-0.5040288185655798,0.5008521821425915,-0.4792541301876341,0.515186879099696,0.0,0.0,0.0,1,6.972183541620326e-08,0,1735643777088253974,map,0.9781680658163732,-0.2473691116921452,0.148873391932238,-0.507683124272262,0.47887033626774,-0.4840990717641832,0.5278154365770604,0.0,0.0,0.0,16,5.976078464552115e-13,0,1735643777088270664,map,0.9872911423746468,0.0548226508112551,0.0206315535004785,-0.5138899965146589,0.5145511464339056,-0.4669965430867446,0.5030590600821615,0.0,0.0,0.0,17,0.0046498482115566,0,1735643777088284730,map,1.0130391328510822,-0.2592724731795272,0.2359409623935584,0.2377556901495275,-0.6309606654407444,0.6900605482635624,-0.2630157983815547,0.0,0.0,0.0,121,1.0987306073282633e-17,0,1735643777088297367,map,0.9935543936285092,0.1980573717772727,0.2418941966872651,0.4745173065870766,-0.507581113276339,0.5233859790362341,-0.493215831196426,0.0,0.0,0.0,122,2.701409584915382e-06,0,1735643777088310956,map,0.991681912877184,0.1999131901087591,0.14429144698132,-0.4807798332167546,0.5215725675915596,-0.493361201068301,0.5033960011645515,0.0,0.0,0.0,124,0.0027010589838027,0,1735643777088322877,map,0.989822919537247,-0.0345397868183479,0.2426542731605747,-0.5421890909050656,0.4626731994971246,-0.4603417633005643,0.5291974689394875,0.0,0.0,0.0,125,2.0801995542774062e-11,0,1735643777088343858,map,0.9894530585160308,-0.0285454201655147,0.1449447845613315,0.5611236220220572,-0.5004962047415602,0.4358502010968399,-0.4946498074921141,0.0,0.0,0.0,126,3.107349471065391e-07,0,1735644242188269615,map,0.970423294911227,0.3323656717135132,0.0236830496633277,-0.5030941766740704,0.4976458944527562,-0.4852039887694481,0.5136359629281937,0.0,0.0,0.0,0,0.5860736966133118,0.9353352701346064,0.4755300731700017,0.0736844767103869,1.0,3.567089881179968e-05,-0.0006766798091739,-0.0003915923603643,0.0,0.0,0.0,-0.0006766798091739,0.019800818452059,0.0059540371638885,0.0,0.0,0.0,-0.0003915923603643,0.0059540371638885,0.0046110629462835,0.0,0.0,0.0,0.0,0.0,0.0,0.0,0.0,0.0,0.0,0.0,0.0,0.0,0.0,0.0,0.0,0.0,0.0,0.0,0.0,0.0,0,0,0,1,15,,0
1.501340467,0,1735643777088230371,map,0.9736256644314004,-0.2250334166122305,0.01922473770741,-0.5004066554917155,0.5074032106963947,-0.4822507679893141,0.5094794968281869,0.0,0.0,0.0,1,2.129257836713805e-06,0,1735643777088253974,map,0.9781680658163732,-0.2473691116921452,0.148873391932238,-0.507683124272262,0.47887033626774,-0.4840990717641832,0.5278154365770604,0.0,0.0,0.0,16,1.5543802911466287e-09,0,1735643777088270664,map,0.9801829876016586,0.0518744295173135,0.022616351655474,-0.5126906412553589,0.5087502602368994,-0.4709746517395959,0.5064625914091012,0.0,0.0,0.0,17,0.00959631241858,0,1735643777088284730,map,1.0130391328510822,-0.2592724731795272,0.2359409623935584,0.2377556901495275,-0.6309606654407444,0.6900605482635624,-0.2630157983815547,0.0,0.0,0.0,121,9.411779081786031e-13,0,1735643777088297367,map,0.9874245144497484,0.1934776731954768,0.2420667768717833,0.4696346936455836,-0.5082104262465228,0.5277300505098658,-0.4926118258503351,0.0,0.0,0.0,122,5.724507354898378e-05,0,1735643777088310956,map,0.9865743096552738,0.1958975945790818,0.1449558509170532,-0.4705360701833742,0.5321845534048085,-0.5074847800260318,0.4876828947334951,0.0,0.0,0.0,124,0.0100742382928729,0,1735643777088322877,map,0.989822919537247,-0.0345397868183479,0.2426542731605747,-0.5421890909050656,0.4626731994971246,-0.4603417633005643,0.5291974689394875,0.0,0.0,0.0,125,2.0759328478447973e-08,0,1735643777088343858,map,0.9894530585160308,-0.0285454201655147,0.1449447845613315,0.5611236220220572,-0.5004962047415602,0.4358502010968399,-0.4946498074921141,0.0,0.0,0.0,126,1.766684181347955e-05,0,1735644242188269615,map,0.9657608573016804,0.3284174047818748,0.0248428037660782,-0.5017553836369111,0.5068272716353893,-0.4885313652695548,0.502697480465009,0.0,0.0,0.0,0,0.538242518901825,0.9353465266437758,0.4910547223639935,0.0702286977419664,1.0,3.344336827104247e-05,-0.0006317660207604,-0.0003677013379562,0.0,0.0,0.0,-0.0006317660207604,0.022178488287753,0.0047771634984949,0.0,0.0,0.0,-0.0003677013379562,0.0047771634984949,0.0045020076363195,0.0,0.0,0.0,0.0,0.0,0.0,0.0,0.0,0.0,0.0,0.0,0.0,0.0,0.0,0.0,0.0,0.0,0.0,0.0,0.0,0.0,0,0,0,1,16,,0
1.601746556,0,1735643777088230371,map,0.9736256644314004,-0.2250334166122305,0.01922473770741,-0.5004066554917155,0.5074032106963947,-0.4822507679893141,0.5094794968281869,0.0,0.0,0.0,1,1.7763495634426363e-05,0,1735643777088253974,map,0.9781680658163732,-0.2473691116921452,0.148873391932238,-0.507683124272262,0.47887033626774,-0.4840990717641832,0.5278154365770604,0.0,0.0,0.0,16,3.597215254558251e-07,0,1735643777088270664,map,0.9801829876016586,0.0518744295173135,0.022616351655474,-0.5126906412553589,0.5087502602368994,-0.4709746517395959,0.5064625914091012,0.0,0.0,0.0,17,0.0154497399926185,0,1735643777088284730,map,1.0130391328510822,-0.2592724731795272,0.2359409623935584,0.2377556901495275,-0.6309606654407444,0.6900605482635624,-0.2630157983815547,0.0,0.0,0.0,121,3.557724337355239e-09,0,1735643777088297367,map,0.9885402190349636,0.1951018449505526,0.2416873053476,0.4714578582157578,-0.5165756460531954,0.5303152278527808,-0.4792106519462888,0.0,0.0,0.0,122,0.0008790013380348,0,1735643777088310956,map,0.9847183803050906,0.1967154804573383,0.144696880426068,-0.4615568469055701,0.5360964191937048,-0.5204510762811732,0.4782223160832675,0.0,0.0,0.0,124,0.0322880037128925,0,1735643777088322877,map,0.989822919537247,-0.0345397868183479,0.2426542731605747,-0.5421890909050656,0.4626731994971246,-0.4603417633005643,0.5291974689394875,0.0,0.0,0.0,125,3.892128461302491e-06,0,1735643777088343858,map,0.9894530585160308,-0.0285454201655147,0.1449447845613315,0.5611236220220572,-0.5004962047415602,0.4358502010968399,-0.4946498074921141,0.0,0.0,0.0,126,0.0003165109665133,0,1735644242188269615,map,0.9628057896864356,0.3288176817148492,0.0252636140792474,-0.4866784951190462,0.5074880202317105,-0.5003554818529206,0.5052171250954298,0.0,0.0,0.0,0,0.506847620010376,0.935500628638624,0.5070798016517811,0.0645250803559835,1.0,3.1856070110980594e-05,-0.0005550913666833,-0.0003601348685607,0.0,0.0,0.0,-0.0005550913666833,0.0249827219885279,0.0030337391475351,0.0,0.0,0.0,-0.0003601348685607,0.0030337391475351,0.0047576836782834,0.0,0.0,0.0,0.0,0.0,0.0,0.0,0.0,0.0,0.0,0.0,0.0,0.0,0.0,0.0,0.0,0.0,0.0,0.0,0.0,0.0,0,0,0,1,17,,0
1.70174243,0,1735643777088230371,map,0.9736256644314004,-0.2250334166122305,0.01922473770741,-0.5004066554917155,0.5074032106963947,-0.4822507679893141,0.5094794968281869,0.0,0.0,0.0,1,1.4360806744662112e-05,0,1735643777088253974,map,0.9781680658163732,-0.2473691116921452,0.148873391932238,-0.507683124272262,0.47887033626774,-0.4840990717641832,0.5278154365770604,0.0,0.0,0.0,16,7.049636110423307e-07,0,1735643777088270664,map,0.9780739396218472,0.0529065470840993,0.0225108352139133,-0.516160050211457,0.4903648939377112,-0.4624025234428102,0.5284931216892845,0.0,0.0,0.0,17,0.013101696036756,0,1735643777088284730,map,1.0130391328510822,-0.2592724731795272,0.2359409623935584,0.2377556901495275,-0.6309606654407444,0.6900605482635624,-0.2630157983815547,0.0,0.0,0.0,121,1.5655954754834056e-08,0,1735643777088297367,map,0.9920946826388826,0.1945623929305999,0.2415625383715994,0.4645383404494412,-0.5143898015008765,0.5326984212357683,-0.4856332508975141,0.0,0.0,0.0,122,0.0016007357044145,0,1735643777088310956,map,0.9846843028242253,0.1956491098379226,0.1442514256864236,-0.4570189787762932,0.5452850909785436,-0.5207659881528561,0.4718056890055215,0.0,0.0,0.0,124,0.0368827916681766,0,1735643777088322877,map,0.989822919537247,-0.0345397868183479,0.2426542731605747,-0.5421890909050656,0.4626731994971246,-0.4603417633005643,0.5291974689394875,0.0,0.0,0.0,125,1.1133777661598288e-05,0,1735643777088343858,map,0.9894530585160308,-0.0285454201655147,0.1449447845613315,0.5611236220220572,-0.5004962047415602,0.4358502010968399,-0.4946498074921141,0.0,0.0,0.0,126,0.000451375846751,0,1735644242188269615,map,0.9651325057299108,0.3294575424501627,0.0240925497668807,-0.4927340656812937,0.5031013072887643,-0.4979618972068236,0.5060989666574115,0.0,0.0,0.0,0,0.4750853180885315,0.9357670064028104,0.5151069687268325,0.0588313316619744,1.0,3.1292559363451064e-05,-0.0004879025575137,-0.000365911072661,0.0,0.0,0.0,-0.0004879025575137,0.0246901949804287,0.0020882186589303,0.0,0.0,0.0,-0.000365911072661,0.0020882186589303,0.0050444870796178,0.0,0.0,0.0,0.0,0.0,0.0,0.0,0.0,0.0,0.0,0.0,0.0,0.0,0.0,0.0,0.0,0.0,0.0,0.0,0.0,0.0,0,0,0,1,18,,0
1.801414361,0,1735643777088230371,map,0.9736256644314004,-0.2250334166122305,0.01922473770741,-0.5004066554917155,0.5074032106963947,-0.4822507679893141,0.5094794968281869,0.0,0.0,0.0,1,7.519232440245105e-06,0,1735643777088253974,map,0.9781680658163732,-0.2473691116921452,0.148873391932238,-0.507683124272262,0.47887033626774,-0.4840990717641832,0.5278154365770604,0.0,0.0,0.0,16,3.506949326492759e-07,0,1735643777088270664,map,0.9764250515775156,0.0514722923691048,0.0223287598420012,-0.5137094014254627,0.4950975935498428,-0.4653482474846229,0.523862608239258,0.0,0.0,0.0,17,0.0098053058609366,0,1735643777088284730,map,1.0130391328510822,-0.2592724731795272,0.2359409623935584,0.2377556901495275,-0.6309606654407444,0.6900605482635624,-0.2630157983815547,0.0,0.0,0.0,121,7.62514407171011e-09,0,1735643777088297367,map,0.990013242802279,0.192149439881929,0.2411623379382629,0.4590832609406612,-0.5135094228802329,0.5392489190830452,-0.4845216562807761,0.0,0.0,0.0,122,0.0012388398172333,0,1735643777088310956,map,0.9837237830668556,0.1932174455395616,0.1439042116124853,-0.6244770573056528,0.4392563719918272,-0.3389225288510362,0.5497397238700045,0.0,0.0,0.0,124,0.0297020580619573,0,1735643777088322877,map,0.9783807187500382,-0.0379042005881367,0.2407938668273356,-0.5382590777647906,0.4604324788030055,-0.4596595045183747,0.5357165645871328,0.0,0.0,0.0,125,7.033957444946282e-06,0,1735643777088343858,map,0.9894530585160308,-0.0285454201655147,0.1449447845613315,0.5611236220220572,-0.5004962047415602,0.4358502010968399,-0.4946498074921141,0.0,0.0,0.0,126,0.0003041628515347,0,1735644242188269615,map,0.962750236313028,0.3271170756597848,0.0241301112610362,-0.4947873250421338,0.5004544356641106,-0.4934678648230997,0.5110971797894193,0.0,0.0,0.0,0,0.4503626823425293,0.9360004878573888,0.516458431136684,0.0550442735625027,1.0,3.0626827168222814e-05,-0.0004565437301726,-0.000362568336158,0.0,0.0,0.0,-0.0004565437301726,0.0234235871457047,0.001886187213747,0.0,0.0,0.0,-0.000362568336158,0.001886187213747,0.0050371403225159,0.0,0.0,0.0,0.0,0.0,0.0,0.0,0.0,0.0,0.0,0.0,0.0,0.0,0.0,0.0,0.0,0.0,0.0,0.0,0.0,0.0,0,0,0,1,19,,0
1.901860456,0,1735643777088230371,map,0.9736256644314004,-0.2250334166122305,0.01922473770741,-0.5004066554917155,0.5074032106963947,-0.4822507679893141,0.5094794968281869,0.0,0.0,0.0,1,4.993633865524316e-06,0,1735643777088253974,map,0.9781680658163732,-0.2473691116921452,0.148873391932238,-0.507683124272262,0.47887033626774,-0.4840990717641832,0.5278154365770604,0.0,0.0,0.0,16,1.6979522854398965e-07,0,1735643777088270664,map,0.9764178747734946,0.0475674004066574,0.0217835185487096,-0.5084844109294663,0.4996056605268416,-0.4686670302947014,0.5217173588505535,0.0,0.0,0.0,17,0.0080066826194524,0,1735643777088284730,map,1.0130391328510822,-0.2592724731795272,0.2359409623935584,0.2377556901495275,-0.6309606654407444,0.6900605482635624,-0.2630157983815547,0.0,0.0,0.0,121,2.846448632354281e-09,0,1735643777088297367,map,0.9889385336746892,0.188299412605485,0.2415687779976817,-0.4698869834415444,0.3854780223671447,-0.5080271980598591,0.610345216328898,0.0,0.0,0.0,122,0.000774149026256,0,1735643777088310956,map,0.9822605427294716,0.1899538947528189,0.1441694950620137,-0.4811961786811639,0.549076408214433,-0.4958205115639877,0.4702418057525384,0.0,0.0,0.0,124,0.0230269394814968,0,1735643777088322877,map,0.9817201643715464,-0.044126062253948,0.2420935750863803,-0.5281097848769495,0.4645111167424773,-0.4763205127089262,0.5276819560233078,0.0,0.0,0.0,125,2.913460320996819e-06,0,1735643777088343858,map,0.9894530585160308,-0.0285454201655147,0.1449447845613315,0.5611236220220572,-0.5004962047415602,0.4358502010968399,-0.4946498074921141,0.0,0.0,0.0,126,0.0002028157614404,0,1735644242188269615,map,0.9640741608877748,0.3251571503666174,0.023239111103346,-0.50359686677483,0.5017408267838116,-0.4822487570656954,0.5119399132920417,0.0,0.0,0.0,0,0.4465061128139496,0.9362354105052904,0.5128496235038151,0.0522858309100964,1.0,3.0144070169257064e-05,-0.0004498245659167,-0.0003567523117379,0.0,0.0,0.0,-0.0004498245659167,0.0224998541465094,0.0019810169421375,0.0,0.0,0.0,-0.0003567523117379,0.0019810169421375,0.0049298544178557,0.0,0.0,0.0,0.0,0.0,0.0,0.0,0.0,0.0,0.0,0.0,0.0,0.0,0.0,0.0,0.0,0.0,0.0,0.0,0.0,0.0,0,0,0,1,20,,0
2.002139815,0,1735643777088230371,map,0.9736256644314004,-0.2250334166122305,0.01922473770741,-0.5004066554917155,0.5074032106963947,-0.4822507679893141,0.5094794968281869,0.0,0.0,0.0,1,3.5246930565335788e-06,0,1735643777088253974,map,0.9781680658163732,-0.2473691116921452,0.148873391932238,-0.507683124272262,0.47887033626774,-0.4840990717641832,0.5278154365770604,0.0,0.0,0.0,16,8.041717336482179e-08,0,1735643777088270664,map,0.9757880771761768,0.047465323564791,0.0222403466165634,-0.5066144046674594,0.5033305324852917,-0.4705099297770084,0.5182862394784787,0.0,0.0,0.0,17,0.0072873975150287,0,1735643777088284730,map,1.0130391328510822,-0.2592724731795272,0.2359409623935584,0.2377556901495275,-0.6309606654407444,0.6900605482635624,-0.2630157983815547,0.0,0.0,0.0,121,1.039878960717999e-09,0,1735643777088297367,map,0.9907739819273468,0.1875230804644914,0.2424969588772766,-0.4838491356450086,0.3781973324370112,-0.4943138967018832,0.6152321213985067,0.0,0.0,0.0,122,0.0005126159521751,0,1735643777088310956,map,0.9836406521965184,0.1892550191177885,0.1444609153245905,-0.4730615885644462,0.5425724667814142,-0.5002634323921965,0.481211336033132,0.0,0.0,0.0,124,0.0183723457157611,0,1735643777088322877,map,0.9867228996288552,-0.0475280914491066,0.2431434477921821,-0.520176573680708,0.4800884255976009,-0.4767376454311841,0.5212030825213394,0.0,0.0,0.0,125,1.3062200423519243e-06,0,1735643777088343858,map,0.979487215728277,-0.038402214194142,0.144957169814128,-0.5264208805871629,0.4881101557489561,-0.4707503992486306,0.5128582591163184,0.0,0.0,0.0,126,9.890841465676203e-05,0,1735644242188269615,map,0.9591288540798496,0.322874584227509,0.0254892061502862,-0.4909244618338455,0.5016095812945656,-0.4967483410020485,0.5105115928540237,0.0,0.0,0.0,0,0.4514021575450897,0.936556863961894,0.5085248255843209,0.0483815047143989,1.0,3.077528475168122e-05,-0.0004562087732987,-0.0003648652894433,0.0,0.0,0.0,-0.0004562087732987,0.0218025100613744,0.0022243912381993,0.0,0.0,0.0,-0.0003648652894433,0.0022243912381993,0.0049999747064251,0.0,0.0,0.0,0.0,0.0,0.0,0.0,0.0,0.0,0.0,0.0,0.0,0.0,0.0,0.0,0.0,0.0,0.0,0.0,0.0,0.0,0,0,0,1,21,,0
2.102413906,0,1735643777088230371,map,0.9736256644314004,-0.2250334166122305,0.01922473770741,-0.5004066554917155,0.5074032106963947,-0.4822507679893141,0.5094794968281869,0.0,0.0,0.0,1,3.3970677577599417e-06,0,1735643777088253974,map,0.9781680658163732,-0.2473691116921452,0.148873391932238,-0.507683124272262,0.47887033626774,-0.4840990717641832,0.5278154365770604,0.0,0.0,0.0,16,5.2300649144854106e-08,0,1735643777088270664,map,0.9729944703731296,0.0474867262878356,0.0222718909909001,-0.5085459810199012,0.4931975768792671,-0.469429954789114,0.5270414147821935,0.0,0.0,0.0,17,0.0076059587299823,0,1735643777088284730,map,1.0130391328510822,-0.2592724731795272,0.2359409623935584,0.2377556901495275,-0.6309606654407444,0.6900605482635624,-0.2630157983815547,0.0,0.0,0.0,121,4.898773053874095e-10,0,1735643777088297367,map,0.9897614511073456,0.1872500232699661,0.2421272741328554,0.4460883458563864,-0.5036595980684637,0.5497250932985628,-0.4951106126538925,0.0,0.0,0.0,122,0.0003599901101551,0,1735643777088310956,map,0.9794738661526416,0.1885160634925645,0.144071130505186,-0.4599413004222744,0.5597464383732349,-0.5126841884763069,0.460752479950717,0.0,0.0,0.0,124,0.0158585533499717,0,1735643777088322877,map,0.9867228996288552,-0.0475280914491066,0.2431434477921821,-0.520176573680708,0.4800884255976009,-0.4767376454311841,0.5212030825213394,0.0,0.0,0.0,125,7.454445380972174e-07,0,1735643777088343858,map,0.979487215728277,-0.038402214194142,0.144957169814128,-0.5264208805871629,0.4881101557489561,-0.4707503992486306,0.5128582591163184,0.0,0.0,0.0,126,7.63673015171662e-05,0,1735644242188269615,map,0.9593413224532568,0.3231980812056942,0.0243639074110217,-0.4980889917838594,0.4964954486906456,-0.4882080044367657,0.5167712938013137,0.0,0.0,0.0,0,0.4736053347587585,0.9368127000403622,0.5024722409948041,0.0458268921753628,1.0,3.075090225202755e-05,-0.0004679898705016,-0.0003620053066934,0.0,0.0,0.0,-0.0004679898705016,0.0215807962612449,0.002447984723759,0.0,0.0,0.0,-0.0003620053066934,0.002447984723759,0.0049097500785769,0.0,0.0,0.0,0.0,0.0,0.0,0.0,0.0,0.0,0.0,0.0,0.0,0.0,0.0,0.0,0.0,0.0,0.0,0.0,0.0,0.0,0,0,0,1,22,,0
2.201724577,0,1735643777088230371,map,0.9736256644314004,-0.2250334166122305,0.01922473770741,-0.5004066554917155,0.5074032106963947,-0.4822507679893141,0.5094794968281869,0.0,0.0,0.0,1,2.5041358640010003e-06,0,1735643777088253974,map,0.9781680658163732,-0.2473691116921452,0.148873391932238,-0.507683124272262,0.47887033626774,-0.4840990717641832,0.5278154365770604,0.0,0.0,0.0,16,2.6549619391857963e-08,0,1735643777088270664,map,0.969780644009923,0.048288773351734,0.0238881726659079,-0.5069268559354551,0.4984467416718298,-0.4719622274066344,0.5213709469748958,0.0,0.0,0.0,17,0.0070578260347247,0,1735643777088284730,map,1.0130391328510822,-0.2592724731795272,0.2359409623935584,0.2377556901495275,-0.6309606654407444,0.6900605482635624,-0.2630157983815547,0.0,0.0,0.0,121,1.871676147402468e-10,0,1735643777088297367,map,0.9852271677683918,0.1861722868164837,0.2421327090044616,0.5384248245371515,-0.513613153536037,0.4678001404268255,-0.4769310908858298,0.0,0.0,0.0,122,0.0002367236302234,0,1735643777088310956,map,0.9817250055641008,0.1877606750026662,0.1444397332960311,-0.5485267859273654,0.5032333044185865,-0.423545293853859,0.5162208737530798,0.0,0.0,0.0,124,0.0127895958721637,0,1735643777088322877,map,0.985055940417464,-0.0494416267530418,0.2432542346357565,-0.5174810723478311,0.4807804530097114,-0.4863463711371479,0.5143254835677926,0.0,0.0,0.0,125,3.575960647594912e-07,0,1735643777088343858,map,0.9809936637327684,-0.041476247459899,0.1445519720303773,-0.5160773492824102,0.4947807744255311,-0.4830443169307741,0.5054941569369475,0.0,0.0,0.0,126,4.75857341371011e-05,0,1735644242188269615,map,0.9587576484511804,0.322669502584704,0.0250130881524763,-0.4965422302077324,0.4980646627406205,-0.4917629421340784,0.5133679129951918,0.0,0.0,0.0,0,0.479341596364975,0.937062141263686,0.4982280098224794,0.0429852886659915,1.0,3.078276682759047e-05,-0.0004709335815729,-0.0003618598327555,0.0,0.0,0.0,-0.0004709335815729,0.0210387977329965,0.0026068798935996,0.0,0.0,0.0,-0.0003618598327555,0.0026068798935996,0.0048739263149545,0.0,0.0,0.0,0.0,0.0,0.0,0.0,0.0,0.0,0.0,0.0,0.0,0.0,0.0,0.0,0.0,0.0,0.0,0.0,0.0,0.0,0,0,0,1,23,,0
2.302235734,0,1735643777088230371,map,0.9736256644314004,-0.2250334166122305,0.01922473770741,-0.5004066554917155,0.5074032106963947,-0.4822507679893141,0.5094794968281869,0.0,0.0,0.0,1,1.6215941514019503e-06,0,1735643777088253974,map,0.9781680658163732,-0.2473691116921452,0.148873391932238,-0.507683124272262,0.47887033626774,-0.4840990717641832,0.5278154365770604,0.0,0.0,0.0,16,1.2660194670388591e-08,0,1735643777088270664,map,0.9728259372565292,0.0472952867746077,0.0216719270262422,-0.5049054770639662,0.5029194697354362,-0.4689091560408663,0.5217917875674928,0.0,0.0,0.0,17,0.006079779472202,0,1735643777088284730,map,1.0130391328510822,-0.2592724731795272,0.2359409623935584,0.2377556901495275,-0.6309606654407444,0.6900605482635624,-0.2630157983815547,0.0,0.0,0.0,121,6.956781678502111e-11,0,1735643777088297367,map,0.9920401394005708,0.1861325609767351,0.2430697892024033,-0.4865639306713367,0.4908370193279508,-0.514378399304538,0.5076902836925414,0.0,0.0,0.0,122,0.0001570905005792,0,1735643777088310956,map,0.9780398025880802,0.1877661661573711,0.144232168622673,-0.5673541055148502,0.4816708886874488,-0.4007983377890189,0.5342875315521102,0.0,0.0,0.0,124,0.0104289203882217,0,1735643777088322877,map,0.985055940417464,-0.0494416267530418,0.2432542346357565,-0.5174810723478311,0.4807804530097114,-0.4863463711371479,0.5143254835677926,0.0,0.0,0.0,125,1.835165477359624e-07,0,1735643777088343858,map,0.9809936637327684,-0.041476247459899,0.1445519720303773,-0.5160773492824102,0.4947807744255311,-0.4830443169307741,0.5054941569369475,0.0,0.0,0.0,126,3.0882296414347365e-05,0,1735644242188269615,map,0.9587798017063676,0.3225326166987191,0.0238754675888864,-0.5097490258509042,0.4973975397740396,-0.4782976790625766,0.5137927094404313,0.0,0.0,0.0,0,0.4774618744850158,0.9372542339327188,0.4954359363563387,0.040696131197367,1.0,3.034884219351922e-05,-0.0004636470964251,-0.0003568961381877,0.0,0.0,0.0,-0.0004636470964251,0.0203414816683158,0.0026452643020761,0.0,0.0,0.0,-0.0003568961381877,0.0026452643020761,0.0047913716159031,0.0,0.0,0.0,0.0,0.0,0.0,0.0,0.0,0.0,0.0,0.0,0.0,0.0,0.0,0.0,0.0,0.0,0.0,0.0,0.0,0.0,0,0,0,1,24,,0
2.401007496,0,1735643777088230371,map,0.9736256644314004,-0.2250334166122305,0.01922473770741,-0.5004066554917155,0.5074032106963947,-0.4822507679893141,0.5094794968281869,0.0,0.0,0.0,1,9.333084562967996e-07,0,1735643777088253974,map,0.9781680658163732,-0.2473691116921452,0.148873391932238,-0.507683124272262,0.47887033626774,-0.4840990717641832,0.5278154365770604,0.0,0.0,0.0,16,5.816434001104653e-09,0,1735643777088270664,map,0.9728259372565292,0.0472952867746077,0.0216719270262422,-0.5049054770639662,0.5029194697354362,-0.4689091560408663,0.5217917875674928,0.0,0.0,0.0,17,0.0049339206889271,0,1735643777088284730,map,1.0130391328510822,-0.2592724731795272,0.2359409623935584,0.2377556901495275,-0.6309606654407444,0.6900605482635624,-0.2630157983815547,0.0,0.0,0.0,121,2.579138118352642e-11,0,1735643777088297367,map,0.9832984957047978,0.1837111788781089,0.2439055727328327,-0.4991639288004133,0.4939667912293518,-0.5019757865208854,0.5048291702089455,0.0,0.0,0.0,122,9.38474404392764e-05,0,1735643777088310956,map,0.9759995856980423,0.1856243205586344,0.1456046149317797,-0.4516905231603637,0.5655585034313569,-0.5168591555096712,0.4571387796385581,0.0,0.0,0.0,124,0.0077104168012738,0,1735643777088322877,map,0.985055940417464,-0.0494416267530418,0.2432542346357565,-0.5174810723478311,0.4807804530097114,-0.4863463711371479,0.5143254835677926,0.0,0.0,0.0,125,9.45290850040692e-08,0,1735643777088343858,map,0.9682199842733308,-0.039796469477754,0.1462711262317086,-0.5233002347686856,0.4895809385480912,-0.4753760244799387,0.5103773155725649,0.0,0.0,0.0,126,1.882919605122879e-05,0,1735644242188269615,map,0.9547940331172564,0.3219497971416862,0.0255439441701874,-0.499277120553568,0.5016126702203748,-0.4879443441057643,0.5108986230372117,0.0,0.0,0.0,0,0.4613401293754577,0.9373498591364416,0.494804368120849,0.0393960081107117,1.0,2.935434881586674e-05,-0.0004465506647565,-0.0003456040815008,0.0,0.0,0.0,-0.0004465506647565,0.0195373954840491,0.0025591605246433,0.0,0.0,0.0,-0.0003456040815008,0.0025591605246433,0.0046402844322379,0.0,0.0,0.0,0.0,0.0,0.0,0.0,0.0,0.0,0.0,0.0,0.0,0.0,0.0,0.0,0.0,0.0,0.0,0.0,0.0,0.0,0,0,0,1,25,,0
2.500863897,0,1735643777088230371,map,0.9736256644314004,-0.2250334166122305,0.01922473770741,-0.5004066554917155,0.5074032106963947,-0.4822507679893141,0.5094794968281869,0.0,0.0,0.0,1,5.537960987567203e-07,0,1735643777088253974,map,0.9781680658163732,-0.2473691116921452,0.148873391932238,-0.507683124272262,0.47887033626774,-0.4840990717641832,0.5278154365770604,0.0,0.0,0.0,16,3.4934009018883212e-09,0,1735643777088270664,map,0.9638377097954997,0.0461042631229966,0.0244481362826123,-0.501303055992438,0.4941981107933239,-0.4744755833803735,0.5285228416225799,0.0,0.0,0.0,17,0.0037103064823895,0,1735643777088284730,map,1.0130391328510822,-0.2592724731795272,0.2359409623935584,0.2377556901495275,-0.6309606654407444,0.6900605482635624,-0.2630157983815547,0.0,0.0,0.0,121,1.567522847634173e-11,0,1735643777088297367,map,0.9802449521208354,0.1822889313483841,0.2439976719887237,-0.4988717924376092,0.4538655867349244,-0.5044683557362649,0.5391146834845063,0.0,0.0,0.0,122,7.529830327257514e-05,0,1735643777088310956,map,0.9693295771167698,0.1850753894089836,0.1458898758071496,-0.4105586529809196,0.6013081144563145,-0.5517969223919194,0.4066820630299431,0.0,0.0,0.0,124,0.0064360662363469,0,1735643777088322877,map,0.985055940417464,-0.0494416267530418,0.2432542346357565,-0.5174810723478311,0.4807804530097114,-0.4863463711371479,0.5143254835677926,0.0,0.0,0.0,125,6.97749840128381e-08,0,1735643777088343858,map,0.9682199842733308,-0.039796469477754,0.1462711262317086,-0.5233002347686856,0.4895809385480912,-0.4753760244799387,0.5103773155725649,0.0,0.0,0.0,126,1.394769424223341e-05,0,1735644242188269615,map,0.9563295154909244,0.3226483679439907,0.0242200884117033,-0.5006910402937848,0.5058428701930096,-0.4834919826154582,0.5095752894234561,0.0,0.0,0.0,0,0.4447053670883178,0.9374825131028568,0.4964263221630361,0.0370635281040961,1.0,2.866526227001412e-05,-0.0004239966732629,-0.0003400469349392,0.0,0.0,0.0,-0.0004239966732629,0.0188517255690752,0.0023661518893192,0.0,0.0,0.0,-0.0003400469349392,0.0023661518893192,0.0045978235286064,0.0,0.0,0.0,0.0,0.0,0.0,0.0,0.0,0.0,0.0,0.0,0.0,0.0,0.0,0.0,0.0,0.0,0.0,0.0,0.0,0.0,0,0,0,1,26,,0
