%time,field.boxes0.header.seq,field.boxes0.header.stamp,field.boxes0.header.frame_id,field.boxes0.pose.position.x,field.boxes0.pose.position.y,field.boxes0.pose.position.z,field.boxes0.pose.orientation.x,field.boxes0.pose.orientation.y,field.boxes0.pose.orientation.z,field.boxes0.pose.orientation.w,field.boxes0.scale.x,field.boxes0.scale.y,field.boxes0.scale.z,field.boxes0.id,field.boxes0.pdf,field.boxes1.header.seq,field.boxes1.header.stamp,field.boxes1.header.frame_id,field.boxes1.pose.position.x,field.boxes1.pose.position.y,field.boxes1.pose.position.z,field.boxes1.pose.orientation.x,field.boxes1.pose.orientation.y,field.boxes1.pose.orientation.z,field.boxes1.pose.orientation.w,field.boxes1.scale.x,field.boxes1.scale.y,field.boxes1.scale.z,field.boxes1.id,field.boxes1.pdf,field.boxes2.header.seq,field.boxes2.header.stamp,field.boxes2.header.frame_id,field.boxes2.pose.position.x,field.boxes2.pose.position.y,field.boxes2.pose.position.z,field.boxes2.pose.orientation.x,field.boxes2.pose.orientation.y,field.boxes2.pose.orientation.z,field.boxes2.pose.orientation.w,field.boxes2.scale.x,field.boxes2.scale.y,field.boxes2.scale.z,field.boxes2.id,field.boxes2.pdf,field.boxes3.header.seq,field.boxes3.header.stamp,field.boxes3.header.frame_id,field.boxes3.pose.position.x,field.boxes3.pose.position.y,field.boxes3.pose.position.z,field.boxes3.pose.orientation.x,field.boxes3.pose.orientation.y,field.boxes3.pose.orientation.z,field.boxes3.pose.orientation.w,field.boxes3.scale.x,field.boxes3.scale.y,field.boxes3.scale.z,field.boxes3.id,field.boxes3.pdf,field.boxes4.header.seq,field.boxes4.header.stamp,field.boxes4.header.frame_id,field.boxes4.pose.position.x,field.boxes4.pose.position.y,field.boxes4.pose.position.z,field.boxes4.pose.orientation.x,field.boxes4.pose.orientation.y,field.boxes4.pose.orientation.z,field.boxes4.pose.orientation.w,field.boxes4.scale.x,field.boxes4.scale.y,field.boxes4.scale.z,field.boxes4.id,field.boxes4.pdf,field.boxes5.header.seq,field.boxes5.header.stamp,field.boxes5.header.frame_id,field.boxes5.pose.position.x,field.boxes5.pose.position.y,field.boxes5.pose.position.z,field.boxes5.pose.orientation.x,field.boxes5.pose.orientation.y,field.boxes5.pose.orientation.z,field.boxes5.pose.orientation.w,field.boxes5.scale.x,field.boxes5.scale.y,field.boxes5.scale.z,field.boxes5.id,field.boxes5.pdf,field.boxes6.header.seq,field.boxes6.header.stamp,field.boxes6.header.frame_id,field.boxes6.pose.position.x,field.boxes6.pose.position.y,field.boxes6.pose.position.z,field.boxes6.pose.orientation.x,field.boxes6.pose.orientation.y,field.boxes6.pose.orientation.z,field.boxes6.pose.orientation.w,field.boxes6.scale.x,field.boxes6.scale.y,field.boxes6.scale.z,field.boxes6.id,field.boxes6.pdf,field.boxes7.header.seq,field.boxes7.header.stamp,field.boxes7.header.frame_id,field.boxes7.pose.position.x,field.boxes7.pose.position.y,field.boxes7.pose.position.z,field.boxes7.pose.orientation.x,field.boxes7.pose.orientation.y,field.boxes7.pose.orientation.z,field.boxes7.pose.orientation.w,field.boxes7.scale.x,field.boxes7.scale.y,field.boxes7.scale.z,field.boxes7.id,field.boxes7.pdf,field.boxes8.header.seq,field.boxes8.header.stamp,field.boxes8.header.frame_id,field.boxes8.pose.position.x,field.boxes8.pose.position.y,field.boxes8.pose.position.z,field.boxes8.pose.orientation.x,field.boxes8.pose.orientation.y,field.boxes8.pose.orientation.z,field.boxes8.pose.orientation.w,field.boxes8.scale.x,field.boxes8.scale.y,field.boxes8.scale.z,field.boxes8.id,field.boxes8.pdf,field.pose.pose.position.x,field.pose.pose.position.y,field.pose.pose.position.z,field.pose.pose.orientation.w,field.pose.covariance0,field.pose.covariance1,field.pose.covariance2,field.pose.covariance3,field.pose.covariance4,field.pose.covariance5,field.pose.covariance6,field.pose.covariance7,field.pose.covariance8,field.pose.covariance9,field.pose.covariance10,field.pose.covariance11,field.pose.covariance12,field.pose.covariance13,field.pose.covariance14,field.pose.covariance15,field.pose.covariance16,field.pose.covariance17,field.pose.covariance18,field.pose.covariance19,field.pose.covariance20,field.pose.covariance21,field.pose.covariance22,field.pose.covariance23,field.pose.covariance24,field.pose.covariance25,field.pose.covariance26,field.pose.covariance27,field.pose.covariance28,field.pose.covariance29,field.pose.covariance30,field.pose.covariance31,field.pose.covariance32,field.pose.covariance33,field.pose.covariance34,field.pose.covariance35,field.buttons0,field.buttons1,field.buttons2,field.buttons3,intersection_length,vacuum,desired_box
0.0,0,1735643777088230371,map,0.9836970371511302,-0.2212903461966708,0.0205985387433376,-0.4980105803043473,0.4994702335373092,-0.4955868424488701,0.5068615484594114,0.0,0.0,0.0,1,0.1111111119389534,0,1735643777088253974,map,0.9772379924450338,-0.2481498319994719,0.1485496546165152,-0.5052611312665625,0.494211343621797,-0.484506149009044,0.5154804832767174,0.0,0.0,0.0,16,0.1111111119389534,0,1735643777088270664,map,0.9834842521002009,0.0548062102572041,0.0258577744372214,-0.4717643027094389,0.5061018019054071,-0.5185797897595619,0.5023687992402652,0.0,0.0,0.0,17,0.1111111119389534,0,1735643777088284730,map,1.0111628276465776,-0.2586458606664857,0.2362373673690268,-0.5027374535937201,0.5181506993745139,-0.4746102551931479,0.5035077071478642,0.0,0.0,0.0,121,0.1111111119389534,0,1735643777088297367,map,1.011691272050972,0.2042677207078963,0.2415466487029541,-0.6505579627704118,0.2899483367726322,-0.2912991853026928,0.6386306316806167,0.0,0.0,0.0,122,0.1111111119389534,0,1735643777088310956,map,1.0074897127441584,0.2062110422171929,0.1437056792798374,-0.4784255724516394,0.5008040813227412,-0.4893363976819955,0.5299567280999595,0.0,0.0,0.0,124,0.1111111119389534,0,1735643777088322877,map,1.002612299457213,-0.0281678991249091,0.2421151852107891,-0.5304419010525295,0.4726199847035296,-0.4660966411026758,0.5272719040679277,0.0,0.0,0.0,125,0.1111111119389534,0,1735643777088343858,map,1.001318646766338,-0.0218708771832914,0.144832100052774,-0.5679656519323688,0.5692364442939593,-0.4307411589933276,0.409691277258492,0.0,0.0,0.0,126,0.1111111119389534,0,1735644242188269615,map,0.9720231073249356,0.3282567787264413,0.0266314875872007,-0.4801245860316763,0.488919811844611,-0.4909593947670535,0.5379560132238608,0.0,0.0,0.0,0,0.1111111119389534,0.9348984274079216,0.5689352346018847,0.0604582392898209,1.0,0.0,0.0,0.0,0.0,0.0,0.0,0.0,0.0,0.0,0.0,0.0,0.0,0.0,0.0,0.0,0.0,0.0,0.0,0.0,0.0,0.0,0.0,0.0,0.0,0.0,0.0,0.0,0.0,0.0,0.0,0.0,0.0,0.0,0.0,0.0,0.0,0,0,0,1,1,,0
0.100515003,0,1735643777088230371,map,0.984611261235607,-0.2205865115873913,0.0205556552648923,-0.4934525738003157,0.4980027497902704,-0.497673464748151,0.5107043578203967,0.0,0.0,0.0,1,0.0,0,1735643777088253974,map,0.9713931677477834,-0.2452499766342807,0.149263558524998,-0.500127787943718,0.4665904931061318,-0.4867030494354603,0.5434019222819548,0.0,0.0,0.0,16,0.0,0,1735643777088270664,map,0.9901461506531348,0.0570134494826675,0.0239351484581222,-0.4903854123623343,0.5022022263910347,-0.4988633845888954,0.5083801674599655,0.0,0.0,0.0,17,0.0,0,1735643777088284730,map,1.0124949442108375,-0.2578218832081184,0.2361805599806393,0.3218429782457752,-0.6078146330506715,0.6368553629765007,-0.3484160097518998,0.0,0.0,0.0,121,0.0,0,1735643777088297367,map,1.0203263496723438,0.2083075114873638,0.2416169320137217,-0.5388679429395983,0.4783005961246286,-0.4652187169006977,0.5142192385200488,0.0,0.0,0.0,122,0.0,0,1735643777088310956,map,1.0099150140672082,0.2073864841382053,0.1434116157911785,-0.4771206130228367,0.500478956997839,-0.4901463863401061,0.5306912983918264,0.0,0.0,0.0,124,0.0,0,1735643777088322877,map,1.0028794163994137,-0.0278889911444951,0.2418051009438817,-0.4958636495211659,0.5072228725087918,-0.5028536570182255,0.4939457442987812,0.0,0.0,0.0,125,0.0,0,1735643777088343858,map,1.0028229243111766,-0.0216136210565331,0.1446507085042538,-0.5073138174587479,0.4963320863690644,-0.4945505172420282,0.5017040328237411,0.0,0.0,0.0,126,0.0,0,1735644242188269615,map,0.9746352967377292,0.3301114863068336,0.0258187399837565,-0.4866305237188632,0.4957818307156991,-0.4887756968690595,0.5277209753908397,0.0,0.0,0.0,0,0.0,0.9344502366599272,0.5609645930897924,0.0688661982087486,1.0,2.008749465876835e-07,3.5723677812989884e-06,-3.76836939697947e-06,0.0,0.0,0.0,3.5723677812989884e-06,6.353112611428836e-05,-6.701682639117112e-05,0.0,0.0,0.0,-3.76836939697947e-06,-6.701682639117112e-05,7.069377318237512e-05,0.0,0.0,0.0,0.0,0.0,0.0,0.0,0.0,0.0,0.0,0.0,0.0,0.0,0.0,0.0,0.0,0.0,0.0,0.0,0.0,0.0,0,0,0,1,2,,0
0.198180962,0,1735643777088230371,map,0.9876704697232498,-0.2210161834008082,0.0196825033957764,-0.4559973448110904,0.7663874458672051,-0.3873722084977179,0.2337936620740135,0.0,0.0,0.0,1,0.0,0,1735643777088253974,map,0.9758781029293508,-0.2450307967544837,0.1489698633968035,-0.5031291841217417,0.4677889696043681,-0.4832541922427514,0.5426784404058077,0.0,0.0,0.0,16,0.0,0,1735643777088270664,map,0.98975871589484,0.0579029825061822,0.0243050088382321,-0.4704495550136495,0.5060420244421941,-0.5194529480352316,0.5027597044945151,0.0,0.0,0.0,17,0.0,0,1735643777088284730,map,1.0188294563897344,-0.2583860441547617,0.2361868939052374,0.3169117749153472,-0.6105807586409029,0.6402332863346596,-0.3418470464500543,0.0,0.0,0.0,121,0.0,0,1735643777088297367,map,1.0204608004402709,0.209337662313871,0.2416028921262032,-0.5182904791816065,0.4798311308442042,-0.4892405509700993,0.5116451390846459,0.0,0.0,0.0,122,0.0,0,1735643777088310956,map,1.0071710640396367,0.2071198226072703,0.143871419024842,-0.471974878701559,0.498841965245742,-0.4926932595977742,0.5344621216993164,0.0,0.0,0.0,124,0.0,0,1735643777088322877,map,1.0079331908561455,-0.0263660613151729,0.2416836382600083,0.4862697469797736,-0.509724489657331,0.512052062631513,-0.4914522997917636,0.0,0.0,0.0,125,0.0,0,1735643777088343858,map,1.007814957097331,-0.0200943764807219,0.1442831423849559,-0.5543359047786633,0.5580540738855991,-0.4463121969265424,0.4267233039892597,0.0,0.0,0.0,126,0.0,0,1735644242188269615,map,0.9822012201806996,0.3353473637056853,0.0238273304741688,-0.50587334798312,0.490820313326257,-0.4764500359059648,0.5255311019453265,0.0,0.0,0.0,0,0.0,0.9345838541249618,0.5626944446907586,0.0664964262356288,1.0,1.69623884982999e-07,2.843855292480289e-06,-3.1455321121695817e-06,0.0,0.0,0.0,2.843855292480289e-06,4.83388571989232e-05,-5.287659194403315e-05,0.0,0.0,0.0,-3.1455321121695817e-06,-5.287659194403315e-05,5.836082053075154e-05,0.0,0.0,0.0,0.0,0.0,0.0,0.0,0.0,0.0,0.0,0.0,0.0,0.0,0.0,0.0,0.0,0.0,0.0,0.0,0.0,0.0,0,0,0,1,3,,0
0.300006199,0,1735643777088230371,map,0.9875137914942196,-0.2202945543619733,0.019219429306039,-0.4932888022781696,0.4957289348829385,-0.4953181993593956,0.5153434408723587,0.0,0.0,0.0,1,0.0,0,1735643777088253974,map,0.9936358971345856,-0.250827291817886,0.1466600439665742,0.5282314538409174,-0.5182976309721287,0.4560445507465788,-0.4943303193575537,0.0,0.0,0.0,16,0.0,0,1735643777088270664,map,0.9791061832161888,0.055959765447195,0.0275288252764601,0.4823180232462737,-0.5092565692477088,0.5112823113373387,-0.4966059496657377,0.0,0.0,0.0,17,0.0,0,1735643777088284730,map,1.0188058344447997,-0.2597014519405989,0.2362411105308106,-0.4890496305094871,0.4960261535870168,-0.4922861588290967,0.5219605844137054,0.0,0.0,0.0,121,0.0,0,1735643777088297367,map,1.0112409685001822,0.2053291863184158,0.241402094253314,-0.5110621399696829,0.4948329035726299,-0.4897591926919625,0.5040752124487039,0.0,0.0,0.0,122,0.0,0,1735643777088310956,map,1.0103362322487397,0.2081125221997085,0.143201777968185,-0.4978335157700553,0.5069341547176123,-0.4683930801723468,0.5251547160632071,0.0,0.0,0.0,124,0.0,0,1735643777088322877,map,0.9940617117643156,-0.0271259442916642,0.2414767141779677,0.4414944482785742,-0.5441127537849365,0.5526391415798065,-0.451236016405722,0.0,0.0,0.0,125,0.0,0,1735643777088343858,map,1.0077600910581543,-0.0204539909426237,0.1435422516617859,-0.5221026513966769,0.5583109634106238,-0.4788537659979249,0.4317369110114006,0.0,0.0,0.0,126,0.0,0,1735644242188269615,map,0.9792661852511058,0.334205202349061,0.0244622526329252,-0.5009390850960812,0.4954099157337718,-0.4762163094023147,0.5261625937626101,0.0,0.0,0.0,0,0.0,0.9346793480109838,0.5623489305075471,0.0651377066874401,1.0,1.545751605400337e-07,2.0339079932683737e-06,-2.7483973131392185e-06,0.0,0.0,0.0,2.0339079932683737e-06,3.661228305159352e-05,-3.824907333330677e-05,0.0,0.0,0.0,-2.7483973131392185e-06,-3.824907333330677e-05,4.930897182995366e-05,0.0,0.0,0.0,0.0,0.0,0.0,0.0,0.0,0.0,0.0,0.0,0.0,0.0,0.0,0.0,0.0,0.0,0.0,0.0,0.0,0.0,0,0,0,1,4,,0
0.398917441,0,1735643777088230371,map,0.9826705101455322,-0.2180970610845689,0.0210223981081298,-0.5064594809982483,0.4958465368292237,-0.4818824146910858,0.5151935019319819,0.0,0.0,0.0,1,0.0,0,1735643777088253974,map,0.9867837630174,-0.2475921846054634,0.1473469407597574,-0.503365226593293,0.4852971558035198,-0.4906604797311002,0.5199638572590828,0.0,0.0,0.0,16,0.0,0,1735643777088270664,map,0.9878683731877048,0.0582728843296366,0.0244789563236523,-0.4883417824261267,0.5060018279281148,-0.5001935840145961,0.5052631316263967,0.0,0.0,0.0,17,0.0,0,1735643777088284730,map,1.009089656385214,-0.2562036708871383,0.2357783953097436,-0.5171410261359699,0.4941304171782196,-0.4613749132154952,0.5249128302506135,0.0,0.0,0.0,121,0.0,0,1735643777088297367,map,1.0145331388820007,0.207160951516563,0.2413390593043442,0.5107331744542029,-0.4979903180976698,0.4925679325620855,-0.4985319442166443,0.0,0.0,0.0,122,0.0,0,1735643777088310956,map,1.0068602674006686,0.2070313978617882,0.1433575810367966,-0.4788421737206948,0.5036210146974702,-0.4901458328086428,0.5261493217726815,0.0,0.0,0.0,124,0.0,0,1735643777088322877,map,1.008222623321806,-0.0264527114450261,0.2414244796392249,-0.568773613657122,0.4591013420807952,-0.4236323371476063,0.5350310056715301,0.0,0.0,0.0,125,0.0,0,1735643777088343858,map,1.001601474447326,-0.0202851240642031,0.1444290397969194,-0.4795582754954292,0.5658729101140585,-0.5191206757812353,0.424647423139868,0.0,0.0,0.0,126,0.0,0,1735644242188269615,map,0.9692321352904796,0.3283920612063959,0.0276646212577547,-0.4783642413773647,0.4891346370480697,-0.4940764458262686,0.5364731354793026,0.0,0.0,0.0,0,8.767399114550194e-25,0.9349799859211462,0.5520325438838719,0.0628140810598585,1.0,4.851927405389387e-07,-1.0778861265255472e-05,-4.9929976612137456e-06,0.0,0.0,0.0,-1.0778861265255472e-05,0.0004550011583178,6.528642270460157e-05,0.0,0.0,0.0,-4.9929976612137456e-06,6.528642270460157e-05,6.104412169257905e-05,0.0,0.0,0.0,0.0,0.0,0.0,0.0,0.0,0.0,0.0,0.0,0.0,0.0,0.0,0.0,0.0,0.0,0.0,0.0,0.0,0.0,0,0,0,1,5,,0
0.500248936,0,1735643777088230371,map,0.9896028600217648,-0.2199063048267444,0.0178637497730862,-0.5032924177630176,0.5065100672491234,-0.4819642629568369,0.5077939968432247,0.0,0.0,0.0,1,0.0,0,1735643777088253974,map,0.9794425227514364,-0.2449178176281536,0.147538969051249,-0.5205015112364483,0.4794087458357246,-0.4688204793165647,0.5286329439130496,0.0,0.0,0.0,16,0.0,0,1735643777088270664,map,0.996975956466154,0.0588895023013515,0.0218160457734717,0.683720959932229,-0.5569142005008259,0.2940757493635533,-0.3686348815103392,0.0,0.0,0.0,17,0.0,0,1735643777088284730,map,1.0209016353103322,-0.2604228098422642,0.235452690402918,-0.4980159457890722,0.4822224760722325,-0.4884843204978835,0.5299289291389006,0.0,0.0,0.0,121,0.0,0,1735643777088297367,map,1.014934592151564,0.206689581988002,0.2404435273806378,0.5153804134462513,-0.5122093458972558,0.4942991968803531,-0.4771717923085086,0.0,0.0,0.0,122,0.0,0,1735643777088310956,map,1.009306398069148,0.2074981314137595,0.1427333840650474,-0.4838383956384984,0.5050914556672803,-0.4853569337001153,0.5246062096726392,0.0,0.0,0.0,124,0.0,0,1735643777088322877,map,0.997707686729303,-0.0271831511167752,0.240937565394549,-0.5737683103650937,0.4722697501185416,-0.4182339459321392,0.5223328207319431,0.0,0.0,0.0,125,0.0,0,1735643777088343858,map,1.0070857396316697,-0.020864170509753,0.1434669251298675,-0.533823232679237,0.5631967757418739,-0.4643923816378759,0.4268276747383517,0.0,0.0,0.0,126,0.0,0,1735644242188269615,map,0.983100727937667,0.3359797862224628,0.0228263390046502,-0.5063320527293765,0.4903635452313282,-0.4810569907969038,0.5213018487330028,0.0,0.0,0.0,0,9.63318136371072e-09,0.9359310813980458,0.5292918195512809,0.0533678018951515,1.0,4.927240314677852e-06,-0.0001171253846584,-4.908239831976854e-05,0.0,0.0,0.0,-0.0001171253846584,0.002964870347786,0.0011284815045203,0.0,0.0,0.0,-4.908239831976854e-05,0.0011284815045203,0.0004970310516983,0.0,0.0,0.0,0.0,0.0,0.0,0.0,0.0,0.0,0.0,0.0,0.0,0.0,0.0,0.0,0.0,0.0,0.0,0.0,0.0,0.0,0,0,0,1,6,,0
0.598491474,0,1735643777088230371,map,0.9860604216743863,-0.2207894590250898,0.0192928116101051,-0.3873566329860366,0.798394235441044,-0.4121194705971265,0.2065890259693773,0.0,0.0,0.0,1,0.0,0,1735643777088253974,map,0.9813020582665156,-0.248036185311449,0.147375980226402,-0.5028864686999056,0.4687826554841002,-0.4846453740329289,0.5408020737241095,0.0,0.0,0.0,16,0.0,0,1735643777088270664,map,0.9958514505566862,0.0571291661224516,0.0212833986373594,-0.5038690040969154,0.4983527809369481,-0.4796534944406813,0.517390623913535,0.0,0.0,0.0,17,0.0,0,1735643777088284730,map,1.0129638231551117,-0.2608878779695335,0.2357003953563117,-0.5136757072526542,0.4982146893631113,-0.4607859595008435,0.5249720855514048,0.0,0.0,0.0,121,0.0,0,1735643777088297367,map,1.012629413538347,0.2034274426545165,0.2409795902447728,-0.4973067488259581,0.4865501858515595,-0.5024061719360007,0.5133643468537551,0.0,0.0,0.0,122,0.0,0,1735643777088310956,map,0.999079831811263,0.2020589797929358,0.1439863710465734,-0.4619675599162548,0.4999662505397311,-0.5105313935628336,0.5253355290602912,0.0,0.0,0.0,124,0.0,0,1735643777088322877,map,0.9964276969918152,-0.0293685311744128,0.2410195623349832,0.4229599156304998,-0.5528830084228844,0.568705010553683,-0.4381779315965567,0.0,0.0,0.0,125,0.0,0,1735643777088343858,map,0.9921418327847624,-0.0231621071344575,0.14502216513174,0.4546956373688373,-0.530363919849856,0.5559328270630237,-0.450449421881033,0.0,0.0,0.0,126,0.0,0,1735644242188269615,map,0.9798415101183596,0.3329376531222636,0.0238299120574237,-0.5109905872012817,0.5001437192741288,-0.4825059049629212,0.5058981434421793,0.0,0.0,0.0,0,6.070839664307215e-11,0.9370792967087568,0.5046349125229425,0.0413715357845686,1.0,1.213373923965778e-05,-0.0002702618158383,-0.0001247164056484,0.0,0.0,0.0,-0.0002702618158383,0.0061890958261841,0.0027420147700725,0.0,0.0,0.0,-0.0001247164056484,0.0027420147700725,0.0012894890193169,0.0,0.0,0.0,0.0,0.0,0.0,0.0,0.0,0.0,0.0,0.0,0.0,0.0,0.0,0.0,0.0,0.0,0.0,0.0,0.0,0.0,0,0,0,1,7,,0
0.699298187,0,1735643777088230371,map,0.994321557122508,-0.2237719441076269,0.0159182448571526,-0.5079384238530564,0.5232439177475183,-0.4788982688299372,0.4887441132388095,0.0,0.0,0.0,1,0.0,0,1735643777088253974,map,0.9813790043085358,-0.2475190814535655,0.1468692086430663,-0.5183178139099796,0.479873881352573,-0.4702463602243047,0.5290898434812276,0.0,0.0,0.0,16,0.0,0,1735643777088270664,map,0.9926599928873348,0.0569337520808776,0.021766639156384,-0.5062109021299092,0.4925634166967557,-0.4784022537763309,0.5217883542956556,0.0,0.0,0.0,17,0.0,0,1735643777088284730,map,1.0129638231551117,-0.2608878779695335,0.2357003953563117,-0.5136757072526542,0.4982146893631113,-0.4607859595008435,0.5249720855514048,0.0,0.0,0.0,121,0.0,0,1735643777088297367,map,1.019752753100741,0.2061043912402754,0.240943202874134,0.5145873551323981,-0.5004984679259361,0.4902203066935929,-0.4943533032628322,0.0,0.0,0.0,122,0.0,0,1735643777088310956,map,1.0057683945657243,0.2042821547300146,0.1428079793871112,-0.4845696959373566,0.5045139332028352,-0.4868800914420498,0.5230733003516469,0.0,0.0,0.0,124,0.0,0,1735643777088322877,map,1.0073990984438028,-0.029933388944796,0.2409923462925179,-0.5356073099330855,0.438260947821406,-0.4561396346172652,0.5594540060560421,0.0,0.0,0.0,125,0.0,0,1735643777088343858,map,1.0017844325667808,-0.0232939295333395,0.1436800606714539,-0.5184887232397732,0.606818761506914,-0.4678760775663209,0.3795160215294724,0.0,0.0,0.0,126,0.0,0,1735644242188269615,map,0.9791463504109164,0.3325079355306664,0.0232754452406417,-0.4992197490459419,0.4977685351692699,-0.4847230022698726,0.5177352012645334,0.0,0.0,0.0,0,4.052069877552578e-12,0.9381933122237782,0.479909440863962,0.0299025924115942,1.0,1.930423580866069e-05,-0.0004292910021688,-0.0001985629209511,0.0,0.0,0.0,-0.0004292910021688,0.0096949014892245,0.0043842881641019,0.0,0.0,0.0,-0.0001985629209511,0.0043842881641019,0.0020490595265498,0.0,0.0,0.0,0.0,0.0,0.0,0.0,0.0,0.0,0.0,0.0,0.0,0.0,0.0,0.0,0.0,0.0,0.0,0.0,0.0,0.0,0,0,0,1,8,,0
0.797911247,0,1735643777088230371,map,0.988911129488155,-0.221858509265417,0.016716604789245,-0.5094784243035677,0.4995667181843323,-0.4792965907428299,0.5110182064799544,0.0,0.0,0.0,1,0.0,0,1735643777088253974,map,0.9887054204439116,-0.2505262776281396,0.1449831714461523,-0.5114945204907407,0.4834607448292098,-0.4761944882413458,0.5271412268886725,0.0,0.0,0.0,16,0.0,0,1735643777088270664,map,0.990720275181168,0.0564448685822406,0.0218976354650634,-0.4848107851294499,0.5094022670679482,-0.5090684502452306,0.4963034816451727,0.0,0.0,0.0,17,0.0,0,1735643777088284730,map,1.0129638231551117,-0.2608878779695335,0.2357003953563117,-0.5136757072526542,0.4982146893631113,-0.4607859595008435,0.5249720855514048,0.0,0.0,0.0,121,0.0,0,1735643777088297367,map,1.011409572652539,0.2025879719404366,0.2400613513249526,-0.6067556792209686,0.3125794444274083,-0.3395078494196158,0.6472063479579144,0.0,0.0,0.0,122,0.0,0,1735643777088310956,map,1.0022589673075335,0.2027881260482898,0.1425615844376044,-0.4797482768911374,0.5036533270308062,-0.4925201517021803,0.5230667425463456,0.0,0.0,0.0,124,0.0,0,1735643777088322877,map,1.0040006554073926,-0.029983668026806,0.2405303252829655,-0.537999635656264,0.4451058318511877,-0.4577716463665333,0.5503474450460025,0.0,0.0,0.0,125,0.0,0,1735643777088343858,map,1.0066309843700096,-0.0243206260455715,0.142061309774881,-0.553609039079272,0.4710061145317714,-0.4457779606967844,0.5224483531225118,0.0,0.0,0.0,126,0.0,0,1735644242188269615,map,0.9829528441505492,0.3345672676816267,0.0216287640116429,-0.5109497433255521,0.4911428740223706,-0.4776737898827155,0.5191693245480528,0.0,0.0,0.0,0,6.04833800821325e-08,0.9386933226997464,0.4659069264762398,0.0253699473955699,1.0,1.9159404527433663e-05,-0.0004376032329979,-0.0001946313341136,0.0,0.0,0.0,-0.0004376032329979,0.0101862534860709,0.0044048924511678,0.0,0.0,0.0,-0.0001946313341136,0.0044048924511678,0.0019857452125523,0.0,0.0,0.0,0.0,0.0,0.0,0.0,0.0,0.0,0.0,0.0,0.0,0.0,0.0,0.0,0.0,0.0,0.0,0.0,0.0,0.0,0,0,0,1,9,,0
0.900375851,0,1735643777088230371,map,0.9830684526033906,-0.2191012002421957,0.0187599650406976,-0.508940661760049,0.4942077922938306,-0.4765006858190125,0.5193121963302147,0.0,0.0,0.0,1,0.0,0,1735643777088253974,map,0.9887054204439116,-0.2505262776281396,0.1449831714461523,-0.5114945204907407,0.4834607448292098,-0.4761944882413458,0.5271412268886725,0.0,0.0,0.0,16,0.0,0,1735643777088270664,map,0.9884767492303104,0.0576301371956587,0.0222566015012693,0.4833377413341593,-0.5064043664122936,0.5102779131700727,-0.4995554992304183,0.0,0.0,0.0,17,0.0,0,1735643777088284730,map,1.0129638231551117,-0.2608878779695335,0.2357003953563117,-0.5136757072526542,0.4982146893631113,-0.4607859595008435,0.5249720855514048,0.0,0.0,0.0,121,0.0,0,1735643777088297367,map,1.0124063756568746,0.2045765252496846,0.2403940337695021,-0.5066012793769532,0.4966636773730258,-0.493962519349749,0.5026742133724245,0.0,0.0,0.0,122,0.0,0,1735643777088310956,map,1.0049349436259218,0.2048857781213059,0.1423775234988561,-0.4915282840793971,0.5090948888946059,-0.4788072810084571,0.5195824551547531,0.0,0.0,0.0,124,0.0,0,1735643777088322877,map,1.0066254163756891,-0.0301887487172989,0.2411595575756627,-0.5429304377123038,0.4774000978719357,-0.4526445691906106,0.5219469133347173,0.0,0.0,0.0,125,0.0,0,1735643777088343858,map,0.9989382703627782,-0.0233100177531367,0.1434958320322413,-0.5639770341427133,0.4777909364372572,-0.4295917822955418,0.5187452424862686,0.0,0.0,0.0,126,0.0,0,1735644242188269615,map,0.9676704341342012,0.3266592705996468,0.0258529123496142,-0.4808253228565032,0.4910588001900475,-0.4932763801899583,0.5332416679166609,0.0,0.0,0.0,0,2.3245974034580286e-09,0.938910132651492,0.4589987740408748,0.0235816557533764,1.0,1.7666523071273056e-05,-0.0004073227154636,-0.0001786576755241,0.0,0.0,0.0,-0.0004073227154636,0.0095971312680959,0.0040755873274195,0.0,0.0,0.0,-0.0001786576755241,0.0040755873274195,0.0018159525742749,0.0,0.0,0.0,0.0,0.0,0.0,0.0,0.0,0.0,0.0,0.0,0.0,0.0,0.0,0.0,0.0,0.0,0.0,0.0,0.0,0.0,0,0,0,1,10,,0
1.000324614,0,1735643777088230371,map,0.9807868712062628,-0.2220381023068999,0.0189325023372262,-0.5095356007326808,0.5025728656125615,-0.479699658563771,0.5076240970538791,0.0,0.0,0.0,1,0.0,0,1735643777088253974,map,0.9887054204439116,-0.2505262776281396,0.1449831714461523,-0.5114945204907407,0.4834607448292098,-0.4761944882413458,0.5271412268886725,0.0,0.0,0.0,16,0.0,0,1735643777088270664,map,0.993389874853944,0.0553559627623826,0.0202230677714737,-0.5089098540269416,0.4956366809585805,-0.4762438872627862,0.5182150140699029,0.0,0.0,0.0,17,0.0,0,1735643777088284730,map,1.0129638231551117,-0.2608878779695335,0.2357003953563117,-0.5136757072526542,0.4982146893631113,-0.4607859595008435,0.5249720855514048,0.0,0.0,0.0,121,0.0,0,1735643777088297367,map,1.010168027735895,0.2021184472154848,0.2414544276831678,-0.4811067525232776,0.4882616975180102,-0.5184007672468698,0.511270429353384,0.0,0.0,0.0,122,0.0,0,1735643777088310956,map,0.9968845052916252,0.2006472796256451,0.1435295855554249,-0.4631020465020255,0.5004250367812019,-0.5060650107744672,0.5282134814239478,0.0,0.0,0.0,124,0.0,0,1735643777088322877,map,1.006943323162067,-0.0332138993250718,0.2422157325466207,0.3878288661546265,-0.5618439570760992,0.5951302795403114,-0.423957649829034,0.0,0.0,0.0,125,0.0,0,1735643777088343858,map,1.0065093562517846,-0.0276264852899615,0.142785370324347,0.5477368947239504,-0.5146372391413132,0.4505354042610802,-0.4818201487634944,0.0,0.0,0.0,126,0.0,0,1735644242188269615,map,0.9676685955893732,0.3271306571437868,0.0257096354904186,-0.4847589229601944,0.5027212559436008,-0.4968999498873145,0.5151413060849858,0.0,0.0,0.0,0,4.3226763835058074e-10,0.9390365106235988,0.4566186737581033,0.0221906252983085,1.0,1.6220189437677144e-05,-0.0003733013001656,-0.0001641740247388,0.0,0.0,0.0,-0.0003733013001656,0.0087813135627386,0.0037381873083577,0.0,0.0,0.0,-0.0001641740247388,0.0037381873083577,0.0016702156338828,0.0,0.0,0.0,0.0,0.0,0.0,0.0,0.0,0.0,0.0,0.0,0.0,0.0,0.0,0.0,0.0,0.0,0.0,0.0,0.0,0.0,0,0,0,1,11,,0
1.099673944,0,1735643777088230371,map,0.9860294744939948,-0.2244162178457484,0.0174887204405021,-0.4994027064693715,0.5087356576967221,-0.4921787482460193,0.4995448399632725,0.0,0.0,0.0,1,0.0,0,1735643777088253974,map,0.9887054204439116,-0.2505262776281396,0.1449831714461523,-0.5114945204907407,0.4834607448292098,-0.4761944882413458,0.5271412268886725,0.0,0.0,0.0,16,0.0,0,1735643777088270664,map,0.986675903367282,0.0553352320941309,0.0233574953229866,-0.6167784279596688,0.631384291119549,-0.3293590033473205,0.3353518967370301,0.0,0.0,0.0,17,0.0,0,1735643777088284730,map,1.0129638231551117,-0.2608878779695335,0.2357003953563117,-0.5136757072526542,0.4982146893631113,-0.4607859595008435,0.5249720855514048,0.0,0.0,0.0,121,0.0,0,1735643777088297367,map,1.0041339010045158,0.2002673380216277,0.2419416335367467,-0.4788433146075327,0.4831143048424939,-0.5191365284564933,0.5175006409023711,0.0,0.0,0.0,122,0.0,0,1735643777088310956,map,0.9955052447469454,0.2002821834172983,0.1445841725161998,-0.4790359338921183,0.5154377086681379,-0.4944626933361415,0.5102501224123458,0.0,0.0,0.0,124,0.0,0,1735643777088322877,map,0.9991181572474094,-0.0337150352542035,0.2426530703527117,-0.5380982823952064,0.451778824541515,-0.4582093355367437,0.5444174290066317,0.0,0.0,0.0,125,0.0,0,1735643777088343858,map,0.9921581182488634,-0.0264200103136212,0.1451694121619127,-0.4252151997861205,0.5950792766108279,-0.5711464410129065,0.3726451815567643,0.0,0.0,0.0,126,0.0,0,1735644242188269615,map,0.9688180351126192,0.328740664628,0.0260572212393868,-0.5002304600683526,0.489399277686455,-0.4845219440055349,0.5248774329277995,0.0,0.0,0.0,0,1.6527869350912994e-10,0.9391625608870032,0.4546351072513696,0.0207205515593697,1.0,1.5043282342485058e-05,-0.0003449431783723,-0.0001525311910127,0.0,0.0,0.0,-0.0003449431783723,0.0080928173294634,0.0034587475786687,0.0,0.0,0.0,-0.0001525311910127,0.0034587475786687,0.001554803282503,0.0,0.0,0.0,0.0,0.0,0.0,0.0,0.0,0.0,0.0,0.0,0.0,0.0,0.0,0.0,0.0,0.0,0.0,0.0,0.0,0.0,0,0,0,1,12,,0
1.200214625,0,1735643777088230371,map,0.9783312645296736,-0.2220405235188249,0.0183829863423753,-0.5060381819203474,0.5101264632652992,-0.4818361078031211,0.5015279804081983,0.0,0.0,0.0,1,0.0,0,1735643777088253974,map,0.9887054204439116,-0.2505262776281396,0.1449831714461523,-0.5114945204907407,0.4834607448292098,-0.4761944882413458,0.5271412268886725,0.0,0.0,0.0,16,0.0,0,1735643777088270664,map,0.9863374680049868,0.0542247953975701,0.0209783566655412,-0.5075758515298744,0.4975118030498813,-0.4811288191991949,0.5131898480151059,0.0,0.0,0.0,17,0.0,0,1735643777088284730,map,1.0129638231551117,-0.2608878779695335,0.2357003953563117,-0.5136757072526542,0.4982146893631113,-0.4607859595008435,0.5249720855514048,0.0,0.0,0.0,121,0.0,0,1735643777088297367,map,1.0037895483808263,0.1991098207528765,0.2406286045080404,0.5100205056702235,-0.4967175302657682,0.5013611631369308,-0.4917191912266077,0.0,0.0,0.0,122,0.0,0,1735643777088310956,map,0.995006822361876,0.1991322913780155,0.1428039321273174,-0.4838714353267924,0.5137986671521544,-0.4904636432989228,0.5111993528061307,0.0,0.0,0.0,124,0.0,0,1735643777088322877,map,0.9888210269400614,-0.0334854600563127,0.2403995568311475,-0.5496388194749345,0.4553359314961447,-0.4450549981947287,0.5408256708003316,0.0,0.0,0.0,125,0.0,0,1735643777088343858,map,0.9877867190999258,-0.0276913132120753,0.1439920430287909,-0.5632282196792595,0.4892484164506833,-0.4344079360007567,0.5046778226720419,0.0,0.0,0.0,126,0.0,0,1735644242188269615,map,0.9663360450759706,0.3269782105440544,0.02488220095223,-0.4899110734941804,0.4938119941802597,-0.4881836843248184,0.527080207208107,0.0,0.0,0.0,0,2.971212859081973e-11,0.939369462126196,0.4501932655052555,0.0185586495515843,1.0,1.43998042510315e-05,-0.0003294373584671,-0.0001461656249264,0.0,0.0,0.0,-0.0003294373584671,0.0077070524166749,0.0033079239916875,0.0,0.0,0.0,-0.0001461656249264,0.0033079239916875,0.001491288873498,0.0,0.0,0.0,0.0,0.0,0.0,0.0,0.0,0.0,0.0,0.0,0.0,0.0,0.0,0.0,0.0,0.0,0.0,0.0,0.0,0.0,0,0,0,1,13,,0
1.300201711,0,1735643777088230371,map,0.981415782341432,-0.2285191054226241,0.0165702391897862,-0.5019818223810157,0.5116251832406954,-0.4900583436495406,0.4960813861579854,0.0,0.0,0.0,1,0.0,0,1735643777088253974,map,0.9720065447723304,-0.2509001258062497,0.1462188717944664,-0.5034498162359912,0.4756117397576748,-0.4907895336041699,0.5286372945992615,0.0,0.0,0.0,16,0.0,0,1735643777088270664,map,0.9836069644094244,0.051420060982751,0.0213767217360968,-0.4938222056081026,0.5212825949829037,-0.4895918756856896,0.4946755307055393,0.0,0.0,0.0,17,0.0,0,1735643777088284730,map,1.0129638231551117,-0.2608878779695335,0.2357003953563117,-0.5136757072526542,0.4982146893631113,-0.4607859595008435,0.5249720855514048,0.0,0.0,0.0,121,0.0,0,1735643777088297367,map,1.0022313688892903,0.1958796290076238,0.2414230608581472,-0.5460752404133273,0.3206904036927779,-0.3944267341538324,0.6658731472072079,0.0,0.0,0.0,122,0.0,0,1735643777088310956,map,0.9937509994836682,0.1966321417932275,0.1432347751702175,-0.4776748202146011,0.5022080838734572,-0.4926080676986571,0.5262614352803126,0.0,0.0,0.0,124,0.0,0,1735643777088322877,map,0.9971230845481608,-0.038983528864675,0.2420339137579089,-0.5208285345225302,0.467356799548546,-0.4804990667395048,0.5286169751392015,0.0,0.0,0.0,125,0.0,0,1735643777088343858,map,0.9938770520859904,-0.0324685742706904,0.1436303622496736,-0.5377328533460668,0.4926331838827514,-0.4597788440051951,0.5067142579157283,0.0,0.0,0.0,126,0.0,0,1735644242188269615,map,0.9702516857187404,0.328039378214517,0.0229949998754791,-0.5045941445266287,0.4961911839047349,-0.4783307756833166,0.5199795451350506,0.0,0.0,0.0,0,1.4185269625599515e-09,0.9397992520786695,0.442226506799407,0.0138009846711216,1.0,1.577259904674609e-05,-0.0003504185455689,-0.0001623075784631,0.0,0.0,0.0,-0.0003504185455689,0.0079816488482305,0.0035643848919442,0.0,0.0,0.0,-0.0001623075784631,0.0035643848919442,0.0016790281161689,0.0,0.0,0.0,0.0,0.0,0.0,0.0,0.0,0.0,0.0,0.0,0.0,0.0,0.0,0.0,0.0,0.0,0.0,0.0,0.0,0.0,0,0,0,1,14,,0
1.400489244,0,1735643777088230371,map,0.981415782341432,-0.2285191054226241,0.0165702391897862,-0.5019818223810157,0.5116251832406954,-0.4900583436495406,0.4960813861579854,0.0,0.0,0.0,1,0.0,0,1735643777088253974,map,0.9720065447723304,-0.2509001258062497,0.1462188717944664,-0.5034498162359912,0.4756117397576748,-0.4907895336041699,0.5286372945992615,0.0,0.0,0.0,16,0.0,0,1735643777088270664,map,0.9798572507376386,0.0511238010463336,0.0227004346313779,-0.5043111696005683,0.4980173005672252,-0.4814670904428816,0.5155952418053402,0.0,0.0,0.0,17,4.6411005138437935e-42,0,1735643777088284730,map,1.0129638231551117,-0.2608878779695335,0.2357003953563117,-0.5136757072526542,0.4982146893631113,-0.4607859595008435,0.5249720855514048,0.0,0.0,0.0,121,0.0,0,1735643777088297367,map,0.9963397336111944,0.1942547612453889,0.2419136771567612,-0.5055047981672071,0.4942771244908539,-0.4949834921358931,0.5051201498138248,0.0,0.0,0.0,122,0.0,0,1735643777088310956,map,0.9892316424176943,0.1951154256619379,0.1441887570792939,-0.4688131212796474,0.511665327088204,-0.5017017934714995,0.5164379544526496,0.0,0.0,0.0,124,0.0,0,1735643777088322877,map,0.9958639333137488,-0.0400787526797744,0.2429375374495747,-0.5194620576551997,0.4696999527651679,-0.4822965877829858,0.526242459748274,0.0,0.0,0.0,125,0.0,0,1735643777088343858,map,0.9922846179467304,-0.0333073962974354,0.1441696526451053,-0.5266812943770618,0.4989426021226771,-0.4721940799062549,0.5006953613144829,0.0,0.0,0.0,126,0.0,0,1735644242188269615,map,0.9645820061489272,0.3250686276823887,0.0252316079866696,-0.4872165895317403,0.4977078398516236,-0.4956600796014738,0.5188718401732274,0.0,0.0,0.0,0,1.1874679330503568e-05,0.9402907831611432,0.4361463624375375,0.0077181000066903,1.0,1.810353171415645e-05,-0.0003688974283546,-0.0001933460496036,0.0,0.0,0.0,-0.0003688974283546,0.0079670931014715,0.00384454666903,0.0,0.0,0.0,-0.0001933460496036,0.00384454666903,0.0020851137101952,0.0,0.0,0.0,0.0,0.0,0.0,0.0,0.0,0.0,0.0,0.0,0.0,0.0,0.0,0.0,0.0,0.0,0.0,0.0,0.0,0.0,0,0,0,1,15,,0
1.498347257,0,1735643777088230371,map,0.9719766634655038,-0.2249269709716219,0.018387908842598,-0.4998113600014293,0.5018431078358655,-0.4839701931812659,0.5139211531385429,0.0,0.0,0.0,1,0.0,0,1735643777088253974,map,0.9720065447723304,-0.2509001258062497,0.1462188717944664,-0.5034498162359912,0.4756117397576748,-0.4907895336041699,0.5286372945992615,0.0,0.0,0.0,16,0.0,0,1735643777088270664,map,0.9790302413258024,0.0505442377342333,0.021585640135734,-0.5096507063530804,0.5043364995617784,-0.4724151681113336,0.5125668362876385,0.0,0.0,0.0,17,3.125192345912777e-26,0,1735643777088284730,map,1.0129638231551117,-0.2608878779695335,0.2357003953563117,-0.5136757072526542,0.4982146893631113,-0.4607859595008435,0.5249720855514048,0.0,0.0,0.0,121,0.0,0,1735643777088297367,map,0.998124777448682,0.1945845709170498,0.2415452647216516,-0.4811969523392762,0.4705240637466476,-0.516511621540083,0.5294075399054751,0.0,0.0,0.0,122,0.0,0,1735643777088310956,map,0.9882850042790418,0.1946449362464815,0.1433537073957615,-0.4899503496491331,0.51424150146539,-0.4844461351511406,0.5107017477808709,0.0,0.0,0.0,124,1.6208291228932392e-34,0,1735643777088322877,map,0.9943582952329096,-0.0413609790676009,0.2424054309274018,-0.5163225415567593,0.4730582052049809,-0.486135123994226,0.5227806507396092,0.0,0.0,0.0,125,0.0,0,1735643777088343858,map,0.9813166599918572,-0.0322371424237601,0.1442252002879392,-0.5248667310534733,0.4856768603502022,-0.4746056793694473,0.5132079023786329,0.0,0.0,0.0,126,0.0,0,1735644242188269615,map,0.9643401194781474,0.3256104347723804,0.0235460113938439,-0.4970599166990879,0.4974073441729291,-0.4862251531899592,0.5187508781480085,0.0,0.0,0.0,0,0.0010428036330267,0.9406807683214308,0.4334565740101585,0.0024400050397162,1.0,1.9253387360689823e-05,-0.0003615760026473,-0.000212137602179,0.0,0.0,0.0,-0.0003615760026473,0.0075776742093905,0.0038172168836273,0.0,0.0,0.0,-0.000212137602179,0.0038172168836273,0.0023726684005139,0.0,0.0,0.0,0.0,0.0,0.0,0.0,0.0,0.0,0.0,0.0,0.0,0.0,0.0,0.0,0.0,0.0,0.0,0.0,0.0,0.0,0,0,0,1,16,,0
1.598795043,0,1735643777088230371,map,0.9747768803063503,-0.2270644960234597,0.0178577233028131,-0.5026707049497899,0.5108047522815459,-0.4802668204850217,0.5057118236437412,0.0,0.0,0.0,1,0.0,0,1735643777088253974,map,0.9720065447723304,-0.2509001258062497,0.1462188717944664,-0.5034498162359912,0.4756117397576748,-0.4907895336041699,0.5286372945992615,0.0,0.0,0.0,16,0.0,0,1735643777088270664,map,0.9767709538285104,0.0508868989055899,0.0228799711041555,-0.5081326019196238,0.4986256883201674,-0.4705059202166093,0.5213423643391685,0.0,0.0,0.0,17,1.2282977460190263e-24,0,1735643777088284730,map,1.0129638231551117,-0.2608878779695335,0.2357003953563117,-0.5136757072526542,0.4982146893631113,-0.4607859595008435,0.5249720855514048,0.0,0.0,0.0,121,0.0,0,1735643777088297367,map,0.9946234746486872,0.193414260482511,0.2427341580508932,0.5165846836776934,-0.495523216005058,0.4890782532033368,-0.498396899301345,0.0,0.0,0.0,122,0.0,0,1735643777088310956,map,0.9882503248126604,0.1948273192711446,0.1444498434138125,-0.478317006499965,0.5052894572470421,-0.4929126117625605,0.5224294812252784,0.0,0.0,0.0,124,1.3842327601695552e-31,0,1735643777088322877,map,0.9930914764488562,-0.0418377308723244,0.2438185800466812,-0.51609576207661,0.4801713664998144,-0.486616806761896,0.5160278156622177,0.0,0.0,0.0,125,0.0,0,1735643777088343858,map,0.988090450271336,-0.0344624589316635,0.1448276562800585,-0.5176310014725728,0.4969911656086475,-0.4843648470348449,0.5004484214965323,0.0,0.0,0.0,126,0.0,0,1735644242188269615,map,0.9605729850005332,0.324673838181151,0.0255975162029244,-0.4893288727984928,0.4933178513028141,-0.4920932150586137,0.5244416264228157,0.0,0.0,0.0,0,0.0009357503149658,0.940836039516592,0.4334468018850804,0.0001138742631039,1.0,1.8506581467751063e-05,-0.0003403311032936,-0.0002054378173904,0.0,0.0,0.0,-0.0003403311032936,0.0071319301955725,0.0035930384138565,0.0,0.0,0.0,-0.0002054378173904,0.0035930384138565,0.0023196738213104,0.0,0.0,0.0,0.0,0.0,0.0,0.0,0.0,0.0,0.0,0.0,0.0,0.0,0.0,0.0,0.0,0.0,0.0,0.0,0.0,0.0,0,0,0,1,17,,0
1.701216827,0,1735643777088230371,map,0.9747768803063503,-0.2270644960234597,0.0178577233028131,-0.5026707049497899,0.5108047522815459,-0.4802668204850217,0.5057118236437412,0.0,0.0,0.0,1,0.0,0,1735643777088253974,map,0.9720065447723304,-0.2509001258062497,0.1462188717944664,-0.5034498162359912,0.4756117397576748,-0.4907895336041699,0.5286372945992615,0.0,0.0,0.0,16,0.0,0,1735643777088270664,map,0.9781151189320084,0.0506125334363017,0.0227852179679777,-0.5128936614295487,0.5018939015203848,-0.4661077994649871,0.5174805532191001,0.0,0.0,0.0,17,3.580991480761901e-23,0,1735643777088284730,map,1.0129638231551117,-0.2608878779695335,0.2357003953563117,-0.5136757072526542,0.4982146893631113,-0.4607859595008435,0.5249720855514048,0.0,0.0,0.0,121,0.0,0,1735643777088297367,map,0.9911114728318756,0.1928073451284245,0.2429247984792355,-0.4949611144410768,0.4981095597206397,-0.5047651408128114,0.5021080703657145,0.0,0.0,0.0,122,0.0,0,1735643777088310956,map,0.9832673710205392,0.1937909723620946,0.145403376920179,-0.4720563379580785,0.5291224657233973,-0.5021984631594593,0.4949635680135237,0.0,0.0,0.0,124,6.824739644941915e-30,0,1735643777088322877,map,0.9815634010703476,-0.0394251346674507,0.2430243270374557,-0.5409648499219971,0.4690714360001645,-0.4602261964457494,0.5249008165193629,0.0,0.0,0.0,125,0.0,0,1735643777088343858,map,0.982289140013499,-0.0337105418914844,0.1457562837628557,-0.525293378087151,0.4778960087084281,-0.4781835311956835,0.5167424719253981,0.0,0.0,0.0,126,0.0,0,1735644242188269615,map,0.9659715636974782,0.3277979172011644,0.0239988117860318,-0.5091411479802802,0.4977762208460869,-0.4794000521163601,0.5130006972942065,0.0,0.0,0.0,0,0.0020516484510153,0.9408701858737624,0.4355316071445363,-0.0008395406668616,1.0,1.7498259605912035e-05,-0.000320213615192,-0.0001945780513076,0.0,0.0,0.0,-0.000320213615192,0.0068096008718616,0.0033596345328148,0.0,0.0,0.0,-0.0001945780513076,0.0033596345328148,0.0022062560539474,0.0,0.0,0.0,0.0,0.0,0.0,0.0,0.0,0.0,0.0,0.0,0.0,0.0,0.0,0.0,0.0,0.0,0.0,0.0,0.0,0.0,0,0,0,1,18,,0
1.799120486,0,1735643777088230371,map,0.9747768803063503,-0.2270644960234597,0.0178577233028131,-0.5026707049497899,0.5108047522815459,-0.4802668204850217,0.5057118236437412,0.0,0.0,0.0,1,0.0,0,1735643777088253974,map,0.9720065447723304,-0.2509001258062497,0.1462188717944664,-0.5034498162359912,0.4756117397576748,-0.4907895336041699,0.5286372945992615,0.0,0.0,0.0,16,0.0,0,1735643777088270664,map,0.9725038566818156,0.0488638504160835,0.0244788840897389,-0.5065218196893881,0.4893541980018278,-0.4751452073760482,0.5274515588981719,0.0,0.0,0.0,17,9.232080825657296e-23,0,1735643777088284730,map,1.0129638231551117,-0.2608878779695335,0.2357003953563117,-0.5136757072526542,0.4982146893631113,-0.4607859595008435,0.5249720855514048,0.0,0.0,0.0,121,0.0,0,1735643777088297367,map,0.9816804509681616,0.1895685445621777,0.2431740080454659,0.4664269766487845,-0.5080766582177506,0.529835124756325,-0.4935369544451632,0.0,0.0,0.0,122,0.0,0,1735643777088310956,map,0.978163760208109,0.1912362438895266,0.1464677510786495,-0.4617677673593332,0.5366146341827747,-0.5119944460399167,0.4864945535493103,0.0,0.0,0.0,124,5.732552672801952e-30,0,1735643777088322877,map,0.97800133840612,-0.0418405336329341,0.244056174911166,-0.5287127721373257,0.4610940869494032,-0.4759996097435472,0.5303578217422192,0.0,0.0,0.0,125,0.0,0,1735643777088343858,map,0.9758823371609112,-0.035437977170823,0.1469310910929404,-0.5338263443447515,0.4801880142108292,-0.4658910183676936,0.5171019861652951,0.0,0.0,0.0,126,0.0,0,1735644242188269615,map,0.9550015992849984,0.3223103938520817,0.0273951550237617,-0.485045328223682,0.4965972800705577,-0.496562140911482,0.5211028796776221,0.0,0.0,0.0,0,0.0007367114303633,0.940674785677201,0.4414424649273904,0.0008388789958376,1.0,1.7264560836714044e-05,-0.0003241499569311,-0.0001902404448149,0.0,0.0,0.0,-0.0003241499569311,0.0070800891410984,0.0033613878613376,0.0,0.0,0.0,-0.0001902404448149,0.0033613878613376,0.0021408449804204,0.0,0.0,0.0,0.0,0.0,0.0,0.0,0.0,0.0,0.0,0.0,0.0,0.0,0.0,0.0,0.0,0.0,0.0,0.0,0.0,0.0,0,0,0,1,19,,0
1.900045053,0,1735643777088230371,map,0.9747768803063503,-0.2270644960234597,0.0178577233028131,-0.5026707049497899,0.5108047522815459,-0.4802668204850217,0.5057118236437412,0.0,0.0,0.0,1,2.5024283096847604e-20,0,1735643777088253974,map,0.9720065447723304,-0.2509001258062497,0.1462188717944664,-0.5034498162359912,0.4756117397576748,-0.4907895336041699,0.5286372945992615,0.0,0.0,0.0,16,8.440574623147678e-36,0,1735643777088270664,map,0.9749002333407092,0.0488366991919882,0.0224786471989898,-0.5145233525034271,0.5002573405611099,-0.4667374940802381,0.5168795068128161,0.0,0.0,0.0,17,3.0787674631937996e-08,0,1735643777088284730,map,1.0129638231551117,-0.2608878779695335,0.2357003953563117,-0.5136757072526542,0.4982146893631113,-0.4607859595008435,0.5249720855514048,0.0,0.0,0.0,121,0.0,0,1735643777088297367,map,0.9873200129328944,0.1906008582031686,0.2435505377583796,-0.4967288885208247,0.3603511863116149,-0.4722662947408959,0.6327495402482591,0.0,0.0,0.0,122,1.7751722056494538e-21,0,1735643777088310956,map,0.9766543822266688,0.1916654705356459,0.1457457967335467,-0.4523346936994774,0.5467030001035194,-0.5224818484191597,0.4727809985882571,0.0,0.0,0.0,124,1.4211447990630788e-11,0,1735643777088322877,map,0.977514296055163,-0.0416642827440416,0.2435456963431065,-0.5333347813882884,0.4719793386325924,-0.4677443124332991,0.5234546523355655,0.0,0.0,0.0,125,7.027890996679637e-35,0,1735643777088343858,map,0.9758823371609112,-0.035437977170823,0.1469310910929404,-0.5338263443447515,0.4801880142108292,-0.4658910183676936,0.5171019861652951,0.0,0.0,0.0,126,3.7052625062097953e-22,0,1735644242188269615,map,0.958213649503976,0.3251984109886814,0.0251932984960014,-0.4918536986573966,0.5020158294790684,-0.4902645318336734,0.5154616716065235,0.0,0.0,0.0,0,0.0756182819604873,0.9405600127069405,0.4541336809802084,-0.0001272468621205,1.0,1.6651616654224632e-05,-0.0003356180217739,-0.0001786216050212,0.0,0.0,0.0,-0.0003356180217739,0.0097863570171303,0.002960353540317,0.0,0.0,0.0,-0.0001786216050212,0.002960353540317,0.0020515373156943,0.0,0.0,0.0,0.0,0.0,0.0,0.0,0.0,0.0,0.0,0.0,0.0,0.0,0.0,0.0,0.0,0.0,0.0,0.0,0.0,0.0,0,0,0,1,20,,0
2.000572319,0,1735643777088230371,map,0.9747768803063503,-0.2270644960234597,0.0178577233028131,-0.5026707049497899,0.5108047522815459,-0.4802668204850217,0.5057118236437412,0.0,0.0,0.0,1,2.2779640587028416e-13,0,1735643777088253974,map,0.9720065447723304,-0.2509001258062497,0.1462188717944664,-0.5034498162359912,0.4756117397576748,-0.4907895336041699,0.5286372945992615,0.0,0.0,0.0,16,4.470886535279999e-24,0,1735643777088270664,map,0.9692781637171984,0.0507239849896744,0.0239454930161932,-0.5093642956070106,0.4901740168504617,-0.4721441560853004,0.526647266621556,0.0,0.0,0.0,17,1.0082797416544054e-05,0,1735643777088284730,map,1.0129638231551117,-0.2608878779695335,0.2357003953563117,-0.5136757072526542,0.4982146893631113,-0.4607859595008435,0.5249720855514048,0.0,0.0,0.0,121,2.767527650334597e-34,0,1735643777088297367,map,0.9881502600659356,0.1911564203808545,0.2437481685806217,-0.4558910906727189,0.4953910487335914,-0.5400219043861126,0.5051013413792002,0.0,0.0,0.0,122,1.161411475559e-16,0,1735643777088310956,map,0.9773892267064316,0.1922634463270761,0.1454063866217043,-0.4553812264072406,0.5553085105006927,-0.5189092606198913,0.4636739975934137,0.0,0.0,0.0,124,1.1101707997340782e-08,0,1735643777088322877,map,0.9797981313443044,-0.0427350057178639,0.2439494027639241,-0.5201292659735659,0.4700429698491001,-0.4818919781020265,0.5256474813162839,0.0,0.0,0.0,125,3.042273388902008e-25,0,1735643777088343858,map,0.9758823371609112,-0.035437977170823,0.1469310910929404,-0.5338263443447515,0.4801880142108292,-0.4658910183676936,0.5171019861652951,0.0,0.0,0.0,126,1.821812015481705e-15,0,1735644242188269615,map,0.9619830516885212,0.3281246078500736,0.0233489473989421,-0.5104050840270888,0.505781902999811,-0.4810413660903156,0.5022653889201931,0.0,0.0,0.0,0,0.1680179685354232,0.9403653141128744,0.4676928293905406,-7.870032658196022e-05,1.0,1.6616833378458668e-05,-0.0003724351538577,-0.0001703048531502,0.0,0.0,0.0,-0.0003724351538577,0.0129973501285828,0.002832549317715,0.0,0.0,0.0,-0.0001703048531502,0.002832549317715,0.0019538921978882,0.0,0.0,0.0,0.0,0.0,0.0,0.0,0.0,0.0,0.0,0.0,0.0,0.0,0.0,0.0,0.0,0.0,0.0,0.0,0.0,0.0,0,0,0,1,21,,0
2.100664343,0,1735643777088230371,map,0.9747768803063503,-0.2270644960234597,0.0178577233028131,-0.5026707049497899,0.5108047522815459,-0.4802668204850217,0.5057118236437412,0.0,0.0,0.0,1,6.247922101562664e-13,0,1735643777088253974,map,0.9720065447723304,-0.2509001258062497,0.1462188717944664,-0.5034498162359912,0.4756117397576748,-0.4907895336041699,0.5286372945992615,0.0,0.0,0.0,16,4.4121660960780635e-24,0,1735643777088270664,map,0.9696437767195888,0.0466847023030041,0.0239002805091918,-0.5129827034561517,0.4980550671551614,-0.4657612886744093,0.5213984253986955,0.0,0.0,0.0,17,1.0118184036400636e-05,0,1735643777088284730,map,1.0129638231551117,-0.2608878779695335,0.2357003953563117,-0.5136757072526542,0.4982146893631113,-0.4607859595008435,0.5249720855514048,0.0,0.0,0.0,121,9.481523658408147e-35,0,1735643777088297367,map,0.9845649553062852,0.1868947479477611,0.2441915583665296,-0.4458151790872598,0.4965012783619697,-0.5491587913202213,0.5031500060578735,0.0,0.0,0.0,122,1.6252408279494935e-17,0,1735643777088310956,map,0.9737563502836516,0.1876787506144566,0.1465207107587079,-0.6022244237591241,0.4509037577712571,-0.3660297889576849,0.5477533553081562,0.0,0.0,0.0,124,3.734553111200967e-09,0,1735643777088322877,map,0.9797981313443044,-0.0427350057178639,0.2439494027639241,-0.5201292659735659,0.4700429698491001,-0.4818919781020265,0.5256474813162839,0.0,0.0,0.0,125,6.59026911062552e-26,0,1735643777088343858,map,0.9743221239605288,-0.0397679831736253,0.1466890359573051,-0.5315544513689192,0.4883698003110274,-0.472761757130008,0.5054118363962223,0.0,0.0,0.0,126,8.239150887831255e-16,0,1735644242188269615,map,0.9600851521696508,0.3244683305779204,0.0242995704326296,-0.5029117603678088,0.5122208790566374,-0.4878814780189185,0.4966701075646418,0.0,0.0,0.0,0,0.1395421624183654,0.940070007408932,0.4779179300213169,0.002184314764351,1.0,1.769284980760391e-05,-0.0004189166392876,-0.0001765976775386,0.0,0.0,0.0,-0.0004189166392876,0.014602167827474,0.0031897277737095,0.0,0.0,0.0,-0.0001765976775386,0.0031897277737095,0.0019726248995036,0.0,0.0,0.0,0.0,0.0,0.0,0.0,0.0,0.0,0.0,0.0,0.0,0.0,0.0,0.0,0.0,0.0,0.0,0.0,0.0,0.0,0,0,0,1,22,,0
2.201201589,0,1735643777088230371,map,0.9747768803063503,-0.2270644960234597,0.0178577233028131,-0.5026707049497899,0.5108047522815459,-0.4802668204850217,0.5057118236437412,0.0,0.0,0.0,1,3.417551398127161e-12,0,1735643777088253974,map,0.9720065447723304,-0.2509001258062497,0.1462188717944664,-0.5034498162359912,0.4756117397576748,-0.4907895336041699,0.5286372945992615,0.0,0.0,0.0,16,1.8775013237650022e-22,0,1735643777088270664,map,0.9677324764816913,0.047265902950319,0.0244835756583551,-0.5029226151269393,0.4918572374280451,-0.4769489382098884,0.5269392863736697,0.0,0.0,0.0,17,1.7800028217607178e-05,0,1735643777088284730,map,1.0129638231551117,-0.2608878779695335,0.2357003953563117,-0.5136757072526542,0.4982146893631113,-0.4607859595008435,0.5249720855514048,0.0,0.0,0.0,121,2.05360670411218e-32,0,1735643777088297367,map,0.9884521093869189,0.1863034193018604,0.2450364603528951,-0.4550404345049236,0.4932027373334611,-0.5410356687160489,0.5069217573051381,0.0,0.0,0.0,122,8.72688384086551e-17,0,1735643777088310956,map,0.9738541459366729,0.1877126080411217,0.1463621545687824,-0.4436414409007647,0.5671876659039577,-0.527073239357055,0.4513028073428907,0.0,0.0,0.0,124,1.0296558272671064e-08,0,1735643777088322877,map,0.9797981313443044,-0.0427350057178639,0.2439494027639241,-0.5201292659735659,0.4700429698491001,-0.4818919781020265,0.5256474813162839,0.0,0.0,0.0,125,2.3078445270907315e-24,0,1735643777088343858,map,0.9698765070629156,-0.0379503794070089,0.1469293199598427,-0.5232002993354898,0.4868516736341309,-0.4753230029737849,0.5131324755839205,0.0,0.0,0.0,126,7.925389131861055e-15,0,1735644242188269615,map,0.9592099107888704,0.3240636637092958,0.0246266990412105,-0.5009036132469937,0.5066798250565251,-0.488144688056067,0.5040693291993078,0.0,0.0,0.0,0,0.1391963362693786,0.9400391676082012,0.4839971980452499,0.0013595914798231,1.0,1.6944519520943456e-05,-0.0004048275074799,-0.000168359963007,0.0,0.0,0.0,-0.0004048275074799,0.0147803559589599,0.0029407422518323,0.0,0.0,0.0,-0.000168359963007,0.0029407422518323,0.0019018223064381,0.0,0.0,0.0,0.0,0.0,0.0,0.0,0.0,0.0,0.0,0.0,0.0,0.0,0.0,0.0,0.0,0.0,0.0,0.0,0.0,0.0,0,0,0,1,23,,0
2.299627636,0,1735643777088230371,map,0.9747768803063503,-0.2270644960234597,0.0178577233028131,-0.5026707049497899,0.5108047522815459,-0.4802668204850217,0.5057118236437412,0.0,0.0,0.0,1,3.4327606729389615e-11,0,1735643777088253974,map,0.9720065447723304,-0.2509001258062497,0.1462188717944664,-0.5034498162359912,0.4756117397576748,-0.4907895336041699,0.5286372945992615,0.0,0.0,0.0,16,4.1490872877534684e-19,0,1735643777088270664,map,0.9663254620325824,0.0485869774726,0.0245953906495857,-0.5070415346299819,0.4939562614319801,-0.4672131667685159,0.5297432875934796,0.0,0.0,0.0,17,4.94803607580252e-05,0,1735643777088284730,map,1.0129638231551117,-0.2608878779695335,0.2357003953563117,-0.5136757072526542,0.4982146893631113,-0.4607859595008435,0.5249720855514048,0.0,0.0,0.0,121,7.275203446410693e-27,0,1735643777088297367,map,0.9903504049483046,0.1860440496739605,0.244834693150511,-0.4883895782464688,0.4418435430714844,-0.5109334577065556,0.5524462915997321,0.0,0.0,0.0,122,9.661902896675181e-14,0,1735643777088310956,map,0.9762600058458925,0.1879000149251141,0.145636390902428,-0.4414380287793681,0.5667479429338309,-0.5286620362632622,0.4521567066202135,0.0,0.0,0.0,124,2.778492103061581e-07,0,1735643777088322877,map,0.9759365973190486,-0.0466776330365239,0.2437905703974004,-0.5254083683199164,0.4827158056205718,-0.4752655679884306,0.5148340872437628,0.0,0.0,0.0,125,3.8788941690357913e-20,0,1735643777088343858,map,0.9695494958991404,-0.0372593922053516,0.1463090101351146,-0.525489163524658,0.4867929199517909,-0.4735206131325702,0.5125153861510092,0.0,0.0,0.0,126,1.837771037779823e-12,0,1735644242188269615,map,0.9598208646157548,0.3251286039530057,0.0239549005354225,-0.5058211221616928,0.5035411305936704,-0.4830276751615453,0.507223409557924,0.0,0.0,0.0,0,0.167105346918106,0.9402177534411672,0.4873970981494993,-0.0020380496914858,1.0,1.6972034568168856e-05,-0.0003739946928495,-0.0001753006878584,0.0,0.0,0.0,-0.0003739946928495,0.0144303721705373,0.0025525235915043,0.0,0.0,0.0,-0.0001753006878584,0.0025525235915043,0.002088090917503,0.0,0.0,0.0,0.0,0.0,0.0,0.0,0.0,0.0,0.0,0.0,0.0,0.0,0.0,0.0,0.0,0.0,0.0,0.0,0.0,0.0,0,0,0,1,24,,0
2.397896807,0,1735643777088230371,map,0.9747768803063503,-0.2270644960234597,0.0178577233028131,-0.5026707049497899,0.5108047522815459,-0.4802668204850217,0.5057118236437412,0.0,0.0,0.0,1,2.260882280002985e-11,0,1735643777088253974,map,0.9720065447723304,-0.2509001258062497,0.1462188717944664,-0.5034498162359912,0.4756117397576748,-0.4907895336041699,0.5286372945992615,0.0,0.0,0.0,16,8.389378475871267e-19,0,1735643777088270664,map,0.9677871536797604,0.0481021541123075,0.0229985313701575,-0.5057375761711314,0.4892528808259344,-0.4720474338743215,0.5310671735522179,0.0,0.0,0.0,17,4.499914211919531e-05,0,1735643777088284730,map,1.0129638231551117,-0.2608878779695335,0.2357003953563117,-0.5136757072526542,0.4982146893631113,-0.4607859595008435,0.5249720855514048,0.0,0.0,0.0,121,4.9800721153868427e-26,0,1735643777088297367,map,0.9861008547345028,0.1852549805194666,0.2432567497075857,-0.4934191897150443,0.4929904187824249,-0.5069603225176568,0.5064476099286795,0.0,0.0,0.0,122,5.236544162699752e-13,0,1735643777088310956,map,0.9771020963704948,0.1869140444153978,0.1446906406201704,-0.549192668572478,0.4732167379856732,-0.4178972221383163,0.5475538726057173,0.0,0.0,0.0,124,4.952447625328205e-07,0,1735643777088322877,map,0.9759365973190486,-0.0466776330365239,0.2437905703974004,-0.5254083683199164,0.4827158056205718,-0.4752655679884306,0.5148340872437628,0.0,0.0,0.0,125,2.4487619624533137e-19,0,1735643777088343858,map,0.9695494958991404,-0.0372593922053516,0.1463090101351146,-0.525489163524658,0.4867929199517909,-0.4735206131325702,0.5125153861510092,0.0,0.0,0.0,126,3.4888906000341002e-12,0,1735644242188269615,map,0.960785161066966,0.3250993860781515,0.0226976903089052,-0.5046968842927575,0.5104754421784622,-0.4850713223560894,0.4994013317419179,0.0,0.0,0.0,0,0.1643919944763183,0.9404047143371436,0.4876559210908061,-0.0048962177491116,1.0,1.7132058224424944e-05,-0.0003578735506794,-0.0001811134362058,0.0,0.0,0.0,-0.0003578735506794,0.0138547650272746,0.002432668420722,0.0,0.0,0.0,-0.0001811134362058,0.002432668420722,0.002200626272298,0.0,0.0,0.0,0.0,0.0,0.0,0.0,0.0,0.0,0.0,0.0,0.0,0.0,0.0,0.0,0.0,0.0,0.0,0.0,0.0,0.0,0,0,0,1,25,,0
2.49991543,0,1735643777088230371,map,0.9747768803063503,-0.2270644960234597,0.0178577233028131,-0.5026707049497899,0.5108047522815459,-0.4802668204850217,0.5057118236437412,0.0,0.0,0.0,1,9.780165392825335e-12,0,1735643777088253974,map,0.9720065447723304,-0.2509001258062497,0.1462188717944664,-0.5034498162359912,0.4756117397576748,-0.4907895336041699,0.5286372945992615,0.0,0.0,0.0,16,1.6139396227569738e-19,0,1735643777088270664,map,0.9631754969582964,0.0457660273006573,0.0242312697872569,-0.5040130979545201,0.4910910469435569,-0.4732134905507613,0.5299711058755311,0.0,0.0,0.0,17,2.6286530555807985e-05,0,1735643777088284730,map,1.0129638231551117,-0.2608878779695335,0.2357003953563117,-0.5136757072526542,0.4982146893631113,-0.4607859595008435,0.5249720855514048,0.0,0.0,0.0,121,4.7572961779712755e-27,0,1735643777088297367,map,0.9858871016340018,0.1812789721172016,0.2442129098852536,-0.5021663860989014,0.4661188102486325,-0.5018753990436632,0.5279045929327881,0.0,0.0,0.0,122,1.157526900935971e-13,0,1735643777088310956,map,0.9731424449042136,0.1834375641907312,0.1452609022618742,-0.5339924995834436,0.4906920050739954,-0.4349741148270613,0.5337329725391742,0.0,0.0,0.0,124,2.1231548430478145e-07,0,1735643777088322877,map,0.974305961725376,-0.0518300281904028,0.2437669433438871,-0.5213180401188625,0.484725380960805,-0.4789924579670407,0.513648743120942,0.0,0.0,0.0,125,2.895631037242543e-20,0,1735643777088343858,map,0.9695494958991404,-0.0372593922053516,0.1463090101351146,-0.525489163524658,0.4867929199517909,-0.4735206131325702,0.5125153861510092,0.0,0.0,0.0,126,1.2027994702665246e-12,0,1735644242188269615,map,0.955693058946572,0.3210863539718958,0.0239390836078593,-0.5026311555557768,0.5021573856062349,-0.4840510141259095,0.5107783249800787,0.0,0.0,0.0,0,0.1360164284706115,0.9405324685514318,0.4848951900893568,-0.0062272941737899,1.0,1.6881161389810997e-05,-0.0003529265588444,-0.0001783988003831,0.0,0.0,0.0,-0.0003529265588444,0.0135124303408615,0.0024309728494669,0.0,0.0,0.0,-0.0001783988003831,0.0024309728494669,0.0021602809114949,0.0,0.0,0.0,0.0,0.0,0.0,0.0,0.0,0.0,0.0,0.0,0.0,0.0,0.0,0.0,0.0,0.0,0.0,0.0,0.0,0.0,0,0,0,1,26,,0
