%time,field.boxes0.header.seq,field.boxes0.header.stamp,field.boxes0.header.frame_id,field.boxes0.pose.position.x,field.boxes0.pose.position.y,field.boxes0.pose.position.z,field.boxes0.pose.orientation.x,field.boxes0.pose.orientation.y,field.boxes0.pose.orientation.z,field.boxes0.pose.orientation.w,field.boxes0.scale.x,field.boxes0.scale.y,field.boxes0.scale.z,field.boxes0.id,field.boxes0.pdf,field.boxes1.header.seq,field.boxes1.header.stamp,field.boxes1.header.frame_id,field.boxes1.pose.position.x,field.boxes1.pose.position.y,field.boxes1.pose.position.z,field.boxes1.pose.orientation.x,field.boxes1.pose.orientation.y,field.boxes1.pose.orientation.z,field.boxes1.pose.orientation.w,field.boxes1.scale.x,field.boxes1.scale.y,field.boxes1.scale.z,field.boxes1.id,field.boxes1.pdf,field.boxes2.header.seq,field.boxes2.header.stamp,field.boxes2.header.frame_id,field.boxes2.pose.position.x,field.boxes2.pose.position.y,field.boxes2.pose.position.z,field.boxes2.pose.orientation.x,field.boxes2.pose.orientation.y,field.boxes2.pose.orientation.z,field.boxes2.pose.orientation.w,field.boxes2.scale.x,field.boxes2.scale.y,field.boxes2.scale.z,field.boxes2.id,field.boxes2.pdf,field.boxes3.header.seq,field.boxes3.header.stamp,field.boxes3.header.frame_id,field.boxes3.pose.position.x,field.boxes3.pose.position.y,field.boxes3.pose.position.z,field.boxes3.pose.orientation.x,field.boxes3.pose.orientation.y,field.boxes3.pose.orientation.z,field.boxes3.pose.orientation.w,field.boxes3.scale.x,field.boxes3.scale.y,field.boxes3.scale.z,field.boxes3.id,field.boxes3.pdf,field.boxes4.header.seq,field.boxes4.header.stamp,field.boxes4.header.frame_id,field.boxes4.pose.position.x,field.boxes4.pose.position.y,field.boxes4.pose.position.z,field.boxes4.pose.orientation.x,field.boxes4.pose.orientation.y,field.boxes4.pose.orientation.z,field.boxes4.pose.orientation.w,field.boxes4.scale.x,field.boxes4.scale.y,field.boxes4.scale.z,field.boxes4.id,field.boxes4.pdf,field.boxes5.header.seq,field.boxes5.header.stamp,field.boxes5.header.frame_id,field.boxes5.pose.position.x,field.boxes5.pose.position.y,field.boxes5.pose.position.z,field.boxes5.pose.orientation.x,field.boxes5.pose.orientation.y,field.boxes5.pose.orientation.z,field.boxes5.pose.orientation.w,field.boxes5.scale.x,field.boxes5.scale.y,field.boxes5.scale.z,field.boxes5.id,field.boxes5.pdf,field.boxes6.header.seq,field.boxes6.header.stamp,field.boxes6.header.frame_id,field.boxes6.pose.position.x,field.boxes6.pose.position.y,field.boxes6.pose.position.z,field.boxes6.pose.orientation.x,field.boxes6.pose.orientation.y,field.boxes6.pose.orientation.z,field.boxes6.pose.orientation.w,field.boxes6.scale.x,field.boxes6.scale.y,field.boxes6.scale.z,field.boxes6.id,field.boxes6.pdf,field.boxes7.header.seq,field.boxes7.header.stamp,field.boxes7.header.frame_id,field.boxes7.pose.position.x,field.boxes7.pose.position.y,field.boxes7.pose.position.z,field.boxes7.pose.orientation.x,field.boxes7.pose.orientation.y,field.boxes7.pose.orientation.z,field.boxes7.pose.orientation.w,field.boxes7.scale.x,field.boxes7.scale.y,field.boxes7.scale.z,field.boxes7.id,field.boxes7.pdf,field.boxes8.header.seq,field.boxes8.header.stamp,field.boxes8.header.frame_id,field.boxes8.pose.position.x,field.boxes8.pose.position.y,field.boxes8.pose.position.z,field.boxes8.pose.orientation.x,field.boxes8.pose.orientation.y,field.boxes8.pose.orientation.z,field.boxes8.pose.orientation.w,field.boxes8.scale.x,field.boxes8.scale.y,field.boxes8.scale.z,field.boxes8.id,field.boxes8.pdf,field.pose.pose.position.x,field.pose.pose.position.y,field.pose.pose.position.z,field.pose.pose.orientation.w,field.pose.covariance0,field.pose.covariance1,field.pose.covariance2,field.pose.covariance3,field.pose.covariance4,field.pose.covariance5,field.pose.covariance6,field.pose.covariance7,field.pose.covariance8,field.pose.covariance9,field.pose.covariance10,field.pose.covariance11,field.pose.covariance12,field.pose.covariance13,field.pose.covariance14,field.pose.covariance15,field.pose.covariance16,field.pose.covariance17,field.pose.covariance18,field.pose.covariance19,field.pose.covariance20,field.pose.covariance21,field.pose.covariance22,field.pose.covariance23,field.pose.covariance24,field.pose.covariance25,field.pose.covariance26,field.pose.covariance27,field.pose.covariance28,field.pose.covariance29,field.pose.covariance30,field.pose.covariance31,field.pose.covariance32,field.pose.covariance33,field.pose.covariance34,field.pose.covariance35,field.buttons0,field.buttons1,field.buttons2,field.buttons3,intersection_length,vacuum,desired_box
0.0,0,1735643777088230371,map,0.9940326411304,-0.2255381509543241,0.0170301748345241,-0.4809639114617698,0.5241359979710587,-0.5047495651308571,0.4890634396502029,0.0,0.0,0.0,1,0.1111111119389534,0,1735643777088253974,map,0.9733251472541928,-0.2472437249065575,0.1487980720993902,-0.4949348077547013,0.4753142913215616,-0.4938005665152771,0.5341131537862452,0.0,0.0,0.0,16,0.1111111119389534,0,1735643777088270664,map,0.9946417429025656,0.0548889725509919,0.0225356909796319,-0.5113921011072198,0.5036000668375307,-0.4835117833404526,0.5010802799724935,0.0,0.0,0.0,17,0.1111111119389534,0,1735643777088284730,map,1.0110923825973976,-0.2607911921241883,0.2361144920449751,0.2890259574846098,-0.6099800448255638,0.6644802902811106,-0.3207090342391977,0.0,0.0,0.0,121,0.1111111119389534,0,1735643777088297367,map,1.022262785626017,0.2047662342581003,0.2415440245670354,-0.5103332179114435,0.4687511595726821,-0.4925462639889429,0.526526860593029,0.0,0.0,0.0,122,0.1111111119389534,0,1735643777088310956,map,1.006240098604842,0.2018918354499659,0.1439010252877841,-0.7107518763498668,0.3606119616636006,-0.2502759098990858,0.549684229621387,0.0,0.0,0.0,124,0.1111111119389534,0,1735643777088322877,map,1.0039896666250931,-0.0309570005171763,0.2417201180355201,-0.510918149007212,0.4862428742294385,-0.4880050427208821,0.514180503865256,0.0,0.0,0.0,125,0.1111111119389534,0,1735643777088343858,map,1.00261909680142,-0.0247986578301964,0.1447898140726273,0.5131793082005099,-0.5078075202605048,0.4877466492384415,-0.4907970315297307,0.0,0.0,0.0,126,0.1111111119389534,0,1735644242188269615,map,0.9826614040456988,0.3323061851404377,0.0230829499007383,-0.5055393853810344,0.498363549941827,-0.4824049141466466,0.5131756041796145,0.0,0.0,0.0,0,0.1111111119389534,0.9367632488478048,0.3773220995818076,0.0730661029241709,1.0,0.0,0.0,0.0,0.0,0.0,0.0,0.0,0.0,0.0,0.0,0.0,0.0,0.0,0.0,0.0,0.0,0.0,0.0,0.0,0.0,0.0,0.0,0.0,0.0,0.0,0.0,0.0,0.0,0.0,0.0,0.0,0.0,0.0,0.0,0.0,0.0,0,0,0,1,1,,0
0.101126172,0,1735643777088230371,map,0.9842224858077276,-0.2215541931797754,0.020585586693249,-0.492389120295915,0.493135095923106,-0.500496836329826,0.5136863325094017,0.0,0.0,0.0,1,0.0,0,1735643777088253974,map,0.9880763061953636,-0.2513787551926133,0.147324837224847,-0.5113661129903618,0.5131020904766619,-0.473930246620403,0.5006206793291025,0.0,0.0,0.0,16,0.0,0,1735643777088270664,map,0.9805234689875284,0.0536892134486747,0.0270793293319092,-0.4690805090614482,0.4994896589736956,-0.5152473392429048,0.5147754228788521,0.0,0.0,0.0,17,0.0,0,1735643777088284730,map,1.0141274008098522,-0.2610007328264315,0.2363201916062417,-0.2969338027472075,0.6551966804180744,-0.6239878346380121,0.3052651453719914,0.0,0.0,0.0,121,0.0,0,1735643777088297367,map,1.0254800236388737,0.2064699303640189,0.241749151526267,-0.509771606962274,0.4960503904146643,-0.4917416557265302,0.5022519914623446,0.0,0.0,0.0,122,0.0,0,1735643777088310956,map,1.0100412520772897,0.2035971928772426,0.1437187964799529,-0.692845468572186,0.3688142718242793,-0.264503122580686,0.5603385474182383,0.0,0.0,0.0,124,0.0,0,1735643777088322877,map,1.0068016088829976,-0.0307107174075142,0.2417716593885109,-0.5082042553196527,0.4993954652942457,-0.4908154412949502,0.5014307596318603,0.0,0.0,0.0,125,0.0,0,1735643777088343858,map,1.0010317083248856,-0.0246635167740469,0.1452049644738093,-0.5324610556795485,0.4667281963101498,-0.4662753743929031,0.530318102829286,0.0,0.0,0.0,126,0.0,0,1735644242188269615,map,0.9727226022760416,0.3269396724628604,0.0269437778983896,-0.4924175224967643,0.4956356695417767,-0.4916106477494525,0.5197973043748759,0.0,0.0,0.0,0,0.0,0.9367596287638514,0.3795459550004953,0.0726495327237173,1.0,1.3105007830335922e-11,-8.050543316079386e-09,1.50801909816541e-09,0.0,0.0,0.0,-8.050543316079386e-09,4.945532923226735e-06,-9.26391897542606e-07,0.0,0.0,0.0,1.50801909816541e-09,-9.26391897542606e-07,1.7353073190596666e-07,0.0,0.0,0.0,0.0,0.0,0.0,0.0,0.0,0.0,0.0,0.0,0.0,0.0,0.0,0.0,0.0,0.0,0.0,0.0,0.0,0.0,0,0,0,1,2,,0
0.198530463,0,1735643777088230371,map,0.987109098483272,-0.2214676179127431,0.019321809955928,-0.4947666846776717,0.5135345824599595,-0.4906454681018389,0.5007546155372583,0.0,0.0,0.0,1,0.0,0,1735643777088253974,map,0.983107060709496,-0.2485764695300643,0.1477293970989075,-0.501744987226845,0.4915206095916276,-0.4921039573510231,0.514288978395289,0.0,0.0,0.0,16,0.0,0,1735643777088270664,map,0.980474783693037,0.0545505684980195,0.0269315433373517,0.47841190014379,-0.5088538684472844,0.5157387242728196,-0.4961888376943664,0.0,0.0,0.0,17,0.0,0,1735643777088284730,map,1.0143660721646182,-0.2607107229191987,0.2359962075364823,-0.4995897411337144,0.5094191423859092,-0.4791315784239902,0.5112095054688328,0.0,0.0,0.0,121,0.0,0,1735643777088297367,map,1.0129295089267312,0.2025867862042158,0.2408861068586228,-0.5084288783734322,0.4925610894515351,-0.4919833217869275,0.5067899563702413,0.0,0.0,0.0,122,0.0,0,1735643777088310956,map,1.0085359775216194,0.2038398638004049,0.1432162966348883,-0.4884514259927914,0.5049357839562459,-0.4799994373515323,0.5254099339261793,0.0,0.0,0.0,124,0.0,0,1735643777088322877,map,0.9930678116318892,-0.0296680585998095,0.2410450871813506,-0.4614330101487028,0.5573553744182314,-0.5275399384812756,0.445124900516015,0.0,0.0,0.0,125,0.0,0,1735643777088343858,map,0.9924557542427536,-0.023727390784805,0.1455354852594213,0.5046618633832163,-0.4987326843627183,0.4971938457993013,-0.4993800085047832,0.0,0.0,0.0,126,0.0,0,1735644242188269615,map,0.9813709129608744,0.3316606305876802,0.023620984793425,-0.4980455935310079,0.4907505219270075,-0.4860349553252746,0.5242943202006615,0.0,0.0,0.0,0,0.0,0.9367181651585706,0.377277599147164,0.0737515281622609,1.0,3.4471977976675e-09,1.8274139460091327e-07,-9.038006170480484e-08,0.0,0.0,0.0,1.8274139460091327e-07,1.3587898503502764e-05,-5.617030205091295e-06,0.0,0.0,0.0,-9.038006170480484e-08,-5.617030205091295e-06,2.5444750477457542e-06,0.0,0.0,0.0,0.0,0.0,0.0,0.0,0.0,0.0,0.0,0.0,0.0,0.0,0.0,0.0,0.0,0.0,0.0,0.0,0.0,0.0,0,0,0,1,3,,0
0.300259102,0,1735643777088230371,map,0.982543730259247,-0.221180173464327,0.0210501785385488,-0.5011741862194772,0.495186695334915,-0.4817757808616317,0.521063018075257,0.0,0.0,0.0,1,0.0,0,1735643777088253974,map,0.9758176511173252,-0.2469983450892267,0.1484161722061594,-0.5218545761369437,0.4772927209900059,-0.4712067964959006,0.5270897597098216,0.0,0.0,0.0,16,0.0,0,1735643777088270664,map,0.9883557783396636,0.0560409097749401,0.0246228156464063,-0.4951210994715796,0.5028119564559127,-0.4948144968992117,0.5071428269840869,0.0,0.0,0.0,17,0.0,0,1735643777088284730,map,1.0172990256559902,-0.2613324002806418,0.2355654761002406,-0.4889577475343203,0.4768608420728758,-0.5047482232022107,0.5279709173789056,0.0,0.0,0.0,121,0.0,0,1735643777088297367,map,1.0089874497098088,0.2014335818790012,0.240433935853044,0.5150602190063724,-0.5141775872183642,0.4952124256779497,-0.4744460275453574,0.0,0.0,0.0,122,0.0,0,1735643777088310956,map,1.003363688099562,0.2020647017065636,0.1438340381144105,-0.4638420919178417,0.5017398647530326,-0.5069768456346153,0.5254351528716595,0.0,0.0,0.0,124,0.0,0,1735643777088322877,map,1.0025222996231604,-0.0295111065079482,0.2410802437003248,-0.5402963702961212,0.546185650362961,-0.4533458578848189,0.4519276498745166,0.0,0.0,0.0,125,0.0,0,1735643777088343858,map,0.9963560248394152,-0.023381568526149,0.145147507039323,-0.5261250567642107,0.5961341590735165,-0.463239652190287,0.3914403066486502,0.0,0.0,0.0,126,0.0,0,1735644242188269615,map,0.978683131238883,0.3301815473193187,0.0245542397972077,-0.4938162099398531,0.4979107181540099,-0.492467030664137,0.5154674492699274,0.0,0.0,0.0,0,0.3337603211402893,0.9379916394443816,0.3633566743400994,0.0576039756940091,1.0,4.867795668214476e-06,-5.304676328356884e-05,-6.175826358759098e-05,0.0,0.0,0.0,-5.304676328356884e-05,0.0005915673663294,0.0006701538185321,0.0,0.0,0.0,-6.175826358759098e-05,0.0006701538185321,0.0007841387084306,0.0,0.0,0.0,0.0,0.0,0.0,0.0,0.0,0.0,0.0,0.0,0.0,0.0,0.0,0.0,0.0,0.0,0.0,0.0,0.0,0.0,0,0,0,1,4,,0
0.398172857,0,1735643777088230371,map,0.9891482832555762,-0.2224698318871554,0.0184598738755482,-0.4988230781239066,0.5017852962739161,-0.4960091377407344,0.503350760853684,0.0,0.0,0.0,1,0.0,0,1735643777088253974,map,0.9857920750632084,-0.2497614212237376,0.1469120760759452,-0.5016381958485056,0.4882152880004543,-0.4826470752773853,0.526361808791895,0.0,0.0,0.0,16,0.0,0,1735643777088270664,map,0.9878473841547182,0.0550817548788487,0.0244186264626259,0.4707353547938713,-0.514862223155687,0.5171339440503083,-0.495880631629472,0.0,0.0,0.0,17,0.0,0,1735643777088284730,map,1.0162635238884636,-0.2625685003100098,0.2357730533503499,-0.5029599920933092,0.5036402337587971,-0.4750134754451936,0.5174359471841524,0.0,0.0,0.0,121,0.0,0,1735643777088297367,map,1.0213663006851743,0.2046204229227602,0.2410791259053064,-0.5296491794216996,0.4750049342200365,-0.4743322443875425,0.5185084195447703,0.0,0.0,0.0,122,0.0,0,1735643777088310956,map,1.0060030965156688,0.2022677002901342,0.1433846996074901,-0.4803503906080125,0.5003427470224289,-0.4915518237660429,0.5265903932821566,0.0,0.0,0.0,124,0.0,0,1735643777088322877,map,1.0063781339032951,-0.0309942838820136,0.2410691878055391,-0.5093510226047074,0.4852244548030704,-0.4899961250654885,0.5148034203979301,0.0,0.0,0.0,125,0.0,0,1735643777088343858,map,1.007799697752888,-0.0249432744764801,0.1431704740222588,0.5614263951693734,-0.5373292711183864,0.4369398326857484,-0.4529472815009012,0.0,0.0,0.0,126,0.0,0,1735644242188269615,map,0.980270134350082,0.3314021276907241,0.0242610319908906,-0.501513140163115,0.4913560623068019,-0.4822038061385746,0.5239592346963245,0.0,0.0,0.0,0,0.7424951791763306,0.9392399652998986,0.3476221782893764,0.0422174918757109,1.0,1.0127506300779105e-05,-0.0001210045236014,-0.0001262359931735,0.0,0.0,0.0,-0.0001210045236014,0.0014635513569444,0.0015045173303198,0.0,0.0,0.0,-0.0001262359931735,0.0015045173303198,0.0015742865039075,0.0,0.0,0.0,0.0,0.0,0.0,0.0,0.0,0.0,0.0,0.0,0.0,0.0,0.0,0.0,0.0,0.0,0.0,0.0,0.0,0.0,0,0,0,1,5,,0
0.500254902,0,1735643777088230371,map,0.9819176914752296,-0.2196334922366854,0.0203739202999192,-0.5054534401049151,0.4936206720443233,-0.4803814437851181,0.5197009914205892,0.0,0.0,0.0,1,0.0,0,1735643777088253974,map,0.9888384535297464,-0.2506368364972967,0.1460918787433632,-0.5120607683894904,0.4914928748642427,-0.4816716623477268,0.5140242534406563,0.0,0.0,0.0,16,0.0,0,1735643777088270664,map,0.9868742813446478,0.0549126940522453,0.0242538675295689,0.4771099511171899,-0.5059684025366059,0.5163558392392779,-0.4997386491587466,0.0,0.0,0.0,17,0.0,0,1735643777088284730,map,1.0198738069618396,-0.2641695560361196,0.2351623366686788,-0.49278656388485,0.493616496376894,-0.4859091464741325,0.5266844010714034,0.0,0.0,0.0,121,0.0,0,1735643777088297367,map,1.0154909433556618,0.2021192012071977,0.2403969441262386,-0.4898519164574916,0.4521190513682196,-0.5031246762801976,0.5499991122272567,0.0,0.0,0.0,122,0.0,0,1735643777088310956,map,1.0048310433604832,0.2017466614182279,0.1430239148256916,-0.4709507880065401,0.4999716868039938,-0.4978288866180675,0.5295281553600372,0.0,0.0,0.0,124,0.0,0,1735643777088322877,map,0.99915142443406,-0.0306540434223989,0.2405036389985848,-0.5569882803079982,0.4906590869877343,-0.4427072456946346,0.5030188968273185,0.0,0.0,0.0,125,0.0,0,1735643777088343858,map,1.0013410152877726,-0.0246707733655207,0.1437195453734232,-0.5626572355637317,0.4754671175259491,-0.4317989887430314,0.5204781347375124,0.0,0.0,0.0,126,0.0,0,1735644242188269615,map,0.9820665538865638,0.3317713858229078,0.0230718100972996,-0.4918875516139973,0.4943361029453157,-0.4908052926380889,0.5222916987761393,0.0,0.0,0.0,0,0.483059823513031,0.9403807695600171,0.3328899094209048,0.0282310318355235,1.0,1.494676038350792e-05,-0.000184870278433,-0.0001849757269671,0.0,0.0,0.0,-0.000184870278433,0.0023048248608517,0.002284025891084,0.0,0.0,0.0,-0.0001849757269671,0.002284025891084,0.0022900107422017,0.0,0.0,0.0,0.0,0.0,0.0,0.0,0.0,0.0,0.0,0.0,0.0,0.0,0.0,0.0,0.0,0.0,0.0,0.0,0.0,0.0,0,0,0,1,6,,0
0.601090206,0,1735643777088230371,map,0.981893886909026,-0.2214575009405202,0.020066722834454,-0.4957881192588143,0.4862559729791781,-0.4901758637427988,0.5267607541834166,0.0,0.0,0.0,1,0.0,0,1735643777088253974,map,0.9804282767372976,-0.2491290178457088,0.146665499248014,-0.5141521137980853,0.4804662823564753,-0.4783597414028768,0.5253300992713833,0.0,0.0,0.0,16,0.0,0,1735643777088270664,map,0.9828539265136472,0.053700441682238,0.0249409374391427,-0.4882346629316179,0.4970471457514245,-0.5036745427521375,0.5107670739151429,0.0,0.0,0.0,17,0.0,0,1735643777088284730,map,1.0136895261794403,-0.2639711457225208,0.2357011780810517,0.2293930048583712,-0.6455240494161303,0.684458910492961,-0.2493863484520309,0.0,0.0,0.0,121,0.0,0,1735643777088297367,map,1.011165570429834,0.2014679085737031,0.2396611763181697,-0.484752194063744,0.4803668843023093,-0.5135830242812173,0.5200917649667578,0.0,0.0,0.0,122,0.0,0,1735643777088310956,map,1.011908771639742,0.2044368996448628,0.1416058752674305,-0.4926109201393498,0.4950888074846473,-0.4762158969094276,0.534265826713297,0.0,0.0,0.0,124,0.0,0,1735643777088322877,map,1.0042047675857249,-0.0304470910084598,0.2402291999999804,0.4051795966773908,-0.5188527713252622,0.5905144475656442,-0.4668125783873911,0.0,0.0,0.0,125,0.0,0,1735643777088343858,map,1.009209529155774,-0.0250293129050013,0.1423180706770954,0.5613813630925747,-0.5232011082942118,0.4367962313734842,-0.4693832311767787,0.0,0.0,0.0,126,0.0,0,1735644242188269615,map,0.9741521264296468,0.3280242007901754,0.0249540510647855,-0.4890732839328754,0.4948184103378264,-0.4904643151547978,0.5247921677136528,0.0,0.0,0.0,0,0.9909803867340088,0.9413986012531844,0.3205930620990039,0.0155728271830658,1.0,1.9027397033841503e-05,-0.0002335569642384,-0.0002358541543578,0.0,0.0,0.0,-0.0002335569642384,0.0028828388907931,0.0028916725379559,0.0,0.0,0.0,-0.0002358541543578,0.0028916725379559,0.0029242472205996,0.0,0.0,0.0,0.0,0.0,0.0,0.0,0.0,0.0,0.0,0.0,0.0,0.0,0.0,0.0,0.0,0.0,0.0,0.0,0.0,0.0,0,0,0,1,7,,0
0.701403142,0,1735643777088230371,map,0.993356717095176,-0.226393524381421,0.0153055531042119,-0.5098419654856219,0.5291079478588218,-0.4666028128154452,0.4923289193365537,0.0,0.0,0.0,1,0.0,0,1735643777088253974,map,0.9804282767372976,-0.2491290178457088,0.146665499248014,-0.5141521137980853,0.4804662823564753,-0.4783597414028768,0.5253300992713833,0.0,0.0,0.0,16,0.0,0,1735643777088270664,map,0.9898978543146404,0.0542313613321539,0.0220729538930238,-0.5166407745885996,0.4836558796373696,-0.4633465981183099,0.5333565694138244,0.0,0.0,0.0,17,0.0,0,1735643777088284730,map,1.0136895261794403,-0.2639711457225208,0.2357011780810517,0.2293930048583712,-0.6455240494161303,0.684458910492961,-0.2493863484520309,0.0,0.0,0.0,121,0.0,0,1735643777088297367,map,1.005578561473844,0.1987332548411332,0.2399601440049818,-0.48008773455498,0.4872691022427129,-0.5186776196948794,0.5128919144976865,0.0,0.0,0.0,122,0.0,0,1735643777088310956,map,0.9997694530015404,0.199556081753229,0.1429801281800743,-0.4664062833314305,0.4950798175597695,-0.5013876952534971,0.5347630617033429,0.0,0.0,0.0,124,0.0,0,1735643777088322877,map,1.0038782630791498,-0.0331342391986225,0.2409502367277546,-0.5105067880102361,0.4819977783135931,-0.4892614395297248,0.5173820685775009,0.0,0.0,0.0,125,0.0,0,1735643777088343858,map,1.0028898024863218,-0.0270946898835488,0.1429101066687589,-0.5654742132529228,0.4833776112371855,-0.4301900082455404,0.511391783182251,0.0,0.0,0.0,126,0.0,0,1735644242188269615,map,0.9839745577907444,0.3336036201863123,0.0209340355786969,-0.512667854909968,0.490841821993995,-0.4732148371988279,0.5218368463212559,0.0,0.0,0.0,0,0.0847910717129707,0.9422728495814736,0.3095097631486168,0.0048106287340726,1.0,2.1999143381229934e-05,-0.0002721892327638,-0.0002722342230823,0.0,0.0,0.0,-0.0002721892327638,0.0033823606388096,0.0033651781101265,0.0,0.0,0.0,-0.0002722342230823,0.0033651781101265,0.0033694907262132,0.0,0.0,0.0,0.0,0.0,0.0,0.0,0.0,0.0,0.0,0.0,0.0,0.0,0.0,0.0,0.0,0.0,0.0,0.0,0.0,0.0,0,0,0,1,8,,0
0.800611241,0,1735643777088230371,map,0.9900427190574824,-0.2249426285172842,0.0156290945390853,-0.5045026853714366,0.5074568875060671,-0.478184748478867,0.5092189058723836,0.0,0.0,0.0,1,0.0,0,1735643777088253974,map,0.9896034965100332,-0.2532543455029954,0.1445631358118852,-0.4980589756614075,0.4765092075050017,-0.4945853596200089,0.5293973498003287,0.0,0.0,0.0,16,0.0,0,1735643777088270664,map,0.9913690021095358,0.0543507540287394,0.0210431190448882,-0.5006379872414632,0.5005875579322394,-0.4901135618969381,0.5084903135940251,0.0,0.0,0.0,17,0.0,0,1735643777088284730,map,1.0136895261794403,-0.2639711457225208,0.2357011780810517,0.2293930048583712,-0.6455240494161303,0.684458910492961,-0.2493863484520309,0.0,0.0,0.0,121,0.0,0,1735643777088297367,map,1.0204542959486456,0.2032068667438004,0.2408325972899494,-0.5146703335289466,0.4843256189913797,-0.4862084300253938,0.5139499052885038,0.0,0.0,0.0,122,0.0,0,1735643777088310956,map,1.004256542253115,0.2009811935566005,0.1419968815912504,-0.4706669868985864,0.4840761269192818,-0.4944677190659409,0.5473979956049889,0.0,0.0,0.0,124,0.0,0,1735643777088322877,map,1.0076618974605256,-0.0337668614029763,0.2409956421193671,-0.5301913898092583,0.5345038877423658,-0.4633917028780593,0.4674086155220036,0.0,0.0,0.0,125,0.0,0,1735643777088343858,map,1.0027006244436,-0.0269730766304929,0.1424069140246054,0.5100969378619176,-0.5072059085560422,0.4907725078807713,-0.4916153230099254,0.0,0.0,0.0,126,0.0,0,1735644242188269615,map,0.98057501473048,0.3315827687127141,0.0215910386831905,-0.5057166641982812,0.4897857272069017,-0.4821466001386875,0.5214357610974476,0.0,0.0,0.0,0,0.2539230287075043,0.943024822531062,0.2995231658453756,-0.0043503245127202,1.0,2.4078500651951237e-05,-0.0003020231929227,-0.0002970962883454,0.0,0.0,0.0,-0.0003020231929227,0.0038043997956298,0.0037231634391399,0.0,0.0,0.0,-0.0002970962883454,0.0037231634391399,0.0036664873828645,0.0,0.0,0.0,0.0,0.0,0.0,0.0,0.0,0.0,0.0,0.0,0.0,0.0,0.0,0.0,0.0,0.0,0.0,0.0,0.0,0.0,0,0,0,1,9,,0
0.900379889,0,1735643777088230371,map,0.9900427190574824,-0.2249426285172842,0.0156290945390853,-0.5045026853714366,0.5074568875060671,-0.478184748478867,0.5092189058723836,0.0,0.0,0.0,1,0.0,0,1735643777088253974,map,0.9896034965100332,-0.2532543455029954,0.1445631358118852,-0.4980589756614075,0.4765092075050017,-0.4945853596200089,0.5293973498003287,0.0,0.0,0.0,16,0.0,0,1735643777088270664,map,0.992346813999178,0.0546098377386526,0.0194062131098238,-0.515473259487102,0.4975230364642047,-0.4649963324642869,0.5201312889414971,0.0,0.0,0.0,17,0.0,0,1735643777088284730,map,1.0136895261794403,-0.2639711457225208,0.2357011780810517,0.2293930048583712,-0.6455240494161303,0.684458910492961,-0.2493863484520309,0.0,0.0,0.0,121,0.0,0,1735643777088297367,map,1.0124885411171447,0.2006559658827292,0.2394804882483859,0.5417125221995877,-0.4888252104556561,0.4668461272289931,-0.4996520293228433,0.0,0.0,0.0,122,0.0,0,1735643777088310956,map,1.0006245563974174,0.2000276006265933,0.1415310394052291,-0.4830182367716479,0.5071793773600304,-0.491196118106561,0.5178695160788536,0.0,0.0,0.0,124,0.0,0,1735643777088322877,map,1.004871930785384,-0.0338523287124969,0.2399936606140885,-0.5411258956579766,0.4837699146440934,-0.447724589069961,0.5221993173834433,0.0,0.0,0.0,125,0.0,0,1735643777088343858,map,0.9976424891691892,-0.0266447292970435,0.1420419959248267,-0.4223038657322015,0.6251007511296491,-0.552226850904493,0.3548999874117979,0.0,0.0,0.0,126,0.0,0,1735644242188269615,map,0.9770048868166592,0.3297925607472895,0.021438822112981,-0.496863220491511,0.494978463860195,-0.4875014020867545,0.5200631148243977,0.0,0.0,0.0,0,0.3869959712028503,0.9435045645060086,0.293583897501625,-0.0102862657963297,1.0,2.3742021849485184e-05,-0.0002974647205551,-0.000293016141262,0.0,0.0,0.0,-0.0002974647205551,0.0037414339921985,0.0036681434286308,0.0,0.0,0.0,-0.000293016141262,0.0036681434286308,0.0036169572348802,0.0,0.0,0.0,0.0,0.0,0.0,0.0,0.0,0.0,0.0,0.0,0.0,0.0,0.0,0.0,0.0,0.0,0.0,0.0,0.0,0.0,0,0,0,1,10,,0
1.000063197,0,1735643777088230371,map,0.9900427190574824,-0.2249426285172842,0.0156290945390853,-0.5045026853714366,0.5074568875060671,-0.478184748478867,0.5092189058723836,0.0,0.0,0.0,1,0.0,0,1735643777088253974,map,0.9896034965100332,-0.2532543455029954,0.1445631358118852,-0.4980589756614075,0.4765092075050017,-0.4945853596200089,0.5293973498003287,0.0,0.0,0.0,16,0.0,0,1735643777088270664,map,0.994097480624648,0.0531562626044781,0.0189996145127889,-0.5112709029833781,0.5248157263353839,-0.4793681997651085,0.483090722543482,0.0,0.0,0.0,17,0.0,0,1735643777088284730,map,1.0136895261794403,-0.2639711457225208,0.2357011780810517,0.2293930048583712,-0.6455240494161303,0.684458910492961,-0.2493863484520309,0.0,0.0,0.0,121,0.0,0,1735643777088297367,map,1.003761338552041,0.197831650570019,0.2413472567181813,-0.5062100490862643,0.4908239051829314,-0.4946620166051517,0.5080873641739018,0.0,0.0,0.0,122,0.0,0,1735643777088310956,map,0.9944883874878538,0.1981600572063764,0.1434872874511407,-0.4779314245477076,0.5094006989293538,-0.4964482598862412,0.515394612521326,0.0,0.0,0.0,124,0.0,0,1735643777088322877,map,0.9994682421543464,-0.0360276511182539,0.2421593894532564,-0.5393523314001482,0.4606428867699447,-0.4579401814987628,0.5359085590381595,0.0,0.0,0.0,125,0.0,0,1735643777088343858,map,0.9976424891691892,-0.0266447292970435,0.1420419959248267,-0.4223038657322015,0.6251007511296491,-0.552226850904493,0.3548999874117979,0.0,0.0,0.0,126,0.0,0,1735644242188269615,map,0.9733560240206692,0.3291828006743118,0.0225519159287982,-0.5008898155308881,0.4988373557778907,-0.4813681582381618,0.5182232930044297,0.0,0.0,0.0,0,0.8303308486938477,0.9437689387892824,0.2932071483367421,-0.0141706337874901,1.0,2.2282593843370543e-05,-0.0002714185011363,-0.0002766475802745,0.0,0.0,0.0,-0.0002714185011363,0.0034027230286037,0.0033493101681775,0.0,0.0,0.0,-0.0002766475802745,0.0033493101681775,0.0034390260877077,0.0,0.0,0.0,0.0,0.0,0.0,0.0,0.0,0.0,0.0,0.0,0.0,0.0,0.0,0.0,0.0,0.0,0.0,0.0,0.0,0.0,0,0,0,1,11,,0
1.100400388,0,1735643777088230371,map,0.9900427190574824,-0.2249426285172842,0.0156290945390853,-0.5045026853714366,0.5074568875060671,-0.478184748478867,0.5092189058723836,0.0,0.0,0.0,1,0.0,0,1735643777088253974,map,0.9896034965100332,-0.2532543455029954,0.1445631358118852,-0.4980589756614075,0.4765092075050017,-0.4945853596200089,0.5293973498003287,0.0,0.0,0.0,16,0.0,0,1735643777088270664,map,0.9878854481709636,0.0537872829384607,0.0210672880827593,-0.5086422949416185,0.5134163406820513,-0.4808404496944362,0.4964666543231559,0.0,0.0,0.0,17,2.7329235570718517e-25,0,1735643777088284730,map,1.0136895261794403,-0.2639711457225208,0.2357011780810517,0.2293930048583712,-0.6455240494161303,0.684458910492961,-0.2493863484520309,0.0,0.0,0.0,121,0.0,0,1735643777088297367,map,1.0091088087714888,0.2003718529548457,0.2434695167822509,-0.506852807056295,0.4567545334022629,-0.4918219046619456,0.5409128786508332,0.0,0.0,0.0,122,4.046303966378018e-39,0,1735643777088310956,map,0.9956180265620006,0.1995398951637093,0.1442889214547107,-0.4783200467403158,0.5094454759261517,-0.4917371801144095,0.5194899283314812,0.0,0.0,0.0,124,9.828650511234571e-21,0,1735643777088322877,map,0.997174231957394,-0.0358607480234775,0.2433310675888824,-0.5370241456793948,0.4811676464955864,-0.4605794777638514,0.517638201436092,0.0,0.0,0.0,125,0.0,0,1735643777088343858,map,0.9921261104951488,-0.0292468463062238,0.1450043397412778,-0.5555891273056645,0.4861608655489935,-0.4438810982428621,0.5078758756340903,0.0,0.0,0.0,126,0.0,0,1735644242188269615,map,0.9691067347690508,0.3283178945226379,0.0240836605360519,-0.4984579606402808,0.4906568162344387,-0.4886551878772502,0.5215473684313494,0.0,0.0,0.0,0,0.7733030915260315,0.9439488812284984,0.2969895348274575,-0.0176695993320528,1.0,2.0781883118829543e-05,-0.0002413135623451,-0.0002605193515947,0.0,0.0,0.0,-0.0002413135623451,0.0032765336994367,0.0029246221474165,0.0,0.0,0.0,-0.0002605193515947,0.0029246221474165,0.0032871109391011,0.0,0.0,0.0,0.0,0.0,0.0,0.0,0.0,0.0,0.0,0.0,0.0,0.0,0.0,0.0,0.0,0.0,0.0,0.0,0.0,0.0,0,0,0,1,12,,0
1.199490234,0,1735643777088230371,map,0.9784792280725668,-0.2232737112113832,0.0188094819017108,-0.4996544088617745,0.5047215462955668,-0.4890644314498396,0.5063769488243398,0.0,0.0,0.0,1,2.970752744368612e-43,0,1735643777088253974,map,0.9896034965100332,-0.2532543455029954,0.1445631358118852,-0.4980589756614075,0.4765092075050017,-0.4945853596200089,0.5293973498003287,0.0,0.0,0.0,16,0.0,0,1735643777088270664,map,0.98394228533219,0.0543947321112258,0.0226725283647475,-0.4958170311912139,0.5241521625650059,-0.4937739799187594,0.4854042014799078,0.0,0.0,0.0,17,9.284815971621896e-12,0,1735643777088284730,map,1.0136895261794403,-0.2639711457225208,0.2357011780810517,0.2293930048583712,-0.6455240494161303,0.684458910492961,-0.2493863484520309,0.0,0.0,0.0,121,0.0,0,1735643777088297367,map,1.0111066002337383,0.2016395150598453,0.2455327269265984,-0.5135670015052235,0.4560419771712807,-0.4865661462311149,0.5399333619664973,0.0,0.0,0.0,122,3.5542611922787034e-19,0,1735643777088310956,map,0.9959007844000634,0.2003508684027574,0.1452158339780709,-0.4781193420758285,0.4862545462162072,-0.4844653787938811,0.547952286031502,0.0,0.0,0.0,124,3.4195435372197375e-10,0,1735643777088322877,map,0.9996300360236516,-0.0368153023796836,0.2451603825963112,-0.5238953626394168,0.4899283590746175,-0.4725079302321805,0.5120938467186146,0.0,0.0,0.0,125,0.0,0,1735643777088343858,map,0.9961802273742616,-0.029899532542674,0.145801775369648,-0.3954757384436341,0.616452004387775,-0.5798064265947409,0.3569458982369659,0.0,0.0,0.0,126,2.2311001797410038e-32,0,1735644242188269615,map,0.971123130891296,0.3312245953346895,0.0240282655324481,-0.5145580455436712,0.4991659249434999,-0.4773818704108861,0.5081042677881991,0.0,0.0,0.0,0,0.7409180998802185,0.9439752649464184,0.3043172638502721,-0.0196166889128139,1.0,1.9191629931928905e-05,-0.0002204309877999,-0.0002410958590192,0.0,0.0,0.0,-0.0002204309877999,0.0036688399972155,0.0025284382750283,0.0,0.0,0.0,-0.0002410958590192,0.0025284382750283,0.003079750145504,0.0,0.0,0.0,0.0,0.0,0.0,0.0,0.0,0.0,0.0,0.0,0.0,0.0,0.0,0.0,0.0,0.0,0.0,0.0,0.0,0.0,0,0,0,1,13,,0
1.298784476,0,1735643777088230371,map,0.9784792280725668,-0.2232737112113832,0.0188094819017108,-0.4996544088617745,0.5047215462955668,-0.4890644314498396,0.5063769488243398,0.0,0.0,0.0,1,1.1231264448351392e-33,0,1735643777088253974,map,0.9896034965100332,-0.2532543455029954,0.1445631358118852,-0.4980589756614075,0.4765092075050017,-0.4945853596200089,0.5293973498003287,0.0,0.0,0.0,16,0.0,0,1735643777088270664,map,0.9827940206297624,0.0502479268549311,0.0218051897839013,-0.5211527002549678,0.5072662980073981,-0.4586307469191813,0.5106256984359278,0.0,0.0,0.0,17,1.0939444905488924e-09,0,1735643777088284730,map,1.0136895261794403,-0.2639711457225208,0.2357011780810517,0.2293930048583712,-0.6455240494161303,0.684458910492961,-0.2493863484520309,0.0,0.0,0.0,121,0.0,0,1735643777088297367,map,0.9901903811605668,0.1935832260585722,0.2437435487634033,0.4965600594631716,-0.5008117981409421,0.5058012709971607,-0.4967702934419732,0.0,0.0,0.0,122,7.645230046411159e-17,0,1735643777088310956,map,0.9835233170084786,0.1944102377046705,0.1459762164409388,-0.4703158358885568,0.527587951228094,-0.504709848935845,0.4957034765043987,0.0,0.0,0.0,124,4.508105444500643e-09,0,1735643777088322877,map,0.9872692438561196,-0.0397684246038138,0.2446575512805633,-0.5366876812624297,0.4603941730976537,-0.464188150433062,0.5334162531798381,0.0,0.0,0.0,125,2.380536761323021e-38,0,1735643777088343858,map,0.9961802273742616,-0.029899532542674,0.145801775369648,-0.3954757384436341,0.616452004387775,-0.5798064265947409,0.3569458982369659,0.0,0.0,0.0,126,1.1557378022668286e-25,0,1735644242188269615,map,0.9683671165532352,0.3288109890475471,0.0234888700644468,-0.5126203474278203,0.4999081722497351,-0.4773717646132339,0.5093411401712582,0.0,0.0,0.0,0,0.6932826638221741,0.9439241052763452,0.3107661024277429,-0.020214975993969,1.0,1.78548242764513e-05,-0.0002089748831445,-0.0002234768200262,0.0,0.0,0.0,-0.0002089748831445,0.0039474177443919,0.0022976782025761,0.0,0.0,0.0,-0.0002234768200262,0.0022976782025761,0.0028644213088629,0.0,0.0,0.0,0.0,0.0,0.0,0.0,0.0,0.0,0.0,0.0,0.0,0.0,0.0,0.0,0.0,0.0,0.0,0.0,0.0,0.0,0,0,0,1,14,,0
1.400360608,0,1735643777088230371,map,0.9668828992549422,-0.2238719490676224,0.0214952184058826,-0.50102094364187,0.4960410397760479,-0.4907033090490846,0.5119878547176541,0.0,0.0,0.0,1,6.472721028509077e-30,0,1735643777088253974,map,0.9896034965100332,-0.2532543455029954,0.1445631358118852,-0.4980589756614075,0.4765092075050017,-0.4945853596200089,0.5293973498003287,0.0,0.0,0.0,16,0.0,0,1735643777088270664,map,0.9784023102900083,0.0499104990200173,0.0239763972614283,-0.5379671183151682,0.6869729937865807,-0.3796759219609176,0.3074177608771221,0.0,0.0,0.0,17,7.275318125721242e-09,0,1735643777088284730,map,1.0136895261794403,-0.2639711457225208,0.2357011780810517,0.2293930048583712,-0.6455240494161303,0.684458910492961,-0.2493863484520309,0.0,0.0,0.0,121,0.0,0,1735643777088297367,map,0.9959093855804814,0.1935297582264216,0.2456976145584341,-0.4789928160421032,0.3177375218121421,-0.4613992809350904,0.675810219636634,0.0,0.0,0.0,122,5.240003627368422e-16,0,1735643777088310956,map,0.984341858087926,0.1938122001662027,0.1470087673672475,-0.4792044313701309,0.5161593401135955,-0.4941875282913578,0.5096286250300358,0.0,0.0,0.0,124,1.3199746184966445e-08,0,1735643777088322877,map,0.9887903148009358,-0.0422880963689503,0.2463183561429688,-0.5194410159339006,0.4727176209679989,-0.4790921869495092,0.5264881368044764,0.0,0.0,0.0,125,6.558885969857072e-35,0,1735643777088343858,map,0.9788568701659968,-0.033690534819827,0.1474697790593581,-0.533788384552432,0.483667664656045,-0.4651390642889413,0.5145689473291991,0.0,0.0,0.0,126,1.739338268449549e-23,0,1735644242188269615,map,0.9633651854500794,0.3262035738028178,0.0256717166052213,-0.5044867157648661,0.4941748813772417,-0.4805822538185249,0.5199279157222421,0.0,0.0,0.0,0,0.6000820994377136,0.9438635790142684,0.3164426565083568,-0.0205093027426001,1.0,1.671579065563514e-05,-0.0001998533526678,-0.0002083289623869,0.0,0.0,0.0,-0.0001998533526678,0.0041353822886544,0.002121108991854,0.0,0.0,0.0,-0.0002083289623869,0.002121108991854,0.0026746726835615,0.0,0.0,0.0,0.0,0.0,0.0,0.0,0.0,0.0,0.0,0.0,0.0,0.0,0.0,0.0,0.0,0.0,0.0,0.0,0.0,0.0,0,0,0,1,15,,0
1.499944387,0,1735643777088230371,map,0.9668828992549422,-0.2238719490676224,0.0214952184058826,-0.50102094364187,0.4960410397760479,-0.4907033090490846,0.5119878547176541,0.0,0.0,0.0,1,5.6378491114872755e-31,0,1735643777088253974,map,0.9896034965100332,-0.2532543455029954,0.1445631358118852,-0.4980589756614075,0.4765092075050017,-0.4945853596200089,0.5293973498003287,0.0,0.0,0.0,16,0.0,0,1735643777088270664,map,0.9718946369279388,0.0491213172305328,0.0252458500937798,-0.5167388915867959,0.4864575154406668,-0.4630265679815372,0.5309862530576298,0.0,0.0,0.0,17,2.2886994521797988e-09,0,1735643777088284730,map,1.0136895261794403,-0.2639711457225208,0.2357011780810517,0.2293930048583712,-0.6455240494161303,0.684458910492961,-0.2493863484520309,0.0,0.0,0.0,121,0.0,0,1735643777088297367,map,0.9855104512919366,0.1908078602712581,0.2447684914849587,-0.4726735358041409,0.4998256483455672,-0.5229541211430045,0.5032623937727632,0.0,0.0,0.0,122,4.4854583399737165e-17,0,1735643777088310956,map,0.9771606964952626,0.1915126363109469,0.1473674281641383,-0.4599104584192013,0.5146931258359582,-0.509097692499538,0.5141914973485034,0.0,0.0,0.0,124,3.028213013678282e-09,0,1735643777088322877,map,0.9811420879704364,-0.042188796283048,0.2455641703621601,-0.5290873485638952,0.4761225622039423,-0.4700990868821936,0.5219010747857371,0.0,0.0,0.0,125,1.488081662947593e-36,0,1735643777088343858,map,0.9724284309852846,-0.03349078062939,0.1481548164912914,-0.5334388192859281,0.4730141788078659,-0.469095678659443,0.521200400027275,0.0,0.0,0.0,126,1.2202561965588163e-24,0,1735644242188269615,map,0.9589143119795538,0.3237449252317512,0.026742028624635,-0.500330492103522,0.4994884770103631,-0.4904126817245569,0.5095842046306411,0.0,0.0,0.0,0,0.5360698103904724,0.9437447357001784,0.3197915450242149,-0.0194363690860925,1.0,1.588290973921682e-05,-0.0001933324132722,-0.0001972210671108,0.0,0.0,0.0,-0.0001933324132722,0.0040451467099881,0.0020424367078714,0.0,0.0,0.0,-0.0001972210671108,0.0020424367078714,0.0025247734403079,0.0,0.0,0.0,0.0,0.0,0.0,0.0,0.0,0.0,0.0,0.0,0.0,0.0,0.0,0.0,0.0,0.0,0.0,0.0,0.0,0.0,0,0,0,1,16,,0
1.600589942,0,1735643777088230371,map,0.9668828992549422,-0.2238719490676224,0.0214952184058826,-0.50102094364187,0.4960410397760479,-0.4907033090490846,0.5119878547176541,0.0,0.0,0.0,1,9.502358730069816e-31,0,1735643777088253974,map,0.9896034965100332,-0.2532543455029954,0.1445631358118852,-0.4980589756614075,0.4765092075050017,-0.4945853596200089,0.5293973498003287,0.0,0.0,0.0,16,0.0,0,1735643777088270664,map,0.9784243680119218,0.0478128371419828,0.0228377345381675,-0.5141808459765111,0.5229335407468496,-0.4639215310686104,0.4969259327141206,0.0,0.0,0.0,17,4.3328256538188725e-09,0,1735643777088284730,map,1.0136895261794403,-0.2639711457225208,0.2357011780810517,0.2293930048583712,-0.6455240494161303,0.684458910492961,-0.2493863484520309,0.0,0.0,0.0,121,0.0,0,1735643777088297367,map,0.9878828932298468,0.1905884922491634,0.2448248618028854,0.4969418389374117,-0.4973600357058778,0.5076476604902067,-0.4979715417521078,0.0,0.0,0.0,122,6.258289166503005e-16,0,1735643777088310956,map,0.9781427358302496,0.1911180084824774,0.146875782028279,-0.4672018884314655,0.5257718029552142,-0.5036081878803866,0.5016624360694444,0.0,0.0,0.0,124,1.2733435639233905e-08,0,1735643777088322877,map,0.9818949470858864,-0.043226595335515,0.2453526658957954,-0.5272767752589961,0.4656826061883155,-0.4803891408994244,0.5237797112069594,0.0,0.0,0.0,125,6.431573273589547e-35,0,1735643777088343858,map,0.9730701441046036,-0.0341732445263472,0.147502358124718,-0.5256309285836328,0.4759122461601132,-0.4769523357306805,0.5193612714789122,0.0,0.0,0.0,126,1.1108626460212843e-23,0,1735644242188269615,map,0.9598976167260536,0.3238549050018626,0.0258209399277342,-0.4973247461982139,0.4999684617500111,-0.489949013377477,0.5124935105585703,0.0,0.0,0.0,0,0.621504008769989,0.9435293785224615,0.3196372965545923,-0.0161745568518476,1.0,1.5690680354933928e-05,-0.0001814284221325,-0.0001968591027011,0.0,0.0,0.0,-0.0001814284221325,0.0038075775849643,0.001914243299389,0.0,0.0,0.0,-0.0001968591027011,0.001914243299389,0.0025464880604074,0.0,0.0,0.0,0.0,0.0,0.0,0.0,0.0,0.0,0.0,0.0,0.0,0.0,0.0,0.0,0.0,0.0,0.0,0.0,0.0,0.0,0,0,0,1,17,,0
1.700746333,0,1735643777088230371,map,0.9668828992549422,-0.2238719490676224,0.0214952184058826,-0.50102094364187,0.4960410397760479,-0.4907033090490846,0.5119878547176541,0.0,0.0,0.0,1,5.186024818059453e-32,0,1735643777088253974,map,0.9896034965100332,-0.2532543455029954,0.1445631358118852,-0.4980589756614075,0.4765092075050017,-0.4945853596200089,0.5293973498003287,0.0,0.0,0.0,16,0.0,0,1735643777088270664,map,0.9699949854430584,0.0488417422182352,0.0260317314137807,-0.5023223325604348,0.4930621861751238,-0.4803293178103463,0.5233026860499559,0.0,0.0,0.0,17,1.654220982416632e-09,0,1735643777088284730,map,1.0136895261794403,-0.2639711457225208,0.2357011780810517,0.2293930048583712,-0.6455240494161303,0.684458910492961,-0.2493863484520309,0.0,0.0,0.0,121,0.0,0,1735643777088297367,map,0.9850701837996848,0.1893817865649612,0.2456482997250225,-0.5052530807363519,0.4960490674691724,-0.4962095508696693,0.5024248488033917,0.0,0.0,0.0,122,1.9258657249476008e-16,0,1735643777088310956,map,0.9788337259014406,0.1907301028797816,0.1477489740146272,-0.4823572466632841,0.5063523405072372,-0.4899562461032155,0.5204629388906612,0.0,0.0,0.0,124,7.325595241525207e-09,0,1735643777088322877,map,0.9840957854352368,-0.0455930921739378,0.2469090494716629,-0.5171981918205029,0.4707596976198435,-0.4882619948629621,0.522007243098136,0.0,0.0,0.0,125,2.054000778548786e-36,0,1735643777088343858,map,0.9791452155845888,-0.0376050401770282,0.1480555871042153,-0.5161915363228783,0.4878277425669191,-0.4853602398048918,0.5098978613675762,0.0,0.0,0.0,126,8.998068945769738e-25,0,1735644242188269615,map,0.9537531016452164,0.3201905220111883,0.0279130689686253,-0.4973464874154618,0.4983037701246049,-0.4911265499657545,0.5129664083093965,0.0,0.0,0.0,0,0.5716586112976074,0.9434243101088514,0.3196578800066572,-0.0146034761685514,1.0,1.5006645206926196e-05,-0.0001713858307485,-0.0001887286921202,0.0,0.0,0.0,-0.0001713858307485,0.0035960526994453,0.0018084461999099,0.0,0.0,0.0,-0.0001887286921202,0.0018084461999099,0.0024469775082242,0.0,0.0,0.0,0.0,0.0,0.0,0.0,0.0,0.0,0.0,0.0,0.0,0.0,0.0,0.0,0.0,0.0,0.0,0.0,0.0,0.0,0,0,0,1,18,,0
1.797958964,0,1735643777088230371,map,0.9668828992549422,-0.2238719490676224,0.0214952184058826,-0.50102094364187,0.4960410397760479,-0.4907033090490846,0.5119878547176541,0.0,0.0,0.0,1,1.6357981021371248e-33,0,1735643777088253974,map,0.9896034965100332,-0.2532543455029954,0.1445631358118852,-0.4980589756614075,0.4765092075050017,-0.4945853596200089,0.5293973498003287,0.0,0.0,0.0,16,0.0,0,1735643777088270664,map,0.9709945097510364,0.0461650545993537,0.0244912406333356,-0.5097222478105684,0.5009320471196809,-0.4699724535161425,0.518050390590959,0.0,0.0,0.0,17,4.888759952415e-10,0,1735643777088284730,map,1.0136895261794403,-0.2639711457225208,0.2357011780810517,0.2293930048583712,-0.6455240494161303,0.684458910492961,-0.2493863484520309,0.0,0.0,0.0,121,0.0,0,1735643777088297367,map,0.9804832038308696,0.1872224269285907,0.2450531499142148,0.4853084836564429,-0.5078622145111724,0.5147134695414773,-0.4915502934954534,0.0,0.0,0.0,122,2.8281619471820786e-17,0,1735643777088310956,map,0.9725926650668614,0.1884166006471875,0.1476603862068491,-0.4783067377528106,0.5314474512933565,-0.4976216821301888,0.4910793546953291,0.0,0.0,0.0,124,2.1563335561580743e-09,0,1735643777088322877,map,0.9767040498773264,-0.0462106752700577,0.2459133180952846,-0.5194616915008953,0.4634789259681025,-0.4877403826245665,0.5267410705495867,0.0,0.0,0.0,125,5.47638145778406e-38,0,1735643777088343858,map,0.971008398865976,-0.038053030200141,0.1481410993726009,-0.5260170218078386,0.4833608424593714,-0.47429390945777,0.5145033296263919,0.0,0.0,0.0,126,5.659917373886969e-26,0,1735644242188269615,map,0.954019906770498,0.3210187376939727,0.0273873680736684,-0.4991464921620148,0.492854088036586,-0.486786132535785,0.5205640099342579,0.0,0.0,0.0,0,0.5568143725395203,0.9434725621298806,0.3201621937731339,-0.0154337637700453,1.0,1.4258730410583897e-05,-0.0001619275090146,-0.0001795167380477,0.0,0.0,0.0,-0.0001619275090146,0.0034113647506465,0.001705727762551,0.0,0.0,0.0,-0.0001795167380477,0.001705727762551,0.0023305980133391,0.0,0.0,0.0,0.0,0.0,0.0,0.0,0.0,0.0,0.0,0.0,0.0,0.0,0.0,0.0,0.0,0.0,0.0,0.0,0.0,0.0,0,0,0,1,19,,0
1.901006095,0,1735643777088230371,map,0.9668828992549422,-0.2238719490676224,0.0214952184058826,-0.50102094364187,0.4960410397760479,-0.4907033090490846,0.5119878547176541,0.0,0.0,0.0,1,3.608462303999697e-35,0,1735643777088253974,map,0.9896034965100332,-0.2532543455029954,0.1445631358118852,-0.4980589756614075,0.4765092075050017,-0.4945853596200089,0.5293973498003287,0.0,0.0,0.0,16,0.0,0,1735643777088270664,map,0.9680054629065742,0.0460622929172142,0.0241568600969124,-0.5097826415978192,0.5096172563030611,-0.4673069363706585,0.5118946548104979,0.0,0.0,0.0,17,1.5782733453484354e-10,0,1735643777088284730,map,1.0136895261794403,-0.2639711457225208,0.2357011780810517,0.2293930048583712,-0.6455240494161303,0.684458910492961,-0.2493863484520309,0.0,0.0,0.0,121,0.0,0,1735643777088297367,map,0.9833981140812892,0.1873417306984536,0.2456290574265752,-0.4839001562840257,0.4815966926801485,-0.5157786720159718,0.5175689575711422,0.0,0.0,0.0,122,3.507694542707147e-18,0,1735643777088310956,map,0.971364140327898,0.1880427962348076,0.1468850767545338,-0.4642009378205102,0.5238114770785456,-0.506991433040425,0.5030891696617683,0.0,0.0,0.0,124,7.934281565091793e-10,0,1735643777088322877,map,0.9770254115972437,-0.0478472948185577,0.2459788947829115,-0.5145707971338542,0.4727134560946694,-0.4904145431593384,0.5208190271311907,0.0,0.0,0.0,125,3.7408923673768876e-40,0,1735643777088343858,map,0.9702799359881538,-0.0388274521475793,0.1474200252362514,-0.5283713646670852,0.4875892396590868,-0.4771244117782022,0.5054035318968597,0.0,0.0,0.0,126,2.6139023576224837e-27,0,1735644242188269615,map,0.951714902249578,0.3203676576117839,0.0265654447308092,-0.4889991772514126,0.4962781820748887,-0.4940511777565587,0.5200973028205802,0.0,0.0,0.0,0,0.5493941903114319,0.9433881133712202,0.321615807910797,-0.0144752745479458,1.0,1.3681294154001389e-05,-0.0001561634958443,-0.0001720788224203,0.0,0.0,0.0,-0.0001561634958443,0.0032809434002773,0.0016469135706203,0.0,0.0,0.0,-0.0001720788224203,0.0016469135706203,0.0022315234428609,0.0,0.0,0.0,0.0,0.0,0.0,0.0,0.0,0.0,0.0,0.0,0.0,0.0,0.0,0.0,0.0,0.0,0.0,0.0,0.0,0.0,0,0,0,1,20,,0
1.998523993,0,1735643777088230371,map,0.9668828992549422,-0.2238719490676224,0.0214952184058826,-0.50102094364187,0.4960410397760479,-0.4907033090490846,0.5119878547176541,0.0,0.0,0.0,1,1.0561450835083247e-35,0,1735643777088253974,map,0.9896034965100332,-0.2532543455029954,0.1445631358118852,-0.4980589756614075,0.4765092075050017,-0.4945853596200089,0.5293973498003287,0.0,0.0,0.0,16,0.0,0,1735643777088270664,map,0.9642541351782998,0.0473733540770374,0.0258676672611526,-0.5027517639337131,0.4984035307474938,-0.4733822957948036,0.5241600771024186,0.0,0.0,0.0,17,8.810557838856424e-11,0,1735643777088284730,map,1.0136895261794403,-0.2639711457225208,0.2357011780810517,0.2293930048583712,-0.6455240494161303,0.684458910492961,-0.2493863484520309,0.0,0.0,0.0,121,0.0,0,1735643777088297367,map,0.9805115801100724,0.1866784941579909,0.2459834256985291,0.5124465491779434,-0.5063851869827198,0.4916238414239344,-0.4891610932848889,0.0,0.0,0.0,122,5.216045846394539e-19,0,1735643777088310956,map,0.9723584613942527,0.1881513338513665,0.1475828937138265,-0.4691047689093229,0.5199116275115401,-0.5032505983194634,0.5063313644797593,0.0,0.0,0.0,124,3.1025806923601346e-10,0,1735643777088322877,map,0.974236954288709,-0.0473602351829456,0.24626527128024,-0.5204814140966573,0.4866315656563892,-0.4786405437536075,0.5130224622392346,0.0,0.0,0.0,125,2.4926297083409846e-41,0,1735643777088343858,map,0.9680676384729336,-0.038256927166812,0.1481752520184913,-0.523479712999301,0.4853585526003522,-0.4775981620127807,0.5121484756766098,0.0,0.0,0.0,126,4.806112435382168e-28,0,1735644242188269615,map,0.9519440876081292,0.3210871847577532,0.0272200214294484,-0.4947933590168858,0.5000673438554396,-0.4900800424894622,0.5147171411908488,0.0,0.0,0.0,0,0.5210942029953003,0.9432969758545816,0.3242790854952942,-0.0136726103007519,1.0,1.3195924894972716e-05,-0.0001535816290028,-0.0001653476493049,0.0,0.0,0.0,-0.0001535816290028,0.0032665689501058,0.001611243468825,0.0,0.0,0.0,-0.0001653476493049,0.001611243468825,0.0021381458196467,0.0,0.0,0.0,0.0,0.0,0.0,0.0,0.0,0.0,0.0,0.0,0.0,0.0,0.0,0.0,0.0,0.0,0.0,0.0,0.0,0.0,0,0,0,1,21,,0
2.099090108,0,1735643777088230371,map,0.9668828992549422,-0.2238719490676224,0.0214952184058826,-0.50102094364187,0.4960410397760479,-0.4907033090490846,0.5119878547176541,0.0,0.0,0.0,1,1.0879722136352036e-30,0,1735643777088253974,map,0.9896034965100332,-0.2532543455029954,0.1445631358118852,-0.4980589756614075,0.4765092075050017,-0.4945853596200089,0.5293973498003287,0.0,0.0,0.0,16,0.0,0,1735643777088270664,map,0.9647446374848978,0.0468894604008753,0.0254210371109643,-0.5063557047350579,0.4986452870032943,-0.4721368639633923,0.5215779517181283,0.0,0.0,0.0,17,1.5382601858959786e-09,0,1735643777088284730,map,1.0136895261794403,-0.2639711457225208,0.2357011780810517,0.2293930048583712,-0.6455240494161303,0.684458910492961,-0.2493863484520309,0.0,0.0,0.0,121,0.0,0,1735643777088297367,map,0.9804150064560406,0.1864841221067352,0.2470054670185592,-0.4968378543234269,0.4805044365078443,-0.507948498328224,0.5140583197008627,0.0,0.0,0.0,122,1.6108852324957276e-18,0,1735643777088310956,map,0.967886100220636,0.1878395065548005,0.1481721030138901,-0.4602076715835071,0.5414514302537681,-0.5114908457371304,0.4831318271641295,0.0,0.0,0.0,124,7.572152904700147e-10,0,1735643777088322877,map,0.9690492828325588,-0.046040228368298,0.2460479377014526,-0.5247852214371711,0.4831956036287757,-0.4771146728362337,0.5133069928993137,0.0,0.0,0.0,125,9.875182333122678e-38,0,1735643777088343858,map,0.9661346050670532,-0.0384786847727788,0.1485253944429509,-0.5213793934093126,0.4835715826760661,-0.4832630879404076,0.5106650961154517,0.0,0.0,0.0,126,2.749959008320099e-25,0,1735644242188269615,map,0.9516441702682246,0.3219299245969638,0.0273250702025725,-0.4989691691899782,0.4961711842036369,-0.4889370974302785,0.5155428584708336,0.0,0.0,0.0,0,0.4991160035133362,0.9431456297502068,0.3299580865036221,-0.0126056652718645,1.0,1.3077128636517246e-05,-0.0001646500341326,-0.0001612228845115,0.0,0.0,0.0,-0.0001646500341326,0.0037953606447872,0.0016652479491255,0.0,0.0,0.0,-0.0001612228845115,0.0016652479491255,0.0020648631788872,0.0,0.0,0.0,0.0,0.0,0.0,0.0,0.0,0.0,0.0,0.0,0.0,0.0,0.0,0.0,0.0,0.0,0.0,0.0,0.0,0.0,0,0,0,1,22,,0
2.201024006,0,1735643777088230371,map,0.9668828992549422,-0.2238719490676224,0.0214952184058826,-0.50102094364187,0.4960410397760479,-0.4907033090490846,0.5119878547176541,0.0,0.0,0.0,1,8.581341311274168e-21,0,1735643777088253974,map,0.9896034965100332,-0.2532543455029954,0.1445631358118852,-0.4980589756614075,0.4765092075050017,-0.4945853596200089,0.5293973498003287,0.0,0.0,0.0,16,4.7585965695438805e-35,0,1735643777088270664,map,0.9589009444289908,0.0465245083374432,0.027161187335814,-0.5042145563373516,0.4877424632157552,-0.4765913554858406,0.5298449307391025,0.0,0.0,0.0,17,4.546502907487593e-07,0,1735643777088284730,map,1.0136895261794403,-0.2639711457225208,0.2357011780810517,0.2293930048583712,-0.6455240494161303,0.684458910492961,-0.2493863484520309,0.0,0.0,0.0,121,0.0,0,1735643777088297367,map,0.9734151374352796,0.1844766963626183,0.2463917899740986,-0.4936484356074243,0.4896064091896582,-0.5064449902090701,0.5100100567585765,0.0,0.0,0.0,122,2.2207046589970217e-17,0,1735643777088310956,map,0.9644383295418164,0.1861309192550797,0.1486774704012499,-0.4468555901206902,0.5507019305049634,-0.5233840784336562,0.4723521692108002,0.0,0.0,0.0,124,5.367826183544366e-09,0,1735643777088322877,map,0.9651737435268288,-0.0473388160669475,0.2461680432166179,-0.520478607703625,0.4750366370915287,-0.48381434702442,0.5190047109198539,0.0,0.0,0.0,125,1.5012565141780962e-31,0,1735643777088343858,map,0.9629868262432548,-0.0400402311882882,0.1490123732445186,-0.5209468386166495,0.4827410199929385,-0.4851127569812226,0.5101383263053004,0.0,0.0,0.0,126,4.352244720277567e-20,0,1735644242188269615,map,0.9495132147211508,0.3209824912532499,0.0276119015999112,-0.4960383709372687,0.4967005075414367,-0.4855140887450053,0.5210667999365214,0.0,0.0,0.0,0,0.4651635587215423,0.9427921229630954,0.3410711547440998,-0.0096579814418309,1.0,1.525783289397761e-05,-0.0002439193280665,-0.0001771377711645,0.0,0.0,0.0,-0.0002439193280665,0.0063473512503643,0.0023135177185802,0.0,0.0,0.0,-0.0001771377711645,0.0023135177185802,0.0021662409980961,0.0,0.0,0.0,0.0,0.0,0.0,0.0,0.0,0.0,0.0,0.0,0.0,0.0,0.0,0.0,0.0,0.0,0.0,0.0,0.0,0.0,0,0,0,1,23,,0
2.301959498,0,1735643777088230371,map,0.9668828992549422,-0.2238719490676224,0.0214952184058826,-0.50102094364187,0.4960410397760479,-0.4907033090490846,0.5119878547176541,0.0,0.0,0.0,1,3.9171733890418236e-13,0,1735643777088253974,map,0.9896034965100332,-0.2532543455029954,0.1445631358118852,-0.4980589756614075,0.4765092075050017,-0.4945853596200089,0.5293973498003287,0.0,0.0,0.0,16,2.6761174367678533e-25,0,1735643777088270664,map,0.9573759698696952,0.0476451218716922,0.0279198264902421,-0.5053831773782417,0.4879022176540307,-0.4748098443071126,0.5301838188594654,0.0,0.0,0.0,17,5.4081228881841525e-05,0,1735643777088284730,map,1.0136895261794403,-0.2639711457225208,0.2357011780810517,0.2293930048583712,-0.6455240494161303,0.684458910492961,-0.2493863484520309,0.0,0.0,0.0,121,3.5080744748007203e-37,0,1735643777088297367,map,0.9764380021048568,0.1846383882332797,0.2482658346631906,-0.4773115136823054,0.4654939842066303,-0.5238393633671707,0.5301710959311345,0.0,0.0,0.0,122,1.6351278862007684e-16,0,1735643777088310956,map,0.9629463640830476,0.1866146528549887,0.149136555637295,0.4237409998648207,-0.5486611938549587,0.5491618239422648,-0.4667287761812188,0.0,0.0,0.0,124,3.454196217944627e-08,0,1735643777088322877,map,0.963813090768286,-0.0468768817208513,0.2467037921306661,-0.5216930435198561,0.4827798237423442,-0.482563271769261,0.511754529896557,0.0,0.0,0.0,125,1.4196040405286004e-26,0,1735643777088343858,map,0.9632051263942788,-0.0404189036203467,0.1494259984571803,-0.5167494598166212,0.4906864301818746,-0.485631840615342,0.5063186135183583,0.0,0.0,0.0,126,7.376180486278773e-16,0,1735644242188269615,map,0.950342760106551,0.3225788792414085,0.0275453454551307,-0.5034987037428501,0.4997838357796096,-0.4889613327366383,0.5075647622827058,0.0,0.0,0.0,0,0.4674019813537597,0.9422436678511906,0.3587325547871949,-0.005173624242921,1.0,2.1540559081543763e-05,-0.0004565451808822,-0.0002263248091743,0.0,0.0,0.0,-0.0004565451808822,0.0132571544656906,0.0040387217547726,0.0,0.0,0.0,-0.0002263248091743,0.0040387217547726,0.0025384985247193,0.0,0.0,0.0,0.0,0.0,0.0,0.0,0.0,0.0,0.0,0.0,0.0,0.0,0.0,0.0,0.0,0.0,0.0,0.0,0.0,0.0,0,0,0,1,24,,0
2.400544682,0,1735643777088230371,map,0.9668828992549422,-0.2238719490676224,0.0214952184058826,-0.50102094364187,0.4960410397760479,-0.4907033090490846,0.5119878547176541,0.0,0.0,0.0,1,4.7057985980147876e-11,0,1735643777088253974,map,0.9896034965100332,-0.2532543455029954,0.1445631358118852,-0.4980589756614075,0.4765092075050017,-0.4945853596200089,0.5293973498003287,0.0,0.0,0.0,16,1.0210817395321384e-22,0,1735643777088270664,map,0.9575975819389776,0.0481318449375141,0.0274702000992568,-0.5023710630971491,0.4932968448341695,-0.4736054428791685,0.5291308177705396,0.0,0.0,0.0,17,0.0002036512305494,0,1735643777088284730,map,1.0136895261794403,-0.2639711457225208,0.2357011780810517,0.2293930048583712,-0.6455240494161303,0.684458910492961,-0.2493863484520309,0.0,0.0,0.0,121,2.245982617805085e-34,0,1735643777088297367,map,0.9773790629468612,0.1847051471637539,0.2480586296219598,-0.4769358716631603,0.4474261104594562,-0.5229107325838792,0.5467233447993732,0.0,0.0,0.0,122,1.8803445861753784e-16,0,1735643777088310956,map,0.9625383505109344,0.1863671879008573,0.1489072719891546,-0.5458736034991463,0.4592443109658554,-0.4213621621682298,0.5599737495108746,0.0,0.0,0.0,124,4.6709782708376224e-08,0,1735643777088322877,map,0.9618285113267052,-0.0455740338615245,0.2460084923599119,-0.5209363242274623,0.4889292209566583,-0.4770543991894445,0.5118521888290536,0.0,0.0,0.0,125,2.5897867179717617e-25,0,1735643777088343858,map,0.9609420449067018,-0.0390826890606802,0.1492624946850957,-0.5190315513877317,0.489961991767796,-0.4819339632542235,0.508215653388456,0.0,0.0,0.0,126,9.777466481581103e-15,0,1735644242188269615,map,0.9501930592481308,0.323116552746958,0.0273206307858381,-0.4983159538475235,0.5039146906871368,-0.4927251847582289,0.5049485983302546,0.0,0.0,0.0,0,0.4560938477516174,0.9417740057645048,0.3745516998889361,-0.0014806659624536,1.0,2.5972916134363007e-05,-0.0006165950384005,-0.0002588984366165,0.0,0.0,0.0,-0.0006165950384005,0.0187327567290616,0.005279239514023,0.0,0.0,0.0,-0.0002588984366165,0.005279239514023,0.0027642691644011,0.0,0.0,0.0,0.0,0.0,0.0,0.0,0.0,0.0,0.0,0.0,0.0,0.0,0.0,0.0,0.0,0.0,0.0,0.0,0.0,0.0,0,0,0,1,25,,0
2.501612174,0,1735643777088230371,map,0.9668828992549422,-0.2238719490676224,0.0214952184058826,-0.50102094364187,0.4960410397760479,-0.4907033090490846,0.5119878547176541,0.0,0.0,0.0,1,7.264093493386524e-11,0,1735643777088253974,map,0.9896034965100332,-0.2532543455029954,0.1445631358118852,-0.4980589756614075,0.4765092075050017,-0.4945853596200089,0.5293973498003287,0.0,0.0,0.0,16,1.3371684592701008e-22,0,1735643777088270664,map,0.9574338400016946,0.0451341316048607,0.0260416892596537,-0.503312243929337,0.4918384887741147,-0.4790127455219395,0.5247079908851641,0.0,0.0,0.0,17,0.0002101725258398,0,1735643777088284730,map,1.0136895261794403,-0.2639711457225208,0.2357011780810517,0.2293930048583712,-0.6455240494161303,0.684458910492961,-0.2493863484520309,0.0,0.0,0.0,121,2.093633039808748e-34,0,1735643777088297367,map,0.9760277263640338,0.1814562468687401,0.2468223751357318,-0.490967371775352,0.4673066239457412,-0.5120921817855277,0.5275766829784804,0.0,0.0,0.0,122,8.796559579966567e-17,0,1735643777088310956,map,0.9630951490681938,0.1856314467673229,0.1476482127104029,-0.5317752155083585,0.4675196151276335,-0.4348467677394063,0.5563711155591552,0.0,0.0,0.0,124,3.9524632455822946e-08,0,1735643777088322877,map,0.9618285113267052,-0.0455740338615245,0.2460084923599119,-0.5209363242274623,0.4889292209566583,-0.4770543991894445,0.5118521888290536,0.0,0.0,0.0,125,1.4722498748188102e-25,0,1735643777088343858,map,0.9609420449067018,-0.0390826890606802,0.1492624946850957,-0.5190315513877317,0.489961991767796,-0.4819339632542235,0.508215653388456,0.0,0.0,0.0,126,8.474649340574e-15,0,1735644242188269615,map,0.950627937659842,0.3211147932376252,0.025577865146424,-0.5087099228729488,0.5061897252627515,-0.4811921301115786,0.5034285553360092,0.0,0.0,0.0,0,0.4494267702102661,0.9415668519334018,0.3825090572318661,-5.9307613880942505e-05,1.0,2.6046775565019115e-05,-0.000634089771092,-0.0002563018001208,0.0,0.0,0.0,-0.000634089771092,0.0195952544827132,0.0053589482477055,0.0,0.0,0.0,-0.0002563018001208,0.0053589482477055,0.0027084576084928,0.0,0.0,0.0,0.0,0.0,0.0,0.0,0.0,0.0,0.0,0.0,0.0,0.0,0.0,0.0,0.0,0.0,0.0,0.0,0.0,0.0,0,0,0,1,26,,0
