%time,field.boxes0.header.seq,field.boxes0.header.stamp,field.boxes0.header.frame_id,field.boxes0.pose.position.x,field.boxes0.pose.position.y,field.boxes0.pose.position.z,field.boxes0.pose.orientation.x,field.boxes0.pose.orientation.y,field.boxes0.pose.orientation.z,field.boxes0.pose.orientation.w,field.boxes0.scale.x,field.boxes0.scale.y,field.boxes0.scale.z,field.boxes0.id,field.boxes0.pdf,field.boxes1.header.seq,field.boxes1.header.stamp,field.boxes1.header.frame_id,field.boxes1.pose.position.x,field.boxes1.pose.position.y,field.boxes1.pose.position.z,field.boxes1.pose.orientation.x,field.boxes1.pose.orientation.y,field.boxes1.pose.orientation.z,field.boxes1.pose.orientation.w,field.boxes1.scale.x,field.boxes1.scale.y,field.boxes1.scale.z,field.boxes1.id,field.boxes1.pdf,field.boxes2.header.seq,field.boxes2.header.stamp,field.boxes2.header.frame_id,field.boxes2.pose.position.x,field.boxes2.pose.position.y,field.boxes2.pose.position.z,field.boxes2.pose.orientation.x,field.boxes2.pose.orientation.y,field.boxes2.pose.orientation.z,field.boxes2.pose.orientation.w,field.boxes2.scale.x,field.boxes2.scale.y,field.boxes2.scale.z,field.boxes2.id,field.boxes2.pdf,field.boxes3.header.seq,field.boxes3.header.stamp,field.boxes3.header.frame_id,field.boxes3.pose.position.x,field.boxes3.pose.position.y,field.boxes3.pose.position.z,field.boxes3.pose.orientation.x,field.boxes3.pose.orientation.y,field.boxes3.pose.orientation.z,field.boxes3.pose.orientation.w,field.boxes3.scale.x,field.boxes3.scale.y,field.boxes3.scale.z,field.boxes3.id,field.boxes3.pdf,field.boxes4.header.seq,field.boxes4.header.stamp,field.boxes4.header.frame_id,field.boxes4.pose.position.x,field.boxes4.pose.position.y,field.boxes4.pose.position.z,field.boxes4.pose.orientation.x,field.boxes4.pose.orientation.y,field.boxes4.pose.orientation.z,field.boxes4.pose.orientation.w,field.boxes4.scale.x,field.boxes4.scale.y,field.boxes4.scale.z,field.boxes4.id,field.boxes4.pdf,field.boxes5.header.seq,field.boxes5.header.stamp,field.boxes5.header.frame_id,field.boxes5.pose.position.x,field.boxes5.pose.position.y,field.boxes5.pose.position.z,field.boxes5.pose.orientation.x,field.boxes5.pose.orientation.y,field.boxes5.pose.orientation.z,field.boxes5.pose.orientation.w,field.boxes5.scale.x,field.boxes5.scale.y,field.boxes5.scale.z,field.boxes5.id,field.boxes5.pdf,field.boxes6.header.seq,field.boxes6.header.stamp,field.boxes6.header.frame_id,field.boxes6.pose.position.x,field.boxes6.pose.position.y,field.boxes6.pose.position.z,field.boxes6.pose.orientation.x,field.boxes6.pose.orientation.y,field.boxes6.pose.orientation.z,field.boxes6.pose.orientation.w,field.boxes6.scale.x,field.boxes6.scale.y,field.boxes6.scale.z,field.boxes6.id,field.boxes6.pdf,field.boxes7.header.seq,field.boxes7.header.stamp,field.boxes7.header.frame_id,field.boxes7.pose.position.x,field.boxes7.pose.position.y,field.boxes7.pose.position.z,field.boxes7.pose.orientation.x,field.boxes7.pose.orientation.y,field.boxes7.pose.orientation.z,field.boxes7.pose.orientation.w,field.boxes7.scale.x,field.boxes7.scale.y,field.boxes7.scale.z,field.boxes7.id,field.boxes7.pdf,field.boxes8.header.seq,field.boxes8.header.stamp,field.boxes8.header.frame_id,field.boxes8.pose.position.x,field.boxes8.pose.position.y,field.boxes8.pose.position.z,field.boxes8.pose.orientation.x,field.boxes8.pose.orientation.y,field.boxes8.pose.orientation.z,field.boxes8.pose.orientation.w,field.boxes8.scale.x,field.boxes8.scale.y,field.boxes8.scale.z,field.boxes8.id,field.boxes8.pdf,field.pose.pose.position.x,field.pose.pose.position.y,field.pose.pose.position.z,field.pose.pose.orientation.w,field.pose.covariance0,field.pose.covariance1,field.pose.covariance2,field.pose.covariance3,field.pose.covariance4,field.pose.covariance5,field.pose.covariance6,field.pose.covariance7,field.pose.covariance8,field.pose.covariance9,field.pose.covariance10,field.pose.covariance11,field.pose.covariance12,field.pose.covariance13,field.pose.covariance14,field.pose.covariance15,field.pose.covariance16,field.pose.covariance17,field.pose.covariance18,field.pose.covariance19,field.pose.covariance20,field.pose.covariance21,field.pose.covariance22,field.pose.covariance23,field.pose.covariance24,field.pose.covariance25,field.pose.covariance26,field.pose.covariance27,field.pose.covariance28,field.pose.covariance29,field.pose.covariance30,field.pose.covariance31,field.pose.covariance32,field.pose.covariance33,field.pose.covariance34,field.pose.covariance35,field.buttons0,field.buttons1,field.buttons2,field.buttons3,intersection_length,vacuum,desired_box
0.0,0,1735643777088230371,map,0.9800780120185382,-0.2232662715276622,0.0193220138064914,-0.4876070557612854,0.5027859197064768,-0.5037667484855082,0.505633010430551,0.0,0.0,0.0,1,0.1111111119389534,0,1735643777088253974,map,0.9752552993592344,-0.2496818102313264,0.1469854718339555,-0.5011458133451776,0.4919178892499399,-0.4940876714862339,0.5125885649210249,0.0,0.0,0.0,16,0.1111111119389534,0,1735643777088270664,map,0.9881895395748642,0.0529442681502156,0.0225521433237477,-0.4925168164242339,0.4950472016486637,-0.4926419631391041,0.519287348039228,0.0,0.0,0.0,17,0.1111111119389534,0,1735643777088284730,map,1.0166102959600225,-0.2654608044977146,0.2351491658442091,0.2857421491570918,-0.6341611129006136,0.6522585779722625,-0.3012471652005108,0.0,0.0,0.0,121,0.1111111119389534,0,1735643777088297367,map,1.0170001730032694,0.2051164294413951,0.2398229152115998,-0.5304348668770063,0.4734287309508085,-0.4714381217806628,0.5217759922068098,0.0,0.0,0.0,122,0.1111111119389534,0,1735643777088310956,map,1.0009556514337992,0.1990471129988176,0.1422301599220047,-0.4819121207985931,0.5017642658871557,-0.4900880717517985,0.5251733154233277,0.0,0.0,0.0,124,0.1111111119389534,0,1735643777088322877,map,1.0023889184981976,-0.0319189215820375,0.2399358601133831,-0.5038226774871717,0.5057674066151047,-0.4958218293076327,0.4944924202022934,0.0,0.0,0.0,125,0.1111111119389534,0,1735643777088343858,map,0.9968638700672996,-0.0272353753889614,0.1434914834010048,-0.47810574320372,0.462261134646551,-0.5295058333077405,0.5266432513608974,0.0,0.0,0.0,126,0.1111111119389534,0,1735644242188269615,map,0.9712187487821252,0.3272729299846813,0.0240003268446707,-0.4908742386401373,0.4944881779860922,-0.4848268307015483,0.5286462597080894,0.0,0.0,0.0,0,0.1111111119389534,0.988517205538274,0.0880981676864749,-0.6417172468781632,1.0,0.0,0.0,0.0,0.0,0.0,0.0,0.0,0.0,0.0,0.0,0.0,0.0,0.0,0.0,0.0,0.0,0.0,0.0,0.0,0.0,0.0,0.0,0.0,0.0,0.0,0.0,0.0,0.0,0.0,0.0,0.0,0.0,0.0,0.0,0.0,0.0,0,0,1,0,1,,122
0.10033599,0,1735643777088230371,map,0.97880632837617,-0.2230375939661269,0.0204875865445181,-0.489959828276764,0.4916458872187036,-0.5033620120473389,0.5146361560205351,0.0,0.0,0.0,1,0.1111111119389534,0,1735643777088253974,map,0.9750884619912324,-0.2498292746905008,0.1475925030055485,-0.4973026119612549,0.4904824698336403,-0.498569393453318,0.5133669436514163,0.0,0.0,0.0,16,0.1111111119389534,0,1735643777088270664,map,0.9820704210489216,0.052233069188483,0.0247171011564481,-0.4807684812145248,0.5009920643520432,-0.502260578402239,0.5153667920132281,0.0,0.0,0.0,17,0.1111111119389534,0,1735643777088284730,map,1.011254890257387,-0.2640865536134573,0.2360065627091507,-0.487233979642101,0.5105703749882777,-0.4967121027583415,0.5051712860405242,0.0,0.0,0.0,121,0.1111111119389534,0,1735643777088297367,map,1.0035293307840267,0.2005133871819441,0.2404624946382895,-0.5077859447305383,0.4946712749516248,-0.4920976579277933,0.5052659291242874,0.0,0.0,0.0,122,0.1111111119389534,0,1735643777088310956,map,1.000353338874682,0.1989174858663074,0.1431491287292029,-0.4799422466012099,0.5033708150608717,-0.4881503739824638,0.5272404336288318,0.0,0.0,0.0,124,0.1111111119389534,0,1735643777088322877,map,0.9983454523542156,-0.0314617128410933,0.2411276481703858,0.4232938019457706,-0.5017299766541754,0.5734215720055543,-0.4901806692634607,0.0,0.0,0.0,125,0.1111111119389534,0,1735643777088343858,map,1.0020827059710768,-0.0271430661718741,0.1439992436745649,-0.505097308898155,0.5056945003309845,-0.4964803468681329,0.4926023203889079,0.0,0.0,0.0,126,0.1111111119389534,0,1735644242188269615,map,0.9757707878900914,0.3295484549138201,0.0232047628287979,-0.5000875950699009,0.490500047010961,-0.4847295437662863,0.5237932517125206,0.0,0.0,0.0,0,0.1111111119389534,0.988517205538274,0.0880981676864749,-0.6417172468781632,1.0,0.0,0.0,0.0,0.0,0.0,0.0,0.0,0.0,0.0,0.0,0.0,0.0,0.0,0.0,0.0,0.0,0.0,0.0,0.0,0.0,0.0,0.0,0.0,0.0,0.0,0.0,0.0,0.0,0.0,0.0,0.0,0.0,0.0,0.0,0.0,0.0,0,0,0,0,1,,122
0.199272713,0,1735643777088230371,map,0.9782280127392716,-0.223511901204939,0.0215153844050117,-0.4872150047224942,0.4946132206343481,-0.5082622023572327,0.509557489202105,0.0,0.0,0.0,1,0.1111111119389534,0,1735643777088253974,map,0.9791156184521628,-0.2519039024890555,0.1480351133218548,-0.5149949560590501,0.4971141430859739,-0.4809962419337822,0.5062611373818992,0.0,0.0,0.0,16,0.1111111119389534,0,1735643777088270664,map,0.9791358352936396,0.0516084373594527,0.0262453009168965,-0.4912950946460567,0.487209811377502,-0.5005242899141099,0.5203183303326894,0.0,0.0,0.0,17,0.1111111119389534,0,1735643777088284730,map,1.0083069938668343,-0.2636947060383046,0.236924768471063,-0.4848210767498505,0.4925805352012324,-0.5012279378483696,0.5206567911784641,0.0,0.0,0.0,121,0.1111111119389534,0,1735643777088297367,map,1.0037473198782454,0.2006130985639556,0.2413729389460706,-0.5028754946453503,0.4933101850145649,-0.4971504881065828,0.5065596612655586,0.0,0.0,0.0,122,0.1111111119389534,0,1735643777088310956,map,1.0026224027665231,0.1997056015953276,0.1437176604142351,-0.4923088512464868,0.506318953603071,-0.4771747932309137,0.5230462015077549,0.0,0.0,0.0,124,0.1111111119389534,0,1735643777088322877,map,0.9879390203194688,-0.0317877200370445,0.2419796018978949,-0.5353700150564471,0.5472063545378707,-0.458155195515356,0.4517056224513038,0.0,0.0,0.0,125,0.1111111119389534,0,1735643777088343858,map,0.9987162148369078,-0.0271937567929918,0.1452355176595317,-0.523996363164221,0.4820788850880825,-0.4753380306613592,0.5167993000671368,0.0,0.0,0.0,126,0.1111111119389534,0,1735644242188269615,map,0.969261745589994,0.3264652549169988,0.0257666699456157,-0.4963855457315523,0.4888997762576342,-0.4805388424922857,0.5325981783861065,0.0,0.0,0.0,0,0.1111111119389534,0.988517205538274,0.0880981676864749,-0.6417172468781632,1.0,0.0,0.0,0.0,0.0,0.0,0.0,0.0,0.0,0.0,0.0,0.0,0.0,0.0,0.0,0.0,0.0,0.0,0.0,0.0,0.0,0.0,0.0,0.0,0.0,0.0,0.0,0.0,0.0,0.0,0.0,0.0,0.0,0.0,0.0,0.0,0.0,0,0,0,0,1,,122
0.29849251,0,1735643777088230371,map,0.9765994502700456,-0.2227558089773683,0.0221021838489113,-0.4861678992144352,0.4908408325100608,-0.5088222672053447,0.5136301697819812,0.0,0.0,0.0,1,0.1111111119389534,0,1735643777088253974,map,0.9796172945632716,-0.2520095995645615,0.1480554362762351,-0.5169736534937402,0.4989116068016895,-0.4789151066176761,0.50444600389464,0.0,0.0,0.0,16,0.1111111119389534,0,1735643777088270664,map,0.9793246043216284,0.0517049620376484,0.0262750483853773,-0.4912944122769436,0.488663612677445,-0.4992881190257874,0.5201432959388905,0.0,0.0,0.0,17,0.1111111119389534,0,1735643777088284730,map,1.0086764435828437,-0.2636756314442826,0.2369956998756449,-0.4877300113713101,0.4960941160233417,-0.498066743670284,0.5176288080318183,0.0,0.0,0.0,121,0.1111111119389534,0,1735643777088297367,map,1.003956377343521,0.2007818284699612,0.2413795549533009,-0.498799298512566,0.4917218353181611,-0.5015495948939188,0.5077961208363628,0.0,0.0,0.0,122,0.1111111119389534,0,1735643777088310956,map,1.002531752262393,0.199768117781166,0.1437579229488901,-0.4936722655128788,0.507842215812989,-0.4750304833648723,0.5222355962357139,0.0,0.0,0.0,124,0.1111111119389534,0,1735643777088322877,map,0.9889991152500768,-0.0317310533353209,0.2420376478153474,0.541686358328589,-0.5392771071129654,0.4545919290544443,-0.4572770155858938,0.0,0.0,0.0,125,0.1111111119389534,0,1735643777088343858,map,0.9991910809154227,-0.0271636596751705,0.1452089858420907,-0.5225569538007964,0.4854000307499918,-0.4774029920421875,0.5132323288448493,0.0,0.0,0.0,126,0.1111111119389534,0,1735644242188269615,map,0.9744911170134624,0.3296081040436375,0.0242867048830661,-0.5021664429848127,0.4909897875071332,-0.4740308211932456,0.531086313759392,0.0,0.0,0.0,0,0.1111111119389534,0.988517205538274,0.0880981676864749,-0.6417172468781632,1.0,0.0,0.0,0.0,0.0,0.0,0.0,0.0,0.0,0.0,0.0,0.0,0.0,0.0,0.0,0.0,0.0,0.0,0.0,0.0,0.0,0.0,0.0,0.0,0.0,0.0,0.0,0.0,0.0,0.0,0.0,0.0,0.0,0.0,0.0,0.0,0.0,0,0,0,0,1,,122
0.398841787,0,1735643777088230371,map,0.9773342758555448,-0.2231073164811397,0.0219351575607773,-0.4865476527504056,0.4921751838516531,-0.5085834922063057,0.5122282708508972,0.0,0.0,0.0,1,0.1111111119389534,0,1735643777088253974,map,0.979277227283745,-0.2519210369531837,0.1481335763699435,-0.5148082193046142,0.4974203879082703,-0.4811092272041712,0.5060428504865996,0.0,0.0,0.0,16,0.1111111119389534,0,1735643777088270664,map,0.979000211424385,0.0516321021919289,0.0264467469643273,-0.4909433840783674,0.4871624084591006,-0.5005969813066119,0.5206246668385169,0.0,0.0,0.0,17,0.1111111119389534,0,1735643777088284730,map,1.0081871245849323,-0.2635914357199559,0.2370329197273192,-0.4855755884249259,0.4916798744413479,-0.500301847529142,0.5216946524108276,0.0,0.0,0.0,121,0.1111111119389534,0,1735643777088297367,map,1.003415338055314,0.2004359315695226,0.2414597696648084,-0.5074619854039184,0.4942311566133786,-0.4929525286309027,0.505188778298681,0.0,0.0,0.0,122,0.1111111119389534,0,1735643777088310956,map,1.001938384699892,0.1994465790729734,0.1438921501197713,-0.4903003337103944,0.5046992621699751,-0.4787967881005859,0.5250122600788679,0.0,0.0,0.0,124,0.1111111119389534,0,1735643777088322877,map,0.9874812051526264,-0.0317860887787932,0.2419964950691231,-0.5393196783118326,0.5402572433587652,-0.4539026688009406,0.4595963042055419,0.0,0.0,0.0,125,0.1111111119389534,0,1735643777088343858,map,0.9975784896249708,-0.027171001285168,0.1454321885235467,-0.5273408672927216,0.4758141740842015,-0.4716501551332799,0.5225501053356337,0.0,0.0,0.0,126,0.1111111119389534,0,1735644242188269615,map,0.9672449233544244,0.3253458841054667,0.026583873645616,-0.4932575251674525,0.4901387621808439,-0.4828187529050806,0.5323035407703883,0.0,0.0,0.0,0,0.1111111119389534,0.988517205538274,0.0880981676864749,-0.6417172468781632,1.0,0.0,0.0,0.0,0.0,0.0,0.0,0.0,0.0,0.0,0.0,0.0,0.0,0.0,0.0,0.0,0.0,0.0,0.0,0.0,0.0,0.0,0.0,0.0,0.0,0.0,0.0,0.0,0.0,0.0,0.0,0.0,0.0,0.0,0.0,0.0,0.0,0,0,0,0,1,,122
0.499026531,0,1735643777088230371,map,0.9775644960829132,-0.2231845828500964,0.0218467183293493,-0.4858732807150388,0.4933471912559671,-0.5097577472417234,0.5105709971141095,0.0,0.0,0.0,1,0.1111111119389534,0,1735643777088253974,map,0.97960515253754,-0.2520884810772295,0.148138631492215,-0.5169127983200689,0.4987893416942605,-0.4790103199424738,0.5045388636504937,0.0,0.0,0.0,16,0.1111111119389534,0,1735643777088270664,map,0.9801738743915333,0.0517071705413708,0.0261007743310205,-0.4946238454785432,0.4838793685400384,-0.4958234401230914,0.524754346727891,0.0,0.0,0.0,17,0.1111111119389534,0,1735643777088284730,map,1.0086212954497658,-0.2637480081860137,0.2370715378650945,-0.4877138314118133,0.496288870414503,-0.497879197715797,0.5176377886458648,0.0,0.0,0.0,121,0.1111111119389534,0,1735643777088297367,map,1.0040005178594456,0.2008168179246658,0.2414913737461561,-0.4911080749156278,0.4935760874658915,-0.5091142900706144,0.5059625917796925,0.0,0.0,0.0,122,0.1111111119389534,0,1735643777088310956,map,1.0033006903725048,0.1999094249778717,0.1437849665430329,-0.495718066731958,0.5075614487801104,-0.4734889336198777,0.5219705008592697,0.0,0.0,0.0,124,0.1111111119389534,0,1735643777088322877,map,0.9884098905918663,-0.031782379324428,0.2420506101664705,0.5531679233175628,-0.5245693008488859,0.444171158030051,-0.4706849047863015,0.0,0.0,0.0,125,0.1111111119389534,0,1735643777088343858,map,0.9973158424254788,-0.0272283637554664,0.1454855091550504,-0.5270553182500012,0.4754028904903016,-0.4721679339788865,0.5227448950874284,0.0,0.0,0.0,126,0.1111111119389534,0,1735644242188269615,map,0.9726139501162674,0.3284251914272494,0.0248894593471152,-0.5004904531859012,0.493544486233935,-0.4764911420488442,0.5280902744103894,0.0,0.0,0.0,0,0.1111111119389534,0.988517205538274,0.0880981676864749,-0.6417172468781632,1.0,0.0,0.0,0.0,0.0,0.0,0.0,0.0,0.0,0.0,0.0,0.0,0.0,0.0,0.0,0.0,0.0,0.0,0.0,0.0,0.0,0.0,0.0,0.0,0.0,0.0,0.0,0.0,0.0,0.0,0.0,0.0,0.0,0.0,0.0,0.0,0.0,0,0,0,0,1,,122
0.599603789,0,1735643777088230371,map,0.97663640365051,-0.2229243472299321,0.0221566853026365,-0.4866036077673705,0.4907529322211452,-0.5073448915546998,0.514761740456182,0.0,0.0,0.0,1,0.1111111119389534,0,1735643777088253974,map,0.9796287187665632,-0.2521091296502969,0.1481120422795336,-0.5170302473472842,0.4991679873778389,-0.4788032259249826,0.5042405324336737,0.0,0.0,0.0,16,0.1111111119389534,0,1735643777088270664,map,0.9798989273099938,0.0516633798554545,0.0261757536872877,-0.4930062960615612,0.48681415748531,-0.4974592150667263,0.5220067982897592,0.0,0.0,0.0,17,0.1111111119389534,0,1735643777088284730,map,1.0081115828571694,-0.2635853682853897,0.2370467221400909,-0.4867834615612324,0.495418485602486,-0.4993925511101277,0.517889433730331,0.0,0.0,0.0,121,0.1111111119389534,0,1735643777088297367,map,1.0041134305179371,0.2007422691915443,0.241465325946413,-0.4960721361757174,0.4914158458173784,-0.5043563925718484,0.5079837905500172,0.0,0.0,0.0,122,0.1111111119389534,0,1735643777088310956,map,1.003758211799057,0.2000265516877078,0.1436744139762101,-0.49729818526397,0.5061484938478498,-0.4724167807417043,0.5228102929192964,0.0,0.0,0.0,124,0.1111111119389534,0,1735643777088322877,map,0.9893271273428876,-0.031829931568656,0.2420909132131189,0.5442799788830804,-0.5323018184841074,0.4523649948150114,-0.4645212482670313,0.0,0.0,0.0,125,0.1111111119389534,0,1735643777088343858,map,0.9970666452565156,-0.0272403528734281,0.1454777516600401,-0.5274237066016554,0.4739744397785255,-0.4715978113402971,0.5241831440348366,0.0,0.0,0.0,126,0.1111111119389534,0,1735644242188269615,map,0.9727804703802212,0.3285691411755509,0.0248497695430438,-0.5000817843583232,0.4943134989746398,-0.4779987893379213,0.5263929436038508,0.0,0.0,0.0,0,0.1111111119389534,0.988517205538274,0.0880981676864749,-0.6417172468781632,1.0,0.0,0.0,0.0,0.0,0.0,0.0,0.0,0.0,0.0,0.0,0.0,0.0,0.0,0.0,0.0,0.0,0.0,0.0,0.0,0.0,0.0,0.0,0.0,0.0,0.0,0.0,0.0,0.0,0.0,0.0,0.0,0.0,0.0,0.0,0.0,0.0,0,0,0,0,1,,122
0.698240042,0,1735643777088230371,map,0.9793995479188452,-0.2237933463160354,0.0212041726036794,-0.4865653684023857,0.5007788541152002,-0.5069257233587864,0.5054710600417092,0.0,0.0,0.0,1,0.1111111119389534,0,1735643777088253974,map,0.9796183597038646,-0.2520469465677428,0.1480798909967937,-0.5171676830767191,0.4992518722951217,-0.478656750333727,0.504155601923484,0.0,0.0,0.0,16,0.1111111119389534,0,1735643777088270664,map,0.9791687908119366,0.0516352571226445,0.0263677495982561,-0.49133676196609,0.4871355637790794,-0.5002376310486097,0.5206240883067085,0.0,0.0,0.0,17,0.1111111119389534,0,1735643777088284730,map,1.008695612532833,-0.2637690186803782,0.2370156339739822,-0.4859826061757591,0.4949346647598689,-0.4993287539092269,0.5191641162803068,0.0,0.0,0.0,121,0.1111111119389534,0,1735643777088297367,map,1.0040367887927324,0.2007957240415614,0.2414361899573568,-0.493418179954359,0.4894595004521381,-0.5072394580050262,0.5095841729787521,0.0,0.0,0.0,122,0.1111111119389534,0,1735643777088310956,map,1.003354925809529,0.1999800804295788,0.1437153010525768,-0.4980163996665946,0.5063896805270763,-0.4708395648658678,0.5233156421087839,0.0,0.0,0.0,124,0.1111111119389534,0,1735643777088322877,map,0.9901945177921934,-0.0317677991356543,0.2421332498799389,0.5432504454961745,-0.5334814346731227,0.4543676274906256,-0.4624138529670739,0.0,0.0,0.0,125,0.1111111119389534,0,1735643777088343858,map,0.9971624704461632,-0.0271816780926204,0.145442261514005,-0.5278995160731987,0.474830354272539,-0.471233587433809,0.5232562867900974,0.0,0.0,0.0,126,0.1111111119389534,0,1735644242188269615,map,0.9730060676353742,0.3287269470256573,0.0247658706865087,-0.500642743916871,0.4931284545851704,-0.4763274209584818,0.5284821267411692,0.0,0.0,0.0,0,0.1111111119389534,0.988517205538274,0.0880981676864749,-0.6417172468781632,1.0,0.0,0.0,0.0,0.0,0.0,0.0,0.0,0.0,0.0,0.0,0.0,0.0,0.0,0.0,0.0,0.0,0.0,0.0,0.0,0.0,0.0,0.0,0.0,0.0,0.0,0.0,0.0,0.0,0.0,0.0,0.0,0.0,0.0,0.0,0.0,0.0,0,0,0,0,1,,122
0.798436949,0,1735643777088230371,map,0.9778011427423372,-0.2232781076228673,0.0217988229198644,-0.4865115928026173,0.4938032845664433,-0.5092138573265774,0.5100647348392552,0.0,0.0,0.0,1,0.1111111119389534,0,1735643777088253974,map,0.9796462530755984,-0.2520849417326209,0.1481169226666047,-0.5170446211089161,0.4992395424127989,-0.4787147417887659,0.5042389662331849,0.0,0.0,0.0,16,0.1111111119389534,0,1735643777088270664,map,0.9796572872641875,0.0516685647750541,0.0262612033137715,-0.4926638396722218,0.4865905797303567,-0.4977982207083827,0.5222153581202552,0.0,0.0,0.0,17,0.1111111119389534,0,1735643777088284730,map,1.0086790568259814,-0.2637715218447028,0.2370516880673035,-0.4870869552859307,0.4946150245514223,-0.4982790700729211,0.5194422429929452,0.0,0.0,0.0,121,0.1111111119389534,0,1735643777088297367,map,1.0039091086473757,0.2006635648171281,0.241471901215572,-0.4987739636064704,0.4921286254228491,-0.5015808358609527,0.5073959148088758,0.0,0.0,0.0,122,0.1111111119389534,0,1735643777088310956,map,1.0032009278984058,0.1998705681445027,0.1437669134442212,-0.4960987798217324,0.5065783370865011,-0.4731741605505308,0.522848546752655,0.0,0.0,0.0,124,0.1111111119389534,0,1735643777088322877,map,0.9889054888702616,-0.0318094877993216,0.2421198469439276,0.542263792167465,-0.5385997579692732,0.454140172975811,-0.4578394737340816,0.0,0.0,0.0,125,0.1111111119389534,0,1735643777088343858,map,0.9973189008620164,-0.0272130717913633,0.1454656700187881,-0.5275196591942286,0.4753479285616421,-0.4716314699069738,0.5228107808463283,0.0,0.0,0.0,126,0.1111111119389534,0,1735644242188269615,map,0.972218507883498,0.3282300242025562,0.0250168502850902,-0.5003214305098485,0.4941625878675573,-0.4770446243288403,0.5271719162887686,0.0,0.0,0.0,0,0.1111111119389534,0.988517205538274,0.0880981676864749,-0.6417172468781632,1.0,0.0,0.0,0.0,0.0,0.0,0.0,0.0,0.0,0.0,0.0,0.0,0.0,0.0,0.0,0.0,0.0,0.0,0.0,0.0,0.0,0.0,0.0,0.0,0.0,0.0,0.0,0.0,0.0,0.0,0.0,0.0,0.0,0.0,0.0,0.0,0.0,0,0,0,0,1,,122
0.899088758,0,1735643777088230371,map,0.9773612281010297,-0.2231244791742941,0.0219524360538901,-0.4866958443402585,0.4925505975035203,-0.5083571296805164,0.5119512600861871,0.0,0.0,0.0,1,0.1111111119389534,0,1735643777088253974,map,0.97956179277829,-0.2520285920367752,0.1481391568774404,-0.5171105073815419,0.4991084100894045,-0.4787345143561929,0.5042824435748001,0.0,0.0,0.0,16,0.1111111119389534,0,1735643777088270664,map,0.9796753711477876,0.0516951824422266,0.0262772155713794,-0.4925679166622088,0.486850111633352,-0.4980276714466412,0.5218450486026291,0.0,0.0,0.0,17,0.1111111119389534,0,1735643777088284730,map,1.0086716115115069,-0.2637484479350106,0.2370679730027525,-0.4867982784839908,0.4966709402249943,-0.4987708801419466,0.5172746101670475,0.0,0.0,0.0,121,0.1111111119389534,0,1735643777088297367,map,1.0038898883116745,0.2007561304780735,0.2414864883956272,-0.4904095092982081,0.4884297522979897,-0.5101066205213804,0.510613480002508,0.0,0.0,0.0,122,0.1111111119389534,0,1735643777088310956,map,1.0038800779346388,0.2001234313257855,0.1436972141944002,-0.4978654605818592,0.5062165973237558,-0.4719446553054874,0.522630827718913,0.0,0.0,0.0,124,0.1111111119389534,0,1735643777088322877,map,0.9896997041909532,-0.0317783900208337,0.2421675298069854,0.5445495727731384,-0.5343633261953888,0.4529680541953798,-0.4612391356860823,0.0,0.0,0.0,125,0.1111111119389534,0,1735643777088343858,map,0.9984232463939424,-0.027206970423158,0.1453815183005096,-0.5252144227402211,0.4813316377305844,-0.4743297831068949,0.5171855774507015,0.0,0.0,0.0,126,0.1111111119389534,0,1735644242188269615,map,0.9719114088201998,0.3280395294853669,0.0251366803856828,-0.5009180620759757,0.4930901101378581,-0.4760205506351246,0.5285335124127108,0.0,0.0,0.0,0,0.1111111119389534,0.988517205538274,0.0880981676864749,-0.6417172468781632,1.0,0.0,0.0,0.0,0.0,0.0,0.0,0.0,0.0,0.0,0.0,0.0,0.0,0.0,0.0,0.0,0.0,0.0,0.0,0.0,0.0,0.0,0.0,0.0,0.0,0.0,0.0,0.0,0.0,0.0,0.0,0.0,0.0,0.0,0.0,0.0,0.0,0,0,0,0,1,,122
0.999276087,0,1735643777088230371,map,0.9766772305046036,-0.2228560860738168,0.0221104869589343,-0.4861357723747768,0.4914605802528234,-0.5088020781872267,0.5130876670779541,0.0,0.0,0.0,1,0.1111111119389534,0,1735643777088253974,map,0.9797220083198104,-0.2521265045148723,0.148075699247655,-0.5170625089401881,0.4993629707086015,-0.4789006489301655,0.503921773480592,0.0,0.0,0.0,16,0.1111111119389534,0,1735643777088270664,map,0.979439630789623,0.0516197877121637,0.0262719292649686,-0.4929714818112667,0.4843698695763683,-0.4988371546469529,0.5229975532553746,0.0,0.0,0.0,17,0.1111111119389534,0,1735643777088284730,map,1.0079471047630582,-0.2635239206200769,0.2370154595254075,-0.4862415342497174,0.4933962154362647,-0.4996949326921607,0.5200329981889895,0.0,0.0,0.0,121,0.1111111119389534,0,1735643777088297367,map,1.0040983474856475,0.2007593690284112,0.2414551965804675,-0.4972250822769031,0.4926161276276275,-0.5030693892356415,0.5069691883832461,0.0,0.0,0.0,122,0.1111111119389534,0,1735643777088310956,map,1.0029185391423274,0.1997695220738205,0.1437688446929271,-0.4926505301526337,0.5075547272262274,-0.476836437341925,0.5218339448844814,0.0,0.0,0.0,124,0.1111111119389534,0,1735643777088322877,map,0.9874249671908758,-0.0317754211235706,0.2419613770639647,0.5552744010163241,-0.5255600917038808,0.4418458284986662,-0.469285833392079,0.0,0.0,0.0,125,0.1111111119389534,0,1735643777088343858,map,0.9970187246064608,-0.0272198975786404,0.1454663757172041,-0.5270441468892356,0.4737141529438128,-0.4717895367679098,0.5246274883446782,0.0,0.0,0.0,126,0.1111111119389534,0,1735644242188269615,map,0.9726719326578188,0.3284624762252032,0.024868508701556,-0.5008394225745556,0.4931142706183517,-0.4758439895514877,0.5287444434842232,0.0,0.0,0.0,0,0.1111111119389534,0.988517205538274,0.0880981676864749,-0.6417172468781632,1.0,0.0,0.0,0.0,0.0,0.0,0.0,0.0,0.0,0.0,0.0,0.0,0.0,0.0,0.0,0.0,0.0,0.0,0.0,0.0,0.0,0.0,0.0,0.0,0.0,0.0,0.0,0.0,0.0,0.0,0.0,0.0,0.0,0.0,0.0,0.0,0.0,0,0,0,0,1,,122
1.099157668,0,1735643777088230371,map,0.9777828683487082,-0.2232811124412019,0.0217896091862578,-0.4867438321096236,0.4934472251044439,-0.5082443364475222,0.5111535702790122,0.0,0.0,0.0,1,0.1111111119389534,0,1735643777088253974,map,0.9797142333979154,-0.2520997131983927,0.1480965951334035,-0.5171283012990866,0.4990467529060033,-0.4789269052288612,0.5041425174069348,0.0,0.0,0.0,16,0.1111111119389534,0,1735643777088270664,map,0.979453398399595,0.0516592797493929,0.0263227314781201,-0.4916032222457686,0.4885143226302179,-0.4989307312252864,0.5203346556800903,0.0,0.0,0.0,17,0.1111111119389534,0,1735643777088284730,map,1.008139532265069,-0.2635488413417993,0.2370427947836667,-0.4867289707158079,0.4952995795388196,-0.4994714982204635,0.5179782408943491,0.0,0.0,0.0,121,0.1111111119389534,0,1735643777088297367,map,1.0039428362830771,0.2007003032045143,0.2414590383450843,-0.4979289652783912,0.4920027145100266,-0.5021483305025698,0.5077864990574665,0.0,0.0,0.0,122,0.1111111119389534,0,1735643777088310956,map,1.003428193034227,0.2000014695944163,0.1437323401186718,-0.4960041584886915,0.5088913459385037,-0.4735729221676985,0.5203250524243191,0.0,0.0,0.0,124,0.1111111119389534,0,1735643777088322877,map,0.9886825552364538,-0.0317817107504025,0.242038449809499,0.5474535536598396,-0.529626204442518,0.4487059138018427,-0.4673903005757382,0.0,0.0,0.0,125,0.1111111119389534,0,1735643777088343858,map,0.9974353148243652,-0.0272020126688844,0.1454377596011493,-0.527847502640957,0.4761071004553435,-0.4714191788794434,0.5219798852794447,0.0,0.0,0.0,126,0.1111111119389534,0,1735644242188269615,map,0.9728885989128596,0.3286527384078727,0.0248181792090206,-0.5005587704773565,0.4941962322508377,-0.4769335088631473,0.5270155874836715,0.0,0.0,0.0,0,0.1111111119389534,0.988517205538274,0.0880981676864749,-0.6417172468781632,1.0,0.0,0.0,0.0,0.0,0.0,0.0,0.0,0.0,0.0,0.0,0.0,0.0,0.0,0.0,0.0,0.0,0.0,0.0,0.0,0.0,0.0,0.0,0.0,0.0,0.0,0.0,0.0,0.0,0.0,0.0,0.0,0.0,0.0,0.0,0.0,0.0,0,0,0,1,1,,122
1.200332867,0,1735643777088230371,map,0.9785056808667896,-0.2234980117971664,0.0215377961875374,-0.4867178342993951,0.4967752122477072,-0.5069624646868766,0.5092241134017116,0.0,0.0,0.0,1,0.1111111119389534,0,1735643777088253974,map,0.9795437653391016,-0.2519938416902599,0.1481105903086009,-0.5172454370550645,0.4990741710814285,-0.4786887077738549,0.5042214301821144,0.0,0.0,0.0,16,0.1111111119389534,0,1735643777088270664,map,0.979738114990872,0.0517000253238109,0.0261805443534408,-0.4938418661259911,0.4846036808088896,-0.4977215342770326,0.523022712819043,0.0,0.0,0.0,17,0.1111111119389534,0,1735643777088284730,map,1.0080424713233544,-0.2634939190337578,0.2370267939917446,-0.4857122079785351,0.4927187545432663,-0.5004877956346594,0.5204073850001631,0.0,0.0,0.0,121,0.1111111119389534,0,1735643777088297367,map,1.0037283186680657,0.2006680278879196,0.2414366802934073,-0.4996327909213504,0.4941098636442902,-0.5006377232050964,0.5055535451261123,0.0,0.0,0.0,122,0.1111111119389534,0,1735643777088310956,map,1.0032187120602485,0.1999510525541376,0.1437301543176061,-0.4958334586719808,0.5078808042895269,-0.4734965226203852,0.5215432033513687,0.0,0.0,0.0,124,0.1111111119389534,0,1735643777088322877,map,0.9896000472488592,-0.0317673705979034,0.2421148900392343,0.5397432122658338,-0.5383967714471946,0.4564651087666025,-0.4587437038117146,0.0,0.0,0.0,125,0.1111111119389534,0,1735643777088343858,map,0.9976402943893368,-0.0271690703491309,0.145408705386684,-0.5270666796635739,0.4773519142841163,-0.4722500586010069,0.5208797819737778,0.0,0.0,0.0,126,0.1111111119389534,0,1735644242188269615,map,0.9733373683605212,0.3288846000667758,0.0246933731386229,-0.5004169874752616,0.490765933437955,-0.4768096648538394,0.5304565776054866,0.0,0.0,0.0,0,0.1111111119389534,0.988517205538274,0.0880981676864749,-0.6417172468781632,1.0,0.0,0.0,0.0,0.0,0.0,0.0,0.0,0.0,0.0,0.0,0.0,0.0,0.0,0.0,0.0,0.0,0.0,0.0,0.0,0.0,0.0,0.0,0.0,0.0,0.0,0.0,0.0,0.0,0.0,0.0,0.0,0.0,0.0,0.0,0.0,0.0,0,0,0,1,1,,122
1.29973971,0,1735643777088230371,map,0.9794992849842122,-0.2231033399596136,0.0220008833328105,-0.3988112367514145,0.7977803786842352,-0.4011004447178426,0.2088408438845109,0.0,0.0,0.0,1,0.1111111119389534,0,1735643777088253974,map,0.9795674965419442,-0.2516517928049346,0.1484886341378106,-0.5146909327120919,0.4971255851634941,-0.4812670362270106,0.506301724469787,0.0,0.0,0.0,16,0.1111111119389534,0,1735643777088270664,map,0.9799204915555816,0.051995738758071,0.0265924771399692,-0.4935318176910129,0.4846074360535838,-0.4980765340478217,0.5229739420650763,0.0,0.0,0.0,17,0.1111111119389534,0,1735643777088284730,map,1.009164619926306,-0.2636008203169101,0.2373982443915227,-0.4850786202780057,0.4931697551522996,-0.5000762985254484,0.5209664292498071,0.0,0.0,0.0,121,0.1111111119389534,0,1735643777088297367,map,1.0043138632824538,0.2011218651776691,0.2418338734048066,-0.4902782222665712,0.4881475189532646,-0.5103114002294503,0.5108047956967134,0.0,0.0,0.0,122,0.1111111119389534,0,1735643777088310956,map,1.0043580076893497,0.2005305525549476,0.1440225910740947,-0.4981590477395706,0.5073840328740306,-0.4717651417462928,0.5213795713036612,0.0,0.0,0.0,124,0.1111111119389534,0,1735643777088322877,map,0.9888192810204004,-0.0314878580800721,0.2424597077658139,-0.540071572082795,0.5408569452118033,-0.4554226766129334,0.4564938635632315,0.0,0.0,0.0,125,0.1111111119389534,0,1735643777088343858,map,0.9959913287755844,-0.0268568309484398,0.1459584074002594,-0.5305168953685582,0.4677984695025856,-0.4679676002653845,0.5298327479133416,0.0,0.0,0.0,126,0.1111111119389534,0,1735644242188269615,map,0.9724501689403596,0.3285541661911016,0.0254047694192016,-0.5001322702917987,0.4941962691725947,-0.4770971324751916,0.5272723071929807,0.0,0.0,0.0,0,0.1111111119389534,0.988517205538274,0.0880981676864749,-0.6417172468781632,1.0,0.0,0.0,0.0,0.0,0.0,0.0,0.0,0.0,0.0,0.0,0.0,0.0,0.0,0.0,0.0,0.0,0.0,0.0,0.0,0.0,0.0,0.0,0.0,0.0,0.0,0.0,0.0,0.0,0.0,0.0,0.0,0.0,0.0,0.0,0.0,0.0,0,0,0,1,1,,122
1.3996535,0,1735643777088230371,map,0.97701707383967,-0.2216103641493622,0.0229017036756285,-0.4863468796989417,0.4904648988008708,-0.5075173519445183,0.5151087585419023,0.0,0.0,0.0,1,0.0,0,1735643777088253974,map,0.976123771777956,-0.2493673889645631,0.1491109904791079,-0.4971221715861103,0.4874659864686834,-0.4998974246017443,0.5151203970240038,0.0,0.0,0.0,16,0.0,0,1735643777088270664,map,0.9808567224598308,0.0529099728861815,0.0267539300355277,-0.4931175272519453,0.4860757459531001,-0.4976240295792398,0.5224325781365332,0.0,0.0,0.0,17,0.0,0,1735643777088284730,map,1.007844723981567,-0.2622372572522053,0.2375851712963773,-0.488764630736628,0.5025446042939823,-0.4985951067662768,0.5098636836887076,0.0,0.0,0.0,121,0.0,0,1735643777088297367,map,1.006455085704729,0.2029120527510032,0.2420584301759806,-0.4788133738337949,0.4905925343366467,-0.5189118316127467,0.5106733097620728,0.0,0.0,0.0,122,0.0,0,1735643777088310956,map,1.0039792088826722,0.2012990127024785,0.1444132825194862,-0.4935018918596095,0.5110076250400257,-0.4751980042223586,0.519147326550977,0.0,0.0,0.0,124,0.0,0,1735643777088322877,map,0.9930447142631856,-0.03091889799925,0.242665039735909,-0.5050162575924859,0.5690176155590355,-0.4797609050489728,0.4370434838061085,0.0,0.0,0.0,125,0.0,0,1735643777088343858,map,0.9951986184530894,-0.026084053595068,0.1466095377455368,0.5874197722469143,-0.5509927149375762,0.4072939853230276,-0.4306467795987654,0.0,0.0,0.0,126,0.0,0,1735644242188269615,map,0.9694643417844616,0.3275131375175192,0.0267787573179292,-0.4902919884737902,0.4965107249664101,-0.4930707617460982,0.5195883851115898,0.0,0.0,0.0,0,0.0,0.9360143874158868,0.5224634303108414,0.0535644347816242,1.0,0.0027565459107924,-0.02280540038225,-0.0365042476760112,0.0,0.0,0.0,-0.02280540038225,0.1886731813747348,0.3020062102520647,0.0,0.0,0.0,-0.0365042476760112,0.3020062102520647,0.4834166168516621,0.0,0.0,0.0,0.0,0.0,0.0,0.0,0.0,0.0,0.0,0.0,0.0,0.0,0.0,0.0,0.0,0.0,0.0,0.0,0.0,0.0,0,0,0,1,2,,122
1.498112479,0,1735643777088230371,map,0.9799265899715306,-0.2213881249675658,0.0225772982604659,-0.4893143889128148,0.4937591612220839,-0.5025902775962451,0.5139808677157859,0.0,0.0,0.0,1,0.0,0,1735643777088253974,map,0.9771245128437522,-0.2485101462746458,0.1493735866521173,-0.4962696946614411,0.4821937351162704,-0.4998171239759869,0.520949550873818,0.0,0.0,0.0,16,0.0,0,1735643777088270664,map,0.992504329785417,0.0551204611133103,0.0236910459459397,-0.5150036905697366,0.4861279591787439,-0.4665989077473552,0.5298455107795438,0.0,0.0,0.0,17,3.180785935236453e-23,0,1735643777088284730,map,1.0133946226440176,-0.262953294823482,0.2380432810576631,0.2684083687988884,-0.6328319000866351,0.6653146941100768,-0.2912680751347013,0.0,0.0,0.0,121,0.0,0,1735643777088297367,map,1.0109505560652674,0.2047237808180405,0.2425483031172639,0.532156962262569,-0.5008133913273441,0.4770953470769786,-0.4882365660007213,0.0,0.0,0.0,122,3.9667729002728866e-21,0,1735643777088310956,map,0.9989392166202292,0.2001088198818063,0.1452125129836493,-0.4672469824723596,0.5001035402583126,-0.5034378698796713,0.5273774905725462,0.0,0.0,0.0,124,4.2359874170215214e-16,0,1735643777088322877,map,0.9945847276713582,-0.0300230970271441,0.2428241242802721,0.5428560885349875,-0.5360098821835705,0.4541995150176703,-0.4601124578836807,0.0,0.0,0.0,125,0.0,0,1735643777088343858,map,1.005508438538033,-0.0255037236312492,0.1454616711813243,0.5082374764481665,-0.5064852967717564,0.4927345230253369,-0.4923210350031965,0.0,0.0,0.0,126,1.8342996898011852e-42,0,1735644242188269615,map,0.9722115460452712,0.3298244938257105,0.0264679560291457,-0.4964030453897222,0.4977611383649271,-0.4862539350735236,0.5190134644563423,0.0,0.0,0.0,0,0.0015152039704844,0.9238690318447764,0.5949425941730202,0.2203310354858325,1.0,0.002132716597759,-0.0169641706880392,-0.0283870444432169,0.0,0.0,0.0,-0.0169641706880392,0.136288579304811,0.2255116810597341,0.0,0.0,0.0,-0.0283870444432169,0.2255116810597341,0.3778999427886483,0.0,0.0,0.0,0.0,0.0,0.0,0.0,0.0,0.0,0.0,0.0,0.0,0.0,0.0,0.0,0.0,0.0,0.0,0.0,0.0,0.0,0,0,0,1,3,,122
1.598717969,0,1735643777088230371,map,0.983789452297986,-0.223248787720491,0.0208051813949204,-0.4887889024112363,0.4965911927198301,-0.5039442532634075,0.5104143275766284,0.0,0.0,0.0,1,0.0,0,1735643777088253974,map,0.9833330650040988,-0.2514728795445944,0.148724621974599,-0.5155050942151319,0.4960271764114032,-0.4798039051806935,0.5079367585368617,0.0,0.0,0.0,16,0.0,0,1735643777088270664,map,0.9825316869025534,0.0552343254061307,0.0273553583407216,-0.482550028590253,0.4987235592275919,-0.5105241480719013,0.5077256893386114,0.0,0.0,0.0,17,2.0233849292054168e-22,0,1735643777088284730,map,1.0099123672994197,-0.2608133227505425,0.2380206993387394,-0.4879078892985406,0.4818667125884092,-0.5068163024265883,0.5223864455114849,0.0,0.0,0.0,121,0.0,0,1735643777088297367,map,1.010601803224616,0.2052833456702203,0.2424328642218661,-0.5068264093949015,0.493706959867053,-0.4926136744325715,0.5066677375566208,0.0,0.0,0.0,122,7.002192452716777e-20,0,1735643777088310956,map,0.9993885668761152,0.200994636251325,0.145657413088305,-0.4659036665798372,0.5032875740780062,-0.5064410872605596,0.5226402360902593,0.0,0.0,0.0,124,4.294077571818933e-15,0,1735643777088322877,map,1.0098382283787486,-0.0294463560322264,0.2435618580375003,-0.5076840992021225,0.4976352474887672,-0.4922492756832523,0.5023013701588286,0.0,0.0,0.0,125,0.0,0,1735643777088343858,map,1.0038147077474582,-0.0245817609843908,0.1459492742871233,-0.507194985547245,0.5997236562031081,-0.479789547895398,0.3910073817160437,0.0,0.0,0.0,126,8.612520491586757e-41,0,1735644242188269615,map,0.9686203939956082,0.3271614465504532,0.0273153152535892,-0.4826989379346713,0.4986839185819764,-0.4974714600300884,0.520421205486476,0.0,0.0,0.0,0,0.0025545442476868,0.91923819166122,0.6208893869921124,0.284274099057909,1.0,0.0016638714907362,-0.0130835943684926,-0.0221786136571605,0.0,0.0,0.0,-0.0130835943684926,0.1042361426513989,0.1741111130629687,0.0,0.0,0.0,-0.0221786136571605,0.1741111130629687,0.2956911032284341,0.0,0.0,0.0,0.0,0.0,0.0,0.0,0.0,0.0,0.0,0.0,0.0,0.0,0.0,0.0,0.0,0.0,0.0,0.0,0.0,0.0,0,0,0,1,4,,122
1.698923885,0,1735643777088230371,map,0.9897454618045408,-0.2243431854991957,0.019222525247426,-0.4926980366048468,0.5013936586966277,-0.496859127783866,0.5089047561994233,0.0,0.0,0.0,1,0.0,0,1735643777088253974,map,0.9774928534559472,-0.2478022274844143,0.1495595000274719,-0.5129625118412482,0.4885529496890608,-0.4763049996442597,0.5208829274506097,0.0,0.0,0.0,16,0.0,0,1735643777088270664,map,0.9864768346295444,0.0552793268876019,0.0256214383193182,-0.4837613202145334,0.4997563893083541,-0.5096601557599197,0.5064237968742611,0.0,0.0,0.0,17,1.9800138536187358e-24,0,1735643777088284730,map,1.0125638949532714,-0.2631381218503946,0.2375879409094796,-0.5077516731119407,0.4980949323564362,-0.4770033674560152,0.5162920338805199,0.0,0.0,0.0,121,0.0,0,1735643777088297367,map,1.0058556176375624,0.2035113514707861,0.2419491496188145,-0.5079955344141303,0.5122569714929238,-0.4996946964299833,0.4794147917325315,0.0,0.0,0.0,122,7.935255596604412e-22,0,1735643777088310956,map,1.0089999539338823,0.2033033839595568,0.1437722066457766,-0.4969008129345799,0.5080976484550473,-0.4710617681393257,0.5225200209914033,0.0,0.0,0.0,124,4.859502133780806e-16,0,1735643777088322877,map,1.00768882093112,-0.0306441753714271,0.2430292466814675,-0.5409335346409336,0.4821567069333414,-0.4548447843548588,0.5177181117222419,0.0,0.0,0.0,125,0.0,0,1735643777088343858,map,1.0076810636369111,-0.0258993509486086,0.1446922443630804,0.4693001578608269,-0.5128061907404711,0.5396028607963796,-0.4749904474728027,0.0,0.0,0.0,126,4.203895392974451e-45,0,1735644242188269615,map,0.9656089210267642,0.3264636549156295,0.0289489647561626,-0.482164026588928,0.4906746142399873,-0.4935293590254311,0.5321513376699698,0.0,0.0,0.0,0,0.0015933354152366,0.91704580184223,0.6326022678566627,0.3146677503486671,1.0,0.0013503234850626,-0.010569592297828,-0.0180094298523355,0.0,0.0,0.0,-0.010569592297828,0.0839376804337077,0.1407128793168043,0.0,0.0,0.0,-0.0180094298523355,0.1407128793168043,0.2402479787378841,0.0,0.0,0.0,0.0,0.0,0.0,0.0,0.0,0.0,0.0,0.0,0.0,0.0,0.0,0.0,0.0,0.0,0.0,0.0,0.0,0.0,0,0,0,1,5,,122
1.798968303,0,1735643777088230371,map,0.984505929884833,-0.2205602879810309,0.0216300518444411,-0.501641843670237,0.4993003229660707,-0.4890148674006813,0.5098226236900416,0.0,0.0,0.0,1,0.0,0,1735643777088253974,map,0.9908378297072826,-0.251842206663214,0.1485496592050434,-0.5107429740561558,0.4927693160809192,-0.4823130528059558,0.5135115720939656,0.0,0.0,0.0,16,0.0,0,1735643777088270664,map,0.9885323707405173,0.0568370641476511,0.0256795170313904,-0.4842300359636331,0.5063246698117569,-0.5052943703683404,0.503819610857633,0.0,0.0,0.0,17,2.5480946795737326e-25,0,1735643777088284730,map,1.012867317626088,-0.2620638262829648,0.2378193794978798,-0.4988200274006668,0.4781086999591171,-0.4888365156970911,0.5325687863633477,0.0,0.0,0.0,121,0.0,0,1735643777088297367,map,1.0011496453680842,0.2025607985631032,0.2425455914841046,-0.4871204690684049,0.4891766352785585,-0.511434349365207,0.51171747517699,0.0,0.0,0.0,122,7.454804343009497e-23,0,1735643777088310956,map,1.0066733604112366,0.203522400376264,0.1445728784023743,-0.4951396717639838,0.5139310232806934,-0.4770059562987794,0.5130077254882246,0.0,0.0,0.0,124,1.2022551395778064e-16,0,1735643777088322877,map,1.0070148858852748,-0.0297253342950773,0.2434626561437721,-0.5570354736889919,0.4810750331175902,-0.434913750564031,0.518775792740292,0.0,0.0,0.0,125,0.0,0,1735643777088343858,map,1.0011110525959006,-0.0242066266184773,0.1462519768131379,-0.5112604117897007,0.6112586363684743,-0.4688225948319269,0.3810263053604537,0.0,0.0,0.0,126,0.0,0,1735644242188269615,map,0.9769495246196852,0.3338835663641575,0.0261527982135052,-0.504455005542273,0.4896715515737443,-0.4823993379447041,0.5225301883271615,0.0,0.0,0.0,0,0.0035741704050451,0.9159312976130832,0.6363622073743898,0.3305830001975043,1.0,0.0011314801692694,-0.0088289459239925,-0.0150965462766019,0.0,0.0,0.0,-0.0088289459239925,0.0700187527539746,0.1175599346482093,0.0,0.0,0.0,-0.0150965462766019,0.1175599346482093,0.2014731248369913,0.0,0.0,0.0,0.0,0.0,0.0,0.0,0.0,0.0,0.0,0.0,0.0,0.0,0.0,0.0,0.0,0.0,0.0,0.0,0.0,0.0,0,0,0,1,6,,122
1.898518768,0,1735643777088230371,map,0.9934585039885362,-0.2236774470711586,0.018607312824487,-0.5021638720812622,0.5156619162991393,-0.4863181991091342,0.4953976613492457,0.0,0.0,0.0,1,1.2471556332490872e-43,0,1735643777088253974,map,0.984017229889991,-0.2478403874679775,0.149920106491024,-0.5145451118940221,0.4901223684788012,-0.4736184546272458,0.5202969836345379,0.0,0.0,0.0,16,0.0,0,1735643777088270664,map,0.9881467742551956,0.0573861751979763,0.0263156908458837,-0.4742945673245831,0.5146722596472779,-0.5104275147434175,0.4996207369083172,0.0,0.0,0.0,17,1.839252635623908e-15,0,1735643777088284730,map,1.0077516627524,-0.2594244634498898,0.2380825044629539,-0.5097387484286935,0.4778652772133203,-0.4805420547579577,0.5299910553897927,0.0,0.0,0.0,121,0.0,0,1735643777088297367,map,1.0068545265191438,0.204283544302691,0.2425108789223328,-0.5013094334995456,0.4994022292487431,-0.4980254192850609,0.5012553710951039,0.0,0.0,0.0,122,1.0929650332567113e-13,0,1735643777088310956,map,1.0020451489283762,0.2023514688434022,0.1453030330975153,-0.4662398160277519,0.5045645725342032,-0.5014316870930512,0.5259289774036052,0.0,0.0,0.0,124,3.4516345337465277e-10,0,1735643777088322877,map,1.0063776973436305,-0.0291119363453922,0.2435439531148118,0.3929713536953023,-0.574484825628126,0.5933407621106812,-0.4043358014272538,0.0,0.0,0.0,125,1.5635192676116222e-35,0,1735643777088343858,map,1.0083282216223295,-0.0247302733815958,0.1449548651975611,0.5161312681723778,-0.5091199450992467,0.4836454400885221,-0.4904003301370146,0.0,0.0,0.0,126,7.87235420347949e-29,0,1735644242188269615,map,0.978502649665932,0.3345659881310315,0.0260262682968481,-0.4974602669781943,0.4923243921465537,-0.4874845840387134,0.5220237121052197,0.0,0.0,0.0,0,0.0464523434638977,0.9152247625254524,0.6301759573218845,0.3424868751638343,1.0,0.0009728352960684,-0.007541443118513,-0.0129903598405708,0.0,0.0,0.0,-0.007541443118513,0.0602456919273938,0.1003238161870808,0.0,0.0,0.0,-0.0129903598405708,0.1003238161870808,0.1735414632955623,0.0,0.0,0.0,0.0,0.0,0.0,0.0,0.0,0.0,0.0,0.0,0.0,0.0,0.0,0.0,0.0,0.0,0.0,0.0,0.0,0.0,0,0,0,1,7,,122
1.998467605,0,1735643777088230371,map,0.9922740629336652,-0.225365320352689,0.0180154094884518,-0.5055654188744558,0.5118767935590329,-0.4808168619483394,0.5011994620110553,0.0,0.0,0.0,1,1.58610992868461e-26,0,1735643777088253974,map,0.984017229889991,-0.2478403874679775,0.149920106491024,-0.5145451118940221,0.4901223684788012,-0.4736184546272458,0.5202969836345379,0.0,0.0,0.0,16,1.1079258105521943e-34,0,1735643777088270664,map,0.9902562078670738,0.0558359420661782,0.0243478677661437,-0.4743672299197126,0.5190651419466588,-0.5175089027208637,0.4875773222770329,0.0,0.0,0.0,17,2.3005533034137216e-09,0,1735643777088284730,map,1.0077516627524,-0.2594244634498898,0.2380825044629539,-0.5097387484286935,0.4778652772133203,-0.4805420547579577,0.5299910553897927,0.0,0.0,0.0,121,2.129076834756554e-40,0,1735643777088297367,map,0.9988346701371132,0.2011146462706015,0.2417205524789604,0.47566734203561,-0.513207300738936,0.5238451600136242,-0.485741798200787,0.0,0.0,0.0,122,2.7729353035965687e-08,0,1735643777088310956,map,1.006563355010463,0.201886823589859,0.1435366379986309,-0.4841657337515235,0.5144922564697638,-0.4828187808402207,0.5174623514435258,0.0,0.0,0.0,124,4.2229371501889545e-06,0,1735643777088322877,map,1.0074469332016471,-0.0319480105359454,0.2424417670599206,-0.5433754893000061,0.4907963387322969,-0.4501320102804435,0.5111195602164322,0.0,0.0,0.0,125,1.7702099297677026e-21,0,1735643777088343858,map,1.0120550726885436,-0.0274763123207679,0.1430127714279164,-0.5543072594628617,0.5794831461038933,-0.4365687545174059,0.4078608439988166,0.0,0.0,0.0,126,1.9987649868957764e-17,0,1735644242188269615,map,0.9677898401703028,0.328664163550158,0.0288681474357533,-0.4796876782243133,0.4923249173728407,-0.4959684158091318,0.5305951730023312,0.0,0.0,0.0,0,0.1492889821529388,0.9147925671757152,0.6198100495840327,0.3511621361310027,1.0,0.0008525384338022,-0.0065674020488582,-0.0113928107126338,0.0,0.0,0.0,-0.0065674020488582,0.0534671447390771,0.0871538504801836,0.0,0.0,0.0,-0.0113928107126338,0.0871538504801836,0.1523756014535564,0.0,0.0,0.0,0.0,0.0,0.0,0.0,0.0,0.0,0.0,0.0,0.0,0.0,0.0,0.0,0.0,0.0,0.0,0.0,0.0,0.0,0,0,0,1,8,,122
2.098840577,0,1735643777088230371,map,0.9922740629336652,-0.225365320352689,0.0180154094884518,-0.5055654188744558,0.5118767935590329,-0.4808168619483394,0.5011994620110553,0.0,0.0,0.0,1,3.6900874541847845e-18,0,1735643777088253974,map,0.984017229889991,-0.2478403874679775,0.149920106491024,-0.5145451118940221,0.4901223684788012,-0.4736184546272458,0.5202969836345379,0.0,0.0,0.0,16,1.160898594403733e-23,0,1735643777088270664,map,0.9955215869387076,0.0571884262669112,0.0230002331714496,-0.4920217953796068,0.4859799526580359,-0.495531568730427,0.5255344925668374,0.0,0.0,0.0,17,2.251998921565246e-06,0,1735643777088284730,map,1.0077516627524,-0.2594244634498898,0.2380825044629539,-0.5097387484286935,0.4778652772133203,-0.4805420547579577,0.5299910553897927,0.0,0.0,0.0,121,1.5555728457095926e-27,0,1735643777088297367,map,1.0098417758903302,0.2044313608221369,0.2416067912601877,-0.4997036713111772,0.494161559566375,-0.4990975448535775,0.5069538782238379,0.0,0.0,0.0,122,1.6937014152063057e-05,0,1735643777088310956,map,1.0052203240379554,0.2019973739389715,0.1440280334092015,0.7172161831949108,-0.4436054420963126,0.2561047008771067,-0.4724675020512065,0.0,0.0,0.0,124,0.0003482865577097,0,1735643777088322877,map,1.013345632511533,-0.0323041126498009,0.2424222024397349,-0.5548036354479255,0.4952864751663451,-0.4356234406643004,0.5070665159077843,0.0,0.0,0.0,125,1.4481061613507915e-14,0,1735643777088343858,map,1.0273065548082718,-0.0291538179259223,0.1404434234240173,-0.5144849224920139,0.621925993855213,-0.4575574142076422,0.3730342281871841,0.0,0.0,0.0,126,7.680728449088736e-12,0,1735644242188269615,map,0.9738518891947304,0.3329979418176709,0.0274726761799126,-0.4760968122512942,0.4934480841195514,-0.4929877053045097,0.5355407884199799,0.0,0.0,0.0,0,0.3160274624824524,0.9144439142045504,0.6085352921852256,0.3587771569205107,1.0,0.0007587844123119,-0.0058062428887661,-0.0101481828526644,0.0,0.0,0.0,-0.0058062428887661,0.0485433121143953,0.0767832292198101,0.0,0.0,0.0,-0.0101481828526644,0.0767832292198101,0.135908887402825,0.0,0.0,0.0,0.0,0.0,0.0,0.0,0.0,0.0,0.0,0.0,0.0,0.0,0.0,0.0,0.0,0.0,0.0,0.0,0.0,0.0,0,0,0,1,9,,122
2.199189321,0,1735643777088230371,map,0.9907881913433264,-0.2244183050284151,0.018981901623555,-0.4963339739250312,0.5092835991783223,-0.4929701545633969,0.5012616369177889,0.0,0.0,0.0,1,2.089645730757317e-12,0,1735643777088253974,map,0.9886806286299882,-0.2520075173003534,0.1486958484096245,-0.5035532917820174,0.4904005419340079,-0.4890899811717511,0.5164614033243357,0.0,0.0,0.0,16,3.228290583821006e-16,0,1735643777088270664,map,0.995274643719282,0.0560826087782076,0.0228407145127572,-0.4928394579292048,0.5144944803454338,-0.4932299519171907,0.4991281528163834,0.0,0.0,0.0,17,0.0001824085775297,0,1735643777088284730,map,1.0077516627524,-0.2594244634498898,0.2380825044629539,-0.5097387484286935,0.4778652772133203,-0.4805420547579577,0.5299910553897927,0.0,0.0,0.0,121,1.165207866475246e-18,0,1735643777088297367,map,1.011986008570031,0.2037094001849218,0.2416938837782166,-0.5151606929246072,0.4756812006582204,-0.4846340393378082,0.5229404399364354,0.0,0.0,0.0,122,0.0009216664475388,0,1735643777088310956,map,1.0051384999070754,0.2012613054497307,0.1436333675804607,-0.4817139943013164,0.5163008806736119,-0.4932917358680853,0.5079845387747304,0.0,0.0,0.0,124,0.0062629417516291,0,1735643777088322877,map,1.001372279094059,-0.0318791258314713,0.2424957107617683,-0.5375945866367632,0.4749328179616444,-0.4582468735848186,0.5248244293967256,0.0,0.0,0.0,125,7.80597697591645e-10,0,1735643777088343858,map,1.0152821351114307,-0.0293469244355743,0.1422046375809308,0.5146464613898287,-0.5110100449069491,0.4859190581374413,-0.4877401180156778,0.0,0.0,0.0,126,4.3284650530495135e-08,0,1735644242188269615,map,0.9786073432052717,0.334657109010429,0.0257671747067606,-0.505381426703329,0.4903068479605388,-0.481924905987122,0.5214759758374425,0.0,0.0,0.0,0,0.4445167183876037,0.9141841023922505,0.5948232013402035,0.3655761074159586,1.0,0.000683513490681,-0.0051935555313337,-0.0091492625962476,0.0,0.0,0.0,-0.0051935555313337,0.045381173821035,0.0682658558562296,0.0,0.0,0.0,-0.0091492625962476,0.0682658558562296,0.1227340302130985,0.0,0.0,0.0,0.0,0.0,0.0,0.0,0.0,0.0,0.0,0.0,0.0,0.0,0.0,0.0,0.0,0.0,0.0,0.0,0.0,0.0,0,0,0,1,10,,122
2.299165742,0,1735643777088230371,map,0.9984866105966916,-0.2312913723604528,0.0139066155449429,-0.5013714214718848,0.5120196096708057,-0.4916281110263803,0.4947367153269003,0.0,0.0,0.0,1,6.598112278766166e-09,0,1735643777088253974,map,0.9886806286299882,-0.2520075173003534,0.1486958484096245,-0.5035532917820174,0.4904005419340079,-0.4890899811717511,0.5164614033243357,0.0,0.0,0.0,16,2.314467541231213e-11,0,1735643777088270664,map,0.9912031848331788,0.054557080852376,0.0229619003751037,-0.4851084384995653,0.481750839407298,-0.5022188086590978,0.5294923982985152,0.0,0.0,0.0,17,0.0026276428252458,0,1735643777088284730,map,1.0077516627524,-0.2594244634498898,0.2380825044629539,-0.5097387484286935,0.4778652772133203,-0.4805420547579577,0.5299910553897927,0.0,0.0,0.0,121,5.175948103279537e-13,0,1735643777088297367,map,1.0189015355843507,0.2036660941423644,0.240127350672858,0.5357387305993985,-0.4938266704961106,0.468735666978649,-0.4994057534155489,0.0,0.0,0.0,122,0.0112415729090571,0,1735643777088310956,map,1.007045581130642,0.1999265162461474,0.141416502210519,-0.4656201698956506,0.4954154785892335,-0.4957586246095517,0.5403561298678784,0.0,0.0,0.0,124,0.0359327718615531,0,1735643777088322877,map,1.0115701077688803,-0.0361756059984714,0.2409512994172266,0.5401392187014549,-0.5114598855315022,0.4575679295921329,-0.487124213852538,0.0,0.0,0.0,125,6.213677465893852e-07,0,1735643777088343858,map,1.0151266157459446,-0.0323420556843177,0.1401513716706713,0.4777884124595215,-0.4974438609874974,0.5315926980452546,-0.4916065921753166,0.0,0.0,0.0,126,9.557978046359494e-06,0,1735644242188269615,map,0.9706008374397564,0.3302816239461174,0.027849926318348,-0.4776322981574805,0.4846763534060216,-0.4950613720149214,0.5402503661678987,0.0,0.0,0.0,0,0.4873182773590088,0.9139005650032904,0.5798737646375461,0.3729927889848831,1.0,0.0006221798351285,-0.0046790268769033,-0.0083385405164022,0.0,0.0,0.0,-0.0046790268769033,0.0434904691418449,0.0609511168436247,0.0,0.0,0.0,-0.0083385405164022,0.0609511168436247,0.112126462757765,0.0,0.0,0.0,0.0,0.0,0.0,0.0,0.0,0.0,0.0,0.0,0.0,0.0,0.0,0.0,0.0,0.0,0.0,0.0,0.0,0.0,0,0,0,1,11,,122
2.399124498,0,1735643777088230371,map,0.9879429744314084,-0.2302381107255272,0.0150784737227289,-0.4880810066045785,0.5112867870699354,-0.4946413787097461,0.505660616251341,0.0,0.0,0.0,1,1.835348655276903e-07,0,1735643777088253974,map,0.9869387016781715,-0.2582616140998324,0.1453996633876164,-0.5004901006932113,0.4955088027647908,-0.492494148540324,0.5113024536849442,0.0,0.0,0.0,16,1.3958955102921775e-09,0,1735643777088270664,map,0.9852802129405198,0.0518546417171365,0.0222147856586538,-0.4877667115031933,0.5047023750280878,-0.4967137288540886,0.5105238675696123,0.0,0.0,0.0,17,0.0074392715469002,0,1735643777088284730,map,1.0077516627524,-0.2594244634498898,0.2380825044629539,-0.5097387484286935,0.4778652772133203,-0.4805420547579577,0.5299910553897927,0.0,0.0,0.0,121,8.066736861822577e-11,0,1735643777088297367,map,1.0044250645473096,0.1975737843906844,0.2380027334866212,-0.5127982232101219,0.4713241094726023,-0.4862597528155986,0.5276770024305718,0.0,0.0,0.0,122,0.0267707873135805,0,1735643777088310956,map,0.9937632198634868,0.1948707238652351,0.1414968626896929,-0.4685190890848899,0.5093335356348258,-0.5037267085589273,0.5170383116609278,0.0,0.0,0.0,124,0.0661339089274406,0,1735643777088322877,map,0.9999823727632468,-0.0379755311452776,0.2390761579631882,-0.5138489121691998,0.4860711731933138,-0.4811135011274906,0.5179033781371328,0.0,0.0,0.0,125,9.064523510460276e-06,0,1735643777088343858,map,0.9994887718793004,-0.0330472605042234,0.1406230279568946,0.5036632892916973,-0.5028397268580282,0.4996280082187474,-0.4938090253494553,0.0,0.0,0.0,126,8.195539703592658e-05,0,1735644242188269615,map,0.9663264153037676,0.3270762869710006,0.0263008780196573,-0.4922298144380285,0.4872821869317628,-0.4869045878865552,0.5321558064818299,0.0,0.0,0.0,0,0.4960654675960541,0.9139255117061804,0.5657903166191837,0.3756005803464163,1.0,0.0005703383612522,-0.0042929726620219,-0.0076429465262761,0.0,0.0,0.0,-0.0042929726620219,0.0420480419689696,0.0554678634717442,0.0,0.0,0.0,-0.0076429465262761,0.0554678634717442,0.1028573971949228,0.0,0.0,0.0,0.0,0.0,0.0,0.0,0.0,0.0,0.0,0.0,0.0,0.0,0.0,0.0,0.0,0.0,0.0,0.0,0.0,0.0,0,0,0,1,12,,122
2.499077334,0,1735643777088230371,map,0.9900345237684568,-0.2302352761717307,0.0144088971031707,-0.4958825154277169,0.5127625326081685,-0.4931961905369905,0.4979283419189327,0.0,0.0,0.0,1,6.806661758673727e-07,0,1735643777088253974,map,0.9796305070215544,-0.2518418782174723,0.1474868998627316,-0.5050766045439413,0.495316528161923,-0.4790536658937105,0.5196794643487265,0.0,0.0,0.0,16,1.0914481762824836e-08,0,1735643777088270664,map,0.9796683172801042,0.0536335498042444,0.0256342934665378,-0.4910256170038342,0.487176212729166,-0.4949343668953578,0.5259212428327664,0.0,0.0,0.0,17,0.0116249024868011,0,1735643777088284730,map,1.0077516627524,-0.2594244634498898,0.2380825044629539,-0.5097387484286935,0.4778652772133203,-0.4805420547579577,0.5299910553897927,0.0,0.0,0.0,121,6.311443589979149e-10,0,1735643777088297367,map,0.9957735076255796,0.1972724176675225,0.2389353887672269,-0.4930837444433292,0.4980940138381708,-0.5067208875778729,0.502000713581782,0.0,0.0,0.0,122,0.0411495305597782,0,1735643777088310956,map,0.995535620988902,0.1960052665769045,0.1414297484747366,-0.479518622203847,0.5041950318796465,-0.4900135290050615,0.5251057057199173,0.0,0.0,0.0,124,0.0920938774943351,0,1735643777088322877,map,1.0032716946520943,-0.0379643956609187,0.2388617878266766,0.5292667991161963,-0.5122257305085591,0.4596961448065594,-0.4961662128846094,0.0,0.0,0.0,125,2.876141843444202e-05,0,1735643777088343858,map,1.0040132016875785,-0.0335947989072646,0.1397222530916867,0.5112692489801868,-0.499766833116381,0.4898533967473927,-0.4988792612036511,0.0,0.0,0.0,126,0.0002027056325459,0,1735644242188269615,map,0.9636190912559012,0.3268978729580039,0.0288966464591201,-0.4782097786248367,0.4952770018603126,-0.5004375132288821,0.5249556118465037,0.0,0.0,0.0,0,0.4864358305931091,0.9137678082238652,0.5561253446317879,0.3800115906570702,1.0,0.0005267646242775,-0.0039444535988458,-0.0070633751429546,0.0,0.0,0.0,-0.0039444535988458,0.0399345174043315,0.0506895172500855,0.0,0.0,0.0,-0.0070633751429546,0.0506895172500855,0.0951787738619186,0.0,0.0,0.0,0.0,0.0,0.0,0.0,0.0,0.0,0.0,0.0,0.0,0.0,0.0,0.0,0.0,0.0,0.0,0.0,0.0,0.0,0,0,0,1,13,,122
2.599248362,0,1735643777088230371,map,0.987575518194994,-0.2307656462740109,0.0146435703502217,-0.4967649328177679,0.5066541192350671,-0.4939756809529021,0.502507941839543,0.0,0.0,0.0,1,2.576014821897843e-06,0,1735643777088253974,map,0.9796305070215544,-0.2518418782174723,0.1474868998627316,-0.5050766045439413,0.495316528161923,-0.4790536658937105,0.5196794643487265,0.0,0.0,0.0,16,7.949970637355365e-08,0,1735643777088270664,map,0.9838433764102508,0.0525833313355199,0.0224526065914796,-0.4835089308285143,0.4963085176710342,-0.4994805045275751,0.5200155715871656,0.0,0.0,0.0,17,0.0169836264103651,0,1735643777088284730,map,1.0077516627524,-0.2594244634498898,0.2380825044629539,-0.5097387484286935,0.4778652772133203,-0.4805420547579577,0.5299910553897927,0.0,0.0,0.0,121,7.045108496583907e-09,0,1735643777088297367,map,1.0043621940196086,0.1982314427742724,0.2375509751633038,-0.5050665432398869,0.4930904233136493,-0.4931117893779498,0.5085374956800668,0.0,0.0,0.0,122,0.0665258318185806,0,1735643777088310956,map,0.9968966948957572,0.1958115445492669,0.1399613764026941,-0.474466180468274,0.4946653443750746,-0.4930001136986669,0.5358534581014082,0.0,0.0,0.0,124,0.1206912547349929,0,1735643777088322877,map,1.0037332235680447,-0.0398969799606301,0.2383948282850435,0.5247452520510008,-0.5238868182216074,0.4667115913703522,-0.4820428535142137,0.0,0.0,0.0,125,9.705929551273584e-05,0,1735643777088343858,map,1.0156477268553108,-0.0386084202140902,0.1350875913577915,-0.5004451737921773,0.5159259486807072,-0.5039587081083957,0.4789578937941685,0.0,0.0,0.0,126,0.0004772522079292,0,1735644242188269615,map,0.9703470512247973,0.3304071957710982,0.0243040745645001,-0.4830277024470323,0.4939201357971002,-0.4904419890421457,0.5312191576998131,0.0,0.0,0.0,0,0.4545941650867462,0.9131175965235606,0.5489098637124262,0.3912888461374356,1.0,0.000494634658004,-0.0036017162416917,-0.0066541721920178,0.0,0.0,0.0,-0.0036017162416917,0.0377588730191204,0.0460110167638705,0.0,0.0,0.0,-0.0066541721920178,0.0460110167638705,0.0900335843998413,0.0,0.0,0.0,0.0,0.0,0.0,0.0,0.0,0.0,0.0,0.0,0.0,0.0,0.0,0.0,0.0,0.0,0.0,0.0,0.0,0.0,0,0,0,1,14,,122
