%time,field.boxes0.header.seq,field.boxes0.header.stamp,field.boxes0.header.frame_id,field.boxes0.pose.position.x,field.boxes0.pose.position.y,field.boxes0.pose.position.z,field.boxes0.pose.orientation.x,field.boxes0.pose.orientation.y,field.boxes0.pose.orientation.z,field.boxes0.pose.orientation.w,field.boxes0.scale.x,field.boxes0.scale.y,field.boxes0.scale.z,field.boxes0.id,field.boxes0.pdf,field.boxes1.header.seq,field.boxes1.header.stamp,field.boxes1.header.frame_id,field.boxes1.pose.position.x,field.boxes1.pose.position.y,field.boxes1.pose.position.z,field.boxes1.pose.orientation.x,field.boxes1.pose.orientation.y,field.boxes1.pose.orientation.z,field.boxes1.pose.orientation.w,field.boxes1.scale.x,field.boxes1.scale.y,field.boxes1.scale.z,field.boxes1.id,field.boxes1.pdf,field.boxes2.header.seq,field.boxes2.header.stamp,field.boxes2.header.frame_id,field.boxes2.pose.position.x,field.boxes2.pose.position.y,field.boxes2.pose.position.z,field.boxes2.pose.orientation.x,field.boxes2.pose.orientation.y,field.boxes2.pose.orientation.z,field.boxes2.pose.orientation.w,field.boxes2.scale.x,field.boxes2.scale.y,field.boxes2.scale.z,field.boxes2.id,field.boxes2.pdf,field.boxes3.header.seq,field.boxes3.header.stamp,field.boxes3.header.frame_id,field.boxes3.pose.position.x,field.boxes3.pose.position.y,field.boxes3.pose.position.z,field.boxes3.pose.orientation.x,field.boxes3.pose.orientation.y,field.boxes3.pose.orientation.z,field.boxes3.pose.orientation.w,field.boxes3.scale.x,field.boxes3.scale.y,field.boxes3.scale.z,field.boxes3.id,field.boxes3.pdf,field.boxes4.header.seq,field.boxes4.header.stamp,field.boxes4.header.frame_id,field.boxes4.pose.position.x,field.boxes4.pose.position.y,field.boxes4.pose.position.z,field.boxes4.pose.orientation.x,field.boxes4.pose.orientation.y,field.boxes4.pose.orientation.z,field.boxes4.pose.orientation.w,field.boxes4.scale.x,field.boxes4.scale.y,field.boxes4.scale.z,field.boxes4.id,field.boxes4.pdf,field.boxes5.header.seq,field.boxes5.header.stamp,field.boxes5.header.frame_id,field.boxes5.pose.position.x,field.boxes5.pose.position.y,field.boxes5.pose.position.z,field.boxes5.pose.orientation.x,field.boxes5.pose.orientation.y,field.boxes5.pose.orientation.z,field.boxes5.pose.orientation.w,field.boxes5.scale.x,field.boxes5.scale.y,field.boxes5.scale.z,field.boxes5.id,field.boxes5.pdf,field.boxes6.header.seq,field.boxes6.header.stamp,field.boxes6.header.frame_id,field.boxes6.pose.position.x,field.boxes6.pose.position.y,field.boxes6.pose.position.z,field.boxes6.pose.orientation.x,field.boxes6.pose.orientation.y,field.boxes6.pose.orientation.z,field.boxes6.pose.orientation.w,field.boxes6.scale.x,field.boxes6.scale.y,field.boxes6.scale.z,field.boxes6.id,field.boxes6.pdf,field.boxes7.header.seq,field.boxes7.header.stamp,field.boxes7.header.frame_id,field.boxes7.pose.position.x,field.boxes7.pose.position.y,field.boxes7.pose.position.z,field.boxes7.pose.orientation.x,field.boxes7.pose.orientation.y,field.boxes7.pose.orientation.z,field.boxes7.pose.orientation.w,field.boxes7.scale.x,field.boxes7.scale.y,field.boxes7.scale.z,field.boxes7.id,field.boxes7.pdf,field.boxes8.header.seq,field.boxes8.header.stamp,field.boxes8.header.frame_id,field.boxes8.pose.position.x,field.boxes8.pose.position.y,field.boxes8.pose.position.z,field.boxes8.pose.orientation.x,field.boxes8.pose.orientation.y,field.boxes8.pose.orientation.z,field.boxes8.pose.orientation.w,field.boxes8.scale.x,field.boxes8.scale.y,field.boxes8.scale.z,field.boxes8.id,field.boxes8.pdf,field.pose.pose.position.x,field.pose.pose.position.y,field.pose.pose.position.z,field.pose.pose.orientation.w,field.pose.covariance0,field.pose.covariance1,field.pose.covariance2,field.pose.covariance3,field.pose.covariance4,field.pose.covariance5,field.pose.covariance6,field.pose.covariance7,field.pose.covariance8,field.pose.covariance9,field.pose.covariance10,field.pose.covariance11,field.pose.covariance12,field.pose.covariance13,field.pose.covariance14,field.pose.covariance15,field.pose.covariance16,field.pose.covariance17,field.pose.covariance18,field.pose.covariance19,field.pose.covariance20,field.pose.covariance21,field.pose.covariance22,field.pose.covariance23,field.pose.covariance24,field.pose.covariance25,field.pose.covariance26,field.pose.covariance27,field.pose.covariance28,field.pose.covariance29,field.pose.covariance30,field.pose.covariance31,field.pose.covariance32,field.pose.covariance33,field.pose.covariance34,field.pose.covariance35,field.buttons0,field.buttons1,field.buttons2,field.buttons3,intersection_length,vacuum,desired_box
0.0,0,1735643777088230371,map,0.9795404131418912,-0.2207085936280096,0.0218173893634353,-0.4892361394493717,0.4919320102496429,-0.5037283829802064,0.5146927368134965,0.0,0.0,0.0,1,0.1111111119389534,0,1735643777088253974,map,0.9747315848206416,-0.2482709787333214,0.1491323170481755,-0.506065371679204,0.4714744611794877,-0.4802186011520215,0.5394439425466717,0.0,0.0,0.0,16,0.1111111119389534,0,1735643777088270664,map,0.9837020712340918,0.0559844780835984,0.0260012471113961,-0.5007748592578645,0.4859389196964754,-0.4880834908290296,0.524273223271642,0.0,0.0,0.0,17,0.1111111119389534,0,1735643777088284730,map,1.0082374497765307,-0.2558631653956315,0.2358389932689903,-0.4962674366428802,0.5062319616143104,-0.4993263834744101,0.4981174511442042,0.0,0.0,0.0,121,0.1111111119389534,0,1735643777088297367,map,1.020753414932582,0.2133069878234925,0.2413440728382398,-0.6632383091100038,0.247971271302786,-0.2433626741802148,0.6628723879852275,0.0,0.0,0.0,122,0.1111111119389534,0,1735643777088310956,map,1.0046427527589834,0.2089129430212887,0.1437517714274014,-0.4871496257002899,0.5045463025682242,-0.4846185773825164,0.5227457366641524,0.0,0.0,0.0,124,0.1111111119389534,0,1735643777088322877,map,0.9966486921192836,-0.025567308657751,0.241865002183705,-0.4690992526128755,0.5068537403772754,-0.5221260475344877,0.5004293831797064,0.0,0.0,0.0,125,0.1111111119389534,0,1735643777088343858,map,0.9964278738757906,-0.0200730027763652,0.1450146340242324,-0.483090917183014,0.4891266179845147,-0.5192733117566012,0.5076746448382436,0.0,0.0,0.0,126,0.1111111119389534,0,1735644242188269615,map,0.9802113830437624,0.3321930887356784,0.0255839891234994,-0.5079545202306971,0.5017836119027818,-0.4818032749541615,0.5079970634230534,0.0,0.0,0.0,0,0.1111111119389534,0.9582714407459972,-0.5832866765974494,-0.0460492836845969,1.0,0.0,0.0,0.0,0.0,0.0,0.0,0.0,0.0,0.0,0.0,0.0,0.0,0.0,0.0,0.0,0.0,0.0,0.0,0.0,0.0,0.0,0.0,0.0,0.0,0.0,0.0,0.0,0.0,0.0,0.0,0.0,0.0,0.0,0.0,0.0,0.0,0,0,0,1,1,,1
0.102673373,0,1735643777088230371,map,0.9822909699934416,-0.2217880348731101,0.0206458155973902,-0.4915066535468529,0.5088680497848709,-0.4924911381583499,0.5068796664523141,0.0,0.0,0.0,1,0.0,0,1735643777088253974,map,0.9794969504915176,-0.250027149871011,0.1482031285164925,-0.5118088424862605,0.4795178578214137,-0.4730055763879245,0.5332729671464365,0.0,0.0,0.0,16,0.0,0,1735643777088270664,map,0.9927586246369622,0.0577283953238354,0.0228880394766448,-0.5043743051130769,0.4989336931439985,-0.4913200407397411,0.5052487978757498,0.0,0.0,0.0,17,0.0,0,1735643777088284730,map,0.999792433721698,-0.2550830988524936,0.2360545203746169,0.5416483030169913,-0.5278895031109567,0.4300854662565279,-0.4929262420068403,0.0,0.0,0.0,121,0.0,0,1735643777088297367,map,1.0082903140364994,0.2065464576731905,0.2415201977378891,-0.5046290591687791,0.4907788088220311,-0.4981960663390069,0.5062473238823104,0.0,0.0,0.0,122,0.0,0,1735643777088310956,map,1.0073180633505727,0.2095613507944477,0.1432379942326658,-0.4934109446211346,0.5060676534793065,-0.4741252765538951,0.5250203729025387,0.0,0.0,0.0,124,0.0,0,1735643777088322877,map,1.0072963376992603,-0.0251815731995152,0.24141139416913,0.5074089696090776,-0.5061451179602802,0.4914739784604286,-0.4947793302286453,0.0,0.0,0.0,125,0.0,0,1735643777088343858,map,1.0061865836979205,-0.0188277033091771,0.1432218485274155,0.5087082558542544,-0.5036809709827078,0.4923497540581987,-0.4950889915706773,0.0,0.0,0.0,126,0.0,0,1735644242188269615,map,0.9802113830437624,0.3321930887356784,0.0255839891234994,-0.5079545202306971,0.5017836119027818,-0.4818032749541615,0.5079970634230534,0.0,0.0,0.0,0,0.0,0.9570135730370898,-0.6358840884165968,-0.0160519853344173,1.0,1.582231173111814e-06,6.616058589940706e-05,-3.773263294915043e-05,0.0,0.0,0.0,6.616058589940706e-05,0.0027664877300729,-0.0015777802547862,0.0,0.0,0.0,-3.773263294915043e-05,-0.0015777802547862,0.0008998379083096,0.0,0.0,0.0,0.0,0.0,0.0,0.0,0.0,0.0,0.0,0.0,0.0,0.0,0.0,0.0,0.0,0.0,0.0,0.0,0.0,0.0,0,0,0,1,2,,1
0.202681016,0,1735643777088230371,map,0.9821713656551572,-0.2231568506329813,0.0206963449909224,-0.5008022959100513,0.5111216031896831,-0.4929230346064464,0.4949531787133016,0.0,0.0,0.0,1,2.044855925860153e-27,0,1735643777088253974,map,0.9787033304023088,-0.2511646378180043,0.1488574848474133,-0.4988142772974558,0.475087986070059,-0.4901991471688356,0.5340229567828133,0.0,0.0,0.0,16,0.0,0,1735643777088270664,map,0.9901145385028194,0.0556989961639165,0.0238398050318874,-0.4944572476841111,0.5067992201002748,-0.4984572908120601,0.5002068671606864,0.0,0.0,0.0,17,0.0,0,1735643777088284730,map,1.0090859312745832,-0.2579303151034355,0.2355804528278681,-0.4572144889484422,0.4715520342850849,-0.5311801609902851,0.5352020428095803,0.0,0.0,0.0,121,0.0,0,1735643777088297367,map,1.022504718482678,0.2123722439988375,0.2412867124067103,-0.522662853563294,0.4835357156860302,-0.4853818850861991,0.5073669074656344,0.0,0.0,0.0,122,0.0,0,1735643777088310956,map,1.0030248579569898,0.2063371074570608,0.1438874575499667,-0.4731560280315422,0.4961938501719734,-0.4958624728039507,0.5329497577198803,0.0,0.0,0.0,124,0.0,0,1735643777088322877,map,1.009513068463245,-0.0256794527040963,0.2416624943769838,-0.5047238399937016,0.50716662464418,-0.4939715298733259,0.4939918904836879,0.0,0.0,0.0,125,0.0,0,1735643777088343858,map,1.0005812335900257,-0.0209021195464845,0.1441342675291095,0.5099433710132966,-0.504293295451957,0.502606490048668,-0.4827346545285088,0.0,0.0,0.0,126,0.0,0,1735644242188269615,map,0.9802113830437624,0.3321930887356784,0.0255839891234994,-0.5079545202306971,0.5017836119027818,-0.4818032749541615,0.5079970634230534,0.0,0.0,0.0,0,0.0,0.9575157157104588,-0.6662416037758908,-0.0171537988660373,1.0,1.5591153109107477e-06,1.3619449427562463e-05,-2.626162381741041e-05,0.0,0.0,0.0,1.3619449427562463e-05,0.0036874826309615,-0.0009849568607723,0.0,0.0,0.0,-2.626162381741041e-05,-0.0009849568607723,0.00060231992499,0.0,0.0,0.0,0.0,0.0,0.0,0.0,0.0,0.0,0.0,0.0,0.0,0.0,0.0,0.0,0.0,0.0,0.0,0.0,0.0,0.0,0,0,0,1,3,,1
0.301008554,0,1735643777088230371,map,0.974469259523246,-0.2209432656764893,0.0230355834054449,-0.4811451378400509,0.4990538664744929,-0.5124797117592537,0.5067633961967757,0.0,0.0,0.0,1,1.6604635680954303e-16,0,1735643777088253974,map,0.9776682027486768,-0.2497890519939736,0.1485334846648318,-0.4636988813990136,0.6905991914085461,-0.4554811703079394,0.3171640075892537,0.0,0.0,0.0,16,1.6856357991010525e-15,0,1735643777088270664,map,0.985804049913561,0.0555957292135813,0.024520236247201,-0.4977790776650906,0.5037342009964697,-0.4922817272731455,0.5060894640064232,0.0,0.0,0.0,17,1.5292370141176726e-41,0,1735643777088284730,map,1.0104041329727569,-0.2569808131848483,0.235639524858434,-0.4953177580365454,0.4971832664916276,-0.4926112286316969,0.5145904153016612,0.0,0.0,0.0,121,4.799853014843974e-16,0,1735643777088297367,map,1.0103938225834683,0.2087288641832639,0.2408368651162837,0.5128721217928599,-0.498853268998689,0.4914015646932291,-0.4966206851451697,0.0,0.0,0.0,122,0.0,0,1735643777088310956,map,1.009002202926394,0.2115408493121423,0.1426505997286269,-0.4956341276317935,0.50436660563389,-0.4706145271641039,0.5277149850725544,0.0,0.0,0.0,124,0.0,0,1735643777088322877,map,0.993256322598101,-0.0268041573471283,0.2411912709243301,-0.5116099446138698,0.5349484165738039,-0.4845315495065611,0.4661701767703981,0.0,0.0,0.0,125,6.247827090961085e-35,0,1735643777088343858,map,1.009005615384497,-0.0179017213499431,0.1426744189507902,0.5002868240136548,-0.4997597782559865,0.5014016644980686,-0.4985475188930579,0.0,0.0,0.0,126,1.4383352320492616e-34,0,1735644242188269615,map,0.9802113830437624,0.3321930887356784,0.0255839891234994,-0.5079545202306971,0.5017836119027818,-0.4818032749541615,0.5079970634230534,0.0,0.0,0.0,0,0.0,0.9612236082466452,-0.6704231366037531,-0.0718661107713485,1.0,4.2414737662904336e-05,-3.629943601607504e-05,-0.0006282983367166,0.0,0.0,0.0,-3.629943601607504e-05,0.0028180676235926,-5.237366061837472e-05,0.0,0.0,0.0,-0.0006282983367166,-5.237366061837472e-05,0.0094320511658147,0.0,0.0,0.0,0.0,0.0,0.0,0.0,0.0,0.0,0.0,0.0,0.0,0.0,0.0,0.0,0.0,0.0,0.0,0.0,0.0,0.0,0,0,0,1,4,,1
0.401361099,0,1735643777088230371,map,0.9742288392395012,-0.2209510601545458,0.0228620530901985,-0.4854938288685042,0.4959300612363304,-0.5147446858460811,0.5033756300079967,0.0,0.0,0.0,1,7.089077485034068e-07,0,1735643777088253974,map,0.986867920204765,-0.2516539283540011,0.1470677029838804,-0.5113076838216264,0.5137691157651489,-0.4736100747406034,0.5002991557608912,0.0,0.0,0.0,16,3.3285921574588435e-08,0,1735643777088270664,map,0.9851971906186456,0.0558826479645879,0.0245310842259012,-0.492715278582499,0.5027877889406445,-0.4988729385348424,0.5055312895767768,0.0,0.0,0.0,17,2.505220643699577e-16,0,1735643777088284730,map,1.0060849600226016,-0.2560741117955196,0.2359055433621989,-0.4007932346109218,0.6042776150085266,-0.5620327813589459,0.3979101654489975,0.0,0.0,0.0,121,4.562693556309228e-10,0,1735643777088297367,map,1.01491887558676,0.21149464619201,0.2413383674497573,-0.5017216139162085,0.4773043091382947,-0.4963105674588455,0.5235760109439781,0.0,0.0,0.0,122,9.223945808303549e-30,0,1735643777088310956,map,1.0050790626231212,0.2099760496436404,0.1433090908852341,-0.4815932411126814,0.502388729811676,-0.4869563764198867,0.5277755221084115,0.0,0.0,0.0,124,1.4338653206551946e-26,0,1735643777088322877,map,0.9985185766131606,-0.0257403593165179,0.241666240881399,-0.5030963050326949,0.5037238117884816,-0.4955206156742615,0.497610036817519,0.0,0.0,0.0,125,2.7051405445558957e-18,0,1735643777088343858,map,1.0026787417248186,-0.0185816090982837,0.1436029437624088,-0.4948038133496174,0.4750100121975258,-0.501249227109852,0.5275261954903837,0.0,0.0,0.0,126,6.880695328892569e-16,0,1735644242188269615,map,0.9802113830437624,0.3321930887356784,0.0255839891234994,-0.5079545202306971,0.5017836119027818,-0.4818032749541615,0.5079970634230534,0.0,0.0,0.0,0,3.1296634310981973e-30,0.9619648474749852,-0.6307339863406292,-0.0913838371875975,1.0,3.6129532504843306e-05,8.863707164515996e-05,-0.0005605078872442,0.0,0.0,0.0,8.863707164515996e-05,0.0085553686933094,-0.0031404668346108,0.0,0.0,0.0,-0.0005605078872442,-0.0031404668346108,0.0090694075104899,0.0,0.0,0.0,0.0,0.0,0.0,0.0,0.0,0.0,0.0,0.0,0.0,0.0,0.0,0.0,0.0,0.0,0.0,0.0,0.0,0.0,0,0,0,1,5,,1
0.499980089,0,1735643777088230371,map,0.9780877565570888,-0.221338950703177,0.0213052113981873,-0.4839764876948967,0.5006214091187311,-0.5140486580736703,0.5008981345774272,0.0,0.0,0.0,1,0.0001277225819649,0,1735643777088253974,map,0.9773661809711184,-0.2501416421309881,0.1477575948086362,-0.5107754011980334,0.4749873228501305,-0.4783256168650869,0.5335729911767346,0.0,0.0,0.0,16,8.130604669531749e-07,0,1735643777088270664,map,0.9941558732836868,0.0591858132271251,0.0211456617729134,-0.5139489473783609,0.50020342458016,-0.4784739658144949,0.5066711730153043,0.0,0.0,0.0,17,3.4263161752257076e-10,0,1735643777088284730,map,0.9992197528379554,-0.2544974652530526,0.2354757140066699,0.356880018449881,-0.5355345428088244,0.633319944099383,-0.4298200254707894,0.0,0.0,0.0,121,4.113770213365342e-09,0,1735643777088297367,map,1.015661610560345,0.2127894705531902,0.2410749121399449,-0.5099698568433821,0.4899564490373556,-0.4960698195620301,0.5037739148442882,0.0,0.0,0.0,122,5.282673568564034e-22,0,1735643777088310956,map,1.004979800552808,0.2106109305419725,0.1430159969447409,-0.4940306045928533,0.5061989505388982,-0.4783331079162722,0.5204746123204262,0.0,0.0,0.0,124,3.78683408503868e-18,0,1735643777088322877,map,0.9976960912870592,-0.0254331153795761,0.2412312144238945,0.5492401927194195,-0.5236238240142336,0.4511097811818024,-0.4697374446947492,0.0,0.0,0.0,125,1.2118343675272031e-14,0,1735643777088343858,map,1.0018165524384153,-0.0186848998172629,0.1434498443197542,-0.5081900329472593,0.4990881160336816,-0.4921131085863718,0.5004784023356768,0.0,0.0,0.0,126,1.4741281112451432e-11,0,1735644242188269615,map,0.9802113830437624,0.3321930887356784,0.0255839891234994,-0.5079545202306971,0.5017836119027818,-0.4818032749541615,0.5079970634230534,0.0,0.0,0.0,0,2.4494546745175385e-18,0.9624879561132024,-0.5842756314666703,-0.1090640507022037,1.0,3.1476156990922684e-05,0.0001953780601305,-0.0005133332681119,0.0,0.0,0.0,0.0001953780601305,0.0179213675990646,-0.0067240238640537,0.0,0.0,0.0,-0.0005133332681119,-0.0067240238640537,0.0091207893416852,0.0,0.0,0.0,0.0,0.0,0.0,0.0,0.0,0.0,0.0,0.0,0.0,0.0,0.0,0.0,0.0,0.0,0.0,0.0,0.0,0.0,0,0,0,1,6,,1
0.602356529,0,1735643777088230371,map,0.9823431011288078,-0.2220009566059275,0.0194463451494025,0.4836112140697685,-0.5064218305141085,0.511123271906826,-0.4984075883450861,0.0,0.0,0.0,1,0.0009920396842062,0,1735643777088253974,map,0.966504097819562,-0.2482357757628856,0.1494085001339479,-0.4947707277334686,0.4536423341908057,-0.4909382797594167,0.5553288801015808,0.0,0.0,0.0,16,2.6589091248752084e-06,0,1735643777088270664,map,0.9784038254406782,0.0539906146942552,0.026406937064193,0.4729634465398163,-0.5087113459559327,0.5181528143195092,-0.4990350746647514,0.0,0.0,0.0,17,5.8166939709281e-08,0,1735643777088284730,map,1.001017266990981,-0.2548144808863161,0.2355275260445077,0.3575928530284011,-0.5357741685332328,0.6307178076106844,-0.4327452356275033,0.0,0.0,0.0,121,1.0978511433279436e-08,0,1735643777088297367,map,1.014887480041316,0.2129767447396282,0.2412923374248329,0.5314576356540714,-0.493700502237381,0.4801381899714398,-0.4932341372274345,0.0,0.0,0.0,122,7.658334862060685e-19,0,1735643777088310956,map,1.005339357048767,0.2115821039250378,0.1429773748276416,-0.4907153958583466,0.5037057247494449,-0.4809018546295167,0.5236528901248553,0.0,0.0,0.0,124,7.142656149698723e-15,0,1735643777088322877,map,1.005112080178495,-0.0237572566085737,0.2413870206662362,0.5289691452896009,-0.5085811029227953,0.4659160247778229,-0.4944281170571241,0.0,0.0,0.0,125,3.9641892741505697e-13,0,1735643777088343858,map,1.005520190301428,-0.0173768100364962,0.142735034184034,0.5227196223476234,-0.5137170527280278,0.4838509773857831,-0.4782752532088701,0.0,0.0,0.0,126,8.18859591245058e-10,0,1735644242188269615,map,0.9802113830437624,0.3321930887356784,0.0255839891234994,-0.5079545202306971,0.5017836119027818,-0.4818032749541615,0.5079970634230534,0.0,0.0,0.0,0,5.35670276581926e-14,0.9624876453458776,-0.5452184335636339,-0.1173288715446357,1.0,2.697956371453457e-05,0.0001673940824779,-0.0004399845334783,0.0,0.0,0.0,0.0001673940824779,0.0245139604759914,-0.0077002534859878,0.0,0.0,0.0,-0.0004399845334783,-0.0077002534859878,0.0082276630170752,0.0,0.0,0.0,0.0,0.0,0.0,0.0,0.0,0.0,0.0,0.0,0.0,0.0,0.0,0.0,0.0,0.0,0.0,0.0,0.0,0.0,0,0,0,1,7,,1
0.701691942,0,1735643777088230371,map,0.980267536852651,-0.2211077369764549,0.0203224225256625,-0.4738489268383676,0.5207513580781269,-0.5145059645943159,0.4894576896839872,0.0,0.0,0.0,1,0.0091202491894364,0,1735643777088253974,map,0.9727006964976336,-0.2487972236673354,0.1491262037643536,-0.5197101220557011,0.4809766458327402,-0.4714244404159681,0.525663249785284,0.0,0.0,0.0,16,3.452203964116052e-05,0,1735643777088270664,map,0.9820801798011404,0.0562407341657846,0.0254495422880274,-0.5038468286330028,0.4986739373481301,-0.4898386581697967,0.5074650396318859,0.0,0.0,0.0,17,2.2902169803273864e-05,0,1735643777088284730,map,1.008863011822386,-0.255652042000963,0.2360935355120373,-0.4632485753920222,0.5858758742367904,-0.5056549018667846,0.4318140081130195,0.0,0.0,0.0,121,1.6162817928488948e-07,0,1735643777088297367,map,1.0033544599688375,0.2077740796210259,0.2413308011838511,0.5164488006138374,-0.5039273084102829,0.4931523462577906,-0.4859410124318924,0.0,0.0,0.0,122,4.9559674127151044e-14,0,1735643777088310956,map,1.0021252467270307,0.2108597538775296,0.1435011299977832,-0.483086802722302,0.4963169901328588,-0.4818871453635358,0.5367321170513146,0.0,0.0,0.0,124,1.5015656773531558e-10,0,1735643777088322877,map,1.0064354409658771,-0.0224317576187103,0.2417921203190221,-0.5103188053018199,0.46574028825381,-0.4800163052455028,0.5405969363130331,0.0,0.0,0.0,125,1.8156683101455684e-10,0,1735643777088343858,map,1.00253338970868,-0.0169082823997039,0.1433998207438847,-0.5179646824124665,0.4717967920635964,-0.4781319878857406,0.5296321147100908,0.0,0.0,0.0,126,2.2446690195465638e-07,0,1735644242188269615,map,0.9802113830437624,0.3321930887356784,0.0255839891234994,-0.5079545202306971,0.5017836119027818,-0.4818032749541615,0.5079970634230534,0.0,0.0,0.0,0,4.296748290499863e-09,0.9620894360199578,-0.4998674787108466,-0.1209599997267253,1.0,2.471711292096543e-05,2.005561003594958e-05,-0.0003748648230535,0.0,0.0,0.0,2.005561003594958e-05,0.0358466791589093,-0.0078904477119937,0.0,0.0,0.0,-0.0003748648230535,-0.0078904477119937,0.0072915007830641,0.0,0.0,0.0,0.0,0.0,0.0,0.0,0.0,0.0,0.0,0.0,0.0,0.0,0.0,0.0,0.0,0.0,0.0,0.0,0.0,0.0,0,0,0,1,8,,1
0.801043547,0,1735643777088230371,map,0.9772626891393272,-0.2212539997705289,0.0215368061918188,0.464930856111252,-0.5288750453410024,0.5324370321613877,-0.4697246983440242,0.0,0.0,0.0,1,0.0262422244995832,0,1735643777088253974,map,0.977643007560757,-0.2499879015807231,0.14872702050048,-0.5047486166395014,0.5080820819049037,-0.493378741614883,0.4936181209905113,0.0,0.0,0.0,16,0.0001544156693853,0,1735643777088270664,map,0.9881662813392972,0.0580671062718721,0.0235805414980161,-0.5088148240684901,0.5023348676829288,-0.4877332431375738,0.5008826599680115,0.0,0.0,0.0,17,0.0003290909808129,0,1735643777088284730,map,1.0027972459215202,-0.2553773817377374,0.2371582397401596,0.3711558348858585,-0.550945365460425,0.6101446614419374,-0.4317708218740166,0.0,0.0,0.0,121,7.741334115962673e-07,0,1735643777088297367,map,1.010697422250535,0.2126272170912698,0.2428369405620344,-0.5117737758102268,0.4873812563454454,-0.4941893091147068,0.50628454461183,0.0,0.0,0.0,122,8.590433919763996e-12,0,1735643777088310956,map,0.9982226479825614,0.209203977578105,0.1450681406478228,-0.4770619346769437,0.4964752842743403,-0.4874451058038579,0.5369557443727284,0.0,0.0,0.0,124,1.4205162379710146e-08,0,1735643777088322877,map,0.9993225167716544,-0.0240924656840029,0.2429095285838323,-0.4681908156377052,0.4764620586443417,-0.5161015142325532,0.5361161197275849,0.0,0.0,0.0,125,4.8364818816537544e-09,0,1735643777088343858,map,0.9962010224296878,-0.018501747558999,0.1455439425602704,0.5071132958338298,-0.499811804047792,0.4933114045304869,-0.4996680136682762,0.0,0.0,0.0,126,3.4427457649144344e-06,0,1735644242188269615,map,0.9802113830437624,0.3321930887356784,0.0255839891234994,-0.5079545202306971,0.5017836119027818,-0.4818032749541615,0.5079970634230534,0.0,0.0,0.0,0,4.316065371767764e-07,0.9614844101111348,-0.4681652471551267,-0.1186002262059915,1.0,2.4899217843635136e-05,-0.0001356181627488,-0.0003446349689996,0.0,0.0,0.0,-0.0001356181627488,0.0399039666928192,-0.0064152506069631,0.0,0.0,0.0,-0.0003446349689996,-0.0064152506069631,0.0065258822779436,0.0,0.0,0.0,0.0,0.0,0.0,0.0,0.0,0.0,0.0,0.0,0.0,0.0,0.0,0.0,0.0,0.0,0.0,0.0,0.0,0.0,0,0,0,1,9,,1
0.899783314,0,1735643777088230371,map,0.978366854250222,-0.2213891899394722,0.0207084600329584,0.4800242478408995,-0.5133368639486154,0.514293184884833,-0.4914921215820191,0.0,0.0,0.0,1,0.0235910173505544,0,1735643777088253974,map,0.9722833964776448,-0.2490787702816277,0.1486765413429839,-0.502288787637265,0.49021344259612,-0.4822499692608804,0.5242439524303802,0.0,0.0,0.0,16,6.926821515662596e-05,0,1735643777088270664,map,0.9727636556894146,0.0530307205270161,0.028102476013241,-0.4788062853532162,0.4976673837651177,-0.5054256144586947,0.5173167931661296,0.0,0.0,0.0,17,0.0002808473072946,0,1735643777088284730,map,0.9940655896163164,-0.2540339863234432,0.2368132845631227,0.5505691169201318,-0.5259098395766701,0.4268005288745666,-0.4879895456693898,0.0,0.0,0.0,121,1.8764011144867254e-07,0,1735643777088297367,map,1.0017647689151317,0.2080577466496231,0.242443411543531,-0.508153716118268,0.4951189205560625,-0.4917798614896118,0.5047668998021287,0.0,0.0,0.0,122,2.16955728556123e-12,0,1735643777088310956,map,0.9980048662919028,0.209777226719679,0.1446413379322268,-0.48624032857813,0.5023648767236945,-0.4832749521320606,0.5269204818000282,0.0,0.0,0.0,124,7.458795359127635e-09,0,1735643777088322877,map,0.9904914849082778,-0.0252933327095767,0.2423743208727055,0.4707563115849598,-0.5136531000498179,0.5229263337730085,-0.4910163310510721,0.0,0.0,0.0,125,1.1154822621151084e-09,0,1735643777088343858,map,0.9976991277347252,-0.0177107369810515,0.1445867941587952,0.5098295281684778,-0.500696549640862,0.4976795163915257,-0.4916217207869683,0.0,0.0,0.0,126,1.7542632804179448e-06,0,1735644242188269615,map,0.9802113830437624,0.3321930887356784,0.0255839891234994,-0.5079545202306971,0.5017836119027818,-0.4818032749541615,0.5079970634230534,0.0,0.0,0.0,0,5.330342673914856e-07,0.9614069468445604,-0.4408368912033927,-0.123224873213238,1.0,2.2463301078287062e-05,-0.0001411088399731,-0.0003069473097242,0.0,0.0,0.0,-0.0001411088399731,0.0426351213747593,-0.0069111815423532,0.0,0.0,0.0,-0.0003069473097242,-0.0069111815423532,0.0060657802896239,0.0,0.0,0.0,0.0,0.0,0.0,0.0,0.0,0.0,0.0,0.0,0.0,0.0,0.0,0.0,0.0,0.0,0.0,0.0,0.0,0.0,0,0,0,1,10,,1
0.999870549,0,1735643777088230371,map,0.9724698009745532,-0.2214324180895183,0.0212361168449116,0.4742213681981577,-0.5126874451862965,0.5226319190999366,-0.4890005671065553,0.0,0.0,0.0,1,0.0148947965353727,0,1735643777088253974,map,0.975584513855697,-0.2504482404940824,0.1472274922977074,-0.5319809581434791,0.4920242450137115,-0.4622156361978484,0.5111409865640305,0.0,0.0,0.0,16,3.080312671954744e-05,0,1735643777088270664,map,0.9782803310254912,0.0544459881678457,0.0250750152092325,-0.4945105902987772,0.4988583401259902,-0.4990536568512596,0.5074889951048015,0.0,0.0,0.0,17,0.0001424479996785,0,1735643777088284730,map,1.0064583862489418,-0.2565338209751001,0.2362765669250282,-0.407852924839167,0.5796353006814031,-0.5593848309749394,0.4298459267915124,0.0,0.0,0.0,121,5.472145758744774e-08,0,1735643777088297367,map,1.0075566739421846,0.2113541626858779,0.241728253962041,-0.508708617991676,0.4771309065646987,-0.4904123303526044,0.5225489318904741,0.0,0.0,0.0,122,1.4486041489611412e-13,0,1735643777088310956,map,0.9994222990193264,0.2105249120354644,0.1435286608592567,-0.4839928660819114,0.5007334499677588,-0.4794749875367022,0.533966903461143,0.0,0.0,0.0,124,1.1833188873211498e-09,0,1735643777088322877,map,1.001132262415913,-0.0234980870393395,0.2419765185639254,-0.4898170503838633,0.4643915049092729,-0.4960602676678453,0.5462087496211112,0.0,0.0,0.0,125,1.5799919705905552e-10,0,1735643777088343858,map,0.99106324860498,-0.0195660768412399,0.1445597563873988,-0.5041448261252608,0.4962764094006452,-0.4966003005406943,0.5029272922266449,0.0,0.0,0.0,126,4.516297451573337e-07,0,1735644242188269615,map,0.9802113830437624,0.3321930887356784,0.0255839891234994,-0.5079545202306971,0.5017836119027818,-0.4818032749541615,0.5079970634230534,0.0,0.0,0.0,0,1.3983532198835746e-07,0.9616587732010212,-0.4221353063642328,-0.1309604993195825,1.0,2.1055347936526667e-05,-8.118524391107277e-05,-0.0002985233542132,0.0,0.0,0.0,-8.118524391107277e-05,0.0422566940047442,-0.0077295769903484,0.0,0.0,0.0,-0.0002985233542132,-0.0077295769903484,0.0061127448304115,0.0,0.0,0.0,0.0,0.0,0.0,0.0,0.0,0.0,0.0,0.0,0.0,0.0,0.0,0.0,0.0,0.0,0.0,0.0,0.0,0.0,0,0,0,1,11,,1
1.101850922,0,1735643777088230371,map,0.976092977479578,-0.2225079820698929,0.0204680788788454,-0.4847477707688141,0.5155364787609253,-0.5120552825393355,0.4868686942338894,0.0,0.0,0.0,1,0.0371718853712081,0,1735643777088253974,map,0.9737596779861816,-0.2507811265889375,0.1476951826762507,-0.5092432005508478,0.4828263737334745,-0.4804585566418458,0.5260319675359532,0.0,0.0,0.0,16,0.0006759583484381,0,1735643777088270664,map,0.9870151923940168,0.0577037822518483,0.0225593883779393,-0.5087338213020566,0.5014700452687212,-0.4878210138277785,0.5017453051396016,0.0,0.0,0.0,17,0.0005081813433207,0,1735643777088284730,map,0.9966979771068956,-0.2554925806048569,0.2365835965860936,-0.4176222799207447,0.6180189789740719,-0.5365979594510975,0.3945970132357358,0.0,0.0,0.0,121,1.1889629604411311e-05,0,1735643777088297367,map,1.011273180358782,0.2140502994883313,0.2427528534578813,-0.5169250256670362,0.4814281663593499,-0.4835123288170914,0.5169441617398157,0.0,0.0,0.0,122,1.7160670107152498e-10,0,1735643777088310956,map,0.995881040583816,0.2086382007109159,0.1446337468861509,-0.4870473111989576,0.5017524104235177,-0.4843023995358779,0.5258142458053474,0.0,0.0,0.0,124,6.726234147436116e-08,0,1735643777088322877,map,1.0000683815897116,-0.0237819789069847,0.2425200495734581,-0.4841609948473175,0.4793362284310005,-0.5044283867967002,0.5304497278495653,0.0,0.0,0.0,125,9.74894547312033e-08,0,1735643777088343858,map,0.9961130383151572,-0.0185650385899643,0.1444156483784958,0.5107955990829707,-0.498805908955478,0.4903064359599898,-0.4998801056301212,0.0,0.0,0.0,126,1.637308014323935e-05,0,1735644242188269615,map,0.9802113830437624,0.3321930887356784,0.0255839891234994,-0.5079545202306971,0.5017836119027818,-0.4818032749541615,0.5079970634230534,0.0,0.0,0.0,0,6.134027330517711e-07,0.9628642260189532,-0.4146787608450419,-0.1506143071934539,1.0,3.528501706734372e-05,2.445384497112856e-05,-0.0005342555269599,0.0,0.0,0.0,2.445384497112856e-05,0.0393469036195596,-0.0086974902178925,0.0,0.0,0.0,-0.0005342555269599,-0.0086974902178925,0.0098523432312507,0.0,0.0,0.0,0.0,0.0,0.0,0.0,0.0,0.0,0.0,0.0,0.0,0.0,0.0,0.0,0.0,0.0,0.0,0.0,0.0,0.0,0,0,0,1,12,,1
1.203338703,0,1735643777088230371,map,0.9710011530754294,-0.2221653107536393,0.0223403497132167,-0.4866281866011095,0.5028548330350824,-0.5041407007212061,0.506134546118822,0.0,0.0,0.0,1,0.0279999170452356,0,1735643777088253974,map,0.9764349020532423,-0.2513818185060468,0.1484282486809342,-0.4899951301662093,0.4881933545899095,-0.5074332086931651,0.5138906106001638,0.0,0.0,0.0,16,0.0005278764874674,0,1735643777088270664,map,0.973231617204134,0.0531838674796454,0.0271910488942896,-0.4768702930066728,0.5037005816930642,-0.5117050552057364,0.5069895305888408,0.0,0.0,0.0,17,0.0002710669068619,0,1735643777088284730,map,0.9969642119243932,-0.256098057051952,0.2375637499929868,0.3518636838586296,-0.520545807412849,0.6372332856154069,-0.4462709379627279,0.0,0.0,0.0,121,9.19993908610195e-06,0,1735643777088297367,map,0.9992979569505368,0.2079722313008369,0.2435636949899954,-0.5115435921103372,0.4950686982581539,-0.4899279416522064,0.5031905696297,0.0,0.0,0.0,122,7.694465897767344e-11,0,1735643777088310956,map,0.9949700164234948,0.2093387573276863,0.1454521572154934,-0.474439866996191,0.4954967870837309,-0.4911434490096734,0.5368126852908922,0.0,0.0,0.0,124,2.6812065456738313e-08,0,1735643777088322877,map,0.998078238207872,-0.0240608063734052,0.2442224348326682,0.522075778870332,-0.5079567270927198,0.4772827274555992,-0.4915465823202645,0.0,0.0,0.0,125,5.451255802313427e-08,0,1735643777088343858,map,0.99035287746166,-0.0196129401015969,0.146220292408048,-0.4802008541124188,0.4738717379884377,-0.5183595479738428,0.525505561026593,0.0,0.0,0.0,126,9.324330676463433e-06,0,1735644242188269615,map,0.9802113830437624,0.3321930887356784,0.0255839891234994,-0.5079545202306971,0.5017836119027818,-0.4818032749541615,0.5079970634230534,0.0,0.0,0.0,0,2.2278040034962035e-07,0.963435589470243,-0.4094764538149253,-0.1602830356219844,1.0,3.648825930687631e-05,5.824167716610201e-05,-0.0005594512444971,0.0,0.0,0.0,5.824167716610201e-05,0.0366449867069745,-0.0086320488353362,0.0,0.0,0.0,-0.0005594512444971,-0.0086320488353362,0.0102162823880968,0.0,0.0,0.0,0.0,0.0,0.0,0.0,0.0,0.0,0.0,0.0,0.0,0.0,0.0,0.0,0.0,0.0,0.0,0.0,0.0,0.0,0,0,0,1,13,,1
1.302862473,0,1735643777088230371,map,0.9690068226749604,-0.222356178356358,0.023393711332301,-0.4873430859159234,0.4996207520407479,-0.5084415054882725,0.5043441842997718,0.0,0.0,0.0,1,0.0257498882710933,0,1735643777088253974,map,0.9734488106721056,-0.2512741109871096,0.149339973860559,-0.4475200910113577,0.6543034214626182,-0.4994913803058903,0.3494583835074129,0.0,0.0,0.0,16,0.0004152457695454,0,1735643777088270664,map,0.9774619467181755,0.0544177302223738,0.0264212542115354,-0.4992278835939497,0.50088709640486,-0.4940329890219228,0.5057816155768015,0.0,0.0,0.0,17,0.0002137192641384,0,1735643777088284730,map,1.0015508093314325,-0.2572705990326027,0.2389090319885612,-0.4716405016379259,0.4814753416241515,-0.5159591404355937,0.5286992510147864,0.0,0.0,0.0,121,6.2693588915863074e-06,0,1735643777088297367,map,0.9972570258335414,0.2071434621195506,0.2441415540580097,0.5278845627986112,-0.5036500712323356,0.4897269980338707,-0.4773279391606108,0.0,0.0,0.0,122,3.2232043423174866e-11,0,1735643777088310956,map,0.9955374333358772,0.2097573966461667,0.1462013524478183,-0.4885320919612396,0.4986361058212004,-0.4805380622181802,0.5308310464310096,0.0,0.0,0.0,124,1.36089619573454e-08,0,1735643777088322877,map,0.98844263948537,-0.0261632220342826,0.2442403527382661,-0.5068781802593156,0.5088534714502341,-0.4913876009935638,0.4926265122380655,0.0,0.0,0.0,125,3.1816007606266794e-08,0,1735643777088343858,map,0.9969188522296772,-0.0181811109516632,0.1463126087232766,-0.5120610067199068,0.4649340296285066,-0.4796445175399139,0.5399731570034738,0.0,0.0,0.0,126,6.48320519758272e-06,0,1735644242188269615,map,0.9802113830437624,0.3321930887356784,0.0255839891234994,-0.5079545202306971,0.5017836119027818,-0.4818032749541615,0.5079970634230534,0.0,0.0,0.0,0,1.2079937050657466e-07,0.963185092859552,-0.407061561809528,-0.1570382858999099,1.0,3.4697686246249784e-05,4.621756795554885e-05,-0.0005300568258217,0.0,0.0,0.0,4.621756795554885e-05,0.0341032998006469,-0.0079136095564029,0.0,0.0,0.0,-0.0005300568258217,-0.0079136095564029,0.0096234171416699,0.0,0.0,0.0,0.0,0.0,0.0,0.0,0.0,0.0,0.0,0.0,0.0,0.0,0.0,0.0,0.0,0.0,0.0,0.0,0.0,0.0,0,0,0,1,14,,1
1.402756181,0,1735643777088230371,map,0.974266987821926,-0.2234185650194872,0.0215333693708076,-0.4888608292604158,0.5146287887212647,-0.5019898119028953,0.4941442382339377,0.0,0.0,0.0,1,0.0357672907412052,0,1735643777088253974,map,0.9717199183562332,-0.2512578600887115,0.1493689706898306,-0.4320448158028772,0.6521126537974524,-0.5177239889399875,0.346479775991572,0.0,0.0,0.0,16,0.0006039862637408,0,1735643777088270664,map,0.9685292307108104,0.05061773747016,0.0288879496125316,-0.4745001074277373,0.4977679134762394,-0.510998233313235,0.5157107308514428,0.0,0.0,0.0,17,0.0003048081125598,0,1735643777088284730,map,0.9943875507370924,-0.2565190590450323,0.2382899908170295,-0.5111768648110822,0.508918872542755,-0.4721691692911409,0.506711031676475,0.0,0.0,0.0,121,1.0025267329183409e-05,0,1735643777088297367,map,1.004975119285683,0.2117886701065431,0.2447673227332912,-0.5078336911416444,0.4834788818750601,-0.495314106849417,0.5128518777173959,0.0,0.0,0.0,122,6.547704739512383e-11,0,1735643777088310956,map,0.9962402060191072,0.2102472610550968,0.1459241703019699,-0.4900769039245476,0.504059963801963,-0.4801482180180784,0.5246006765776772,0.0,0.0,0.0,124,2.6626297611187514e-08,0,1735643777088322877,map,0.9891494465597916,-0.0262238121029136,0.2438542026333979,0.5214379607029428,-0.5158436443615024,0.4775597395984572,-0.4836780776761067,0.0,0.0,0.0,125,6.563971055584261e-08,0,1735643777088343858,map,0.9909285914817576,-0.0195591542944131,0.1467125995881537,0.5068263920398559,-0.4993279616244471,0.4940753429410301,-0.4996880532587711,0.0,0.0,0.0,126,1.1068365893152077e-05,0,1735644242188269615,map,0.9802113830437624,0.3321930887356784,0.0255839891234994,-0.5079545202306971,0.5017836119027818,-0.4818032749541615,0.5079970634230534,0.0,0.0,0.0,0,1.8857912209568894e-07,0.9627795539856732,-0.4014331160701982,-0.1521491665865381,1.0,3.4686972058344224e-05,1.1180647103082686e-05,-0.0005224778952687,0.0,0.0,0.0,1.1180647103082686e-05,0.0322732581007719,-0.0070007815872181,0.0,0.0,0.0,-0.0005224778952687,-0.0070007815872181,0.0093165048261372,0.0,0.0,0.0,0.0,0.0,0.0,0.0,0.0,0.0,0.0,0.0,0.0,0.0,0.0,0.0,0.0,0.0,0.0,0.0,0.0,0.0,0,0,0,1,15,,1
1.500247821,0,1735643777088230371,map,0.9661847583781952,-0.2223083993994461,0.0251982147639329,-0.5636046598411575,0.6986675496833191,-0.3355593527962374,0.2856805264203537,0.0,0.0,0.0,1,0.0315818637609481,0,1735643777088253974,map,0.969314755802928,-0.2511703884753336,0.1501972518706298,-0.4706954796030183,0.4755163987964424,-0.5274431593329217,0.5235777245355784,0.0,0.0,0.0,16,0.0005211132229305,0,1735643777088270664,map,0.9749470030867914,0.053930003713256,0.0276155577569785,-0.4896061618068007,0.5105802443034477,-0.5052163712385656,0.4943177507235406,0.0,0.0,0.0,17,0.0002781512448564,0,1735643777088284730,map,0.9876047230119874,-0.2554359464624217,0.2390800582169672,-0.5355838495116317,0.5120429705428707,-0.4469832767055303,0.5011665260225608,0.0,0.0,0.0,121,7.309111879294505e-06,0,1735643777088297367,map,0.996506631240726,0.2076158036291229,0.2450552825111311,-0.4912047080187413,0.4807470332909581,-0.5077659873465187,0.5193976577692481,0.0,0.0,0.0,122,4.535374506509093e-11,0,1735643777088310956,map,0.9959102501950262,0.2112653906878351,0.1470196536953994,-0.4901138466915229,0.5035603377953873,-0.4736561332407507,0.5309098519749417,0.0,0.0,0.0,124,1.8033308180065436e-08,0,1735643777088322877,map,0.9926337679836132,-0.0251480962350115,0.2455117062518039,-0.554132194013557,0.3800288496684051,-0.4100732173090667,0.6167297150480278,0.0,0.0,0.0,125,4.34601830079373e-08,0,1735643777088343858,map,0.9930505101030416,-0.0184113637127342,0.1474428291543111,-0.5040210909627945,0.4937781891585516,-0.4970915765438848,0.5050205979018,0.0,0.0,0.0,126,8.97362406249158e-06,0,1735644242188269615,map,0.9802113830437624,0.3321930887356784,0.0255839891234994,-0.5079545202306971,0.5017836119027818,-0.4818032749541615,0.5079970634230534,0.0,0.0,0.0,0,1.413862946719746e-07,0.9625555584495192,-0.3970566010986297,-0.1497171142279339,1.0,3.3271646307951616e-05,-4.222940603998881e-06,-0.0004979945598947,0.0,0.0,0.0,-4.222940603998881e-06,0.0305434877189191,-0.0064035740346309,0.0,0.0,0.0,-0.0004979945598947,-0.0064035740346309,0.0088229464546286,0.0,0.0,0.0,0.0,0.0,0.0,0.0,0.0,0.0,0.0,0.0,0.0,0.0,0.0,0.0,0.0,0.0,0.0,0.0,0.0,0.0,0,0,0,1,16,,1
1.600046289,0,1735643777088230371,map,0.9679782070690324,-0.2231384500709594,0.0223169269108462,0.4845967862736856,-0.5051374743794861,0.5127834422265319,-0.4970465049560645,0.0,0.0,0.0,1,0.0289908535778522,0,1735643777088253974,map,0.9700999791248536,-0.2518351483545781,0.1487449549202595,-0.5012892732892302,0.5063180558585125,-0.496843645980869,0.4954770249418722,0.0,0.0,0.0,16,0.0003625937970355,0,1735643777088270664,map,0.9707448131536116,0.0517850489468493,0.0270679238226245,-0.4820254677558301,0.4983092026501717,-0.5058152541054135,0.5133130776662522,0.0,0.0,0.0,17,0.0001939054200192,0,1735643777088284730,map,1.0009434778288064,-0.2578008179170994,0.238663519574404,-0.4272741432203038,0.565344553029333,-0.5475245509371066,0.4450159649007427,0.0,0.0,0.0,121,4.062658263137564e-06,0,1735643777088297367,map,1.002936773269986,0.2121907242355485,0.2443167877630438,-0.5196537175702101,0.4855446581355867,-0.4913623737442822,0.5027617889615726,0.0,0.0,0.0,122,1.0967069266620832e-11,0,1735643777088310956,map,0.9916425113812372,0.2088227859276107,0.1459353234998235,-0.4813560050415905,0.5019082611641895,-0.4889315198980319,0.5266217453122691,0.0,0.0,0.0,124,7.734894502675616e-09,0,1735643777088322877,map,0.992442515862092,-0.0251034641599052,0.2443522484052139,-0.4999882356566809,0.4845140263763358,-0.4921619773240241,0.5225270428657427,0.0,0.0,0.0,125,1.761276102740794e-08,0,1735643777088343858,map,0.9850126154152186,-0.0205758892678201,0.1467924845973559,0.4865847314229233,-0.509632503862802,0.5166590336554098,-0.4863881712119148,0.0,0.0,0.0,126,4.963545507052913e-06,0,1735644242188269615,map,0.9802113830437624,0.3321930887356784,0.0255839891234994,-0.5079545202306971,0.5017836119027818,-0.4818032749541615,0.5079970634230534,0.0,0.0,0.0,0,6.272905750392965e-08,0.9625444264973154,-0.3934861037380013,-0.1503061694576508,1.0,3.131647336853583e-05,-4.610478028566403e-06,-0.0004685958448992,0.0,0.0,0.0,-4.610478028566403e-06,0.0289507871931834,-0.0060605447313519,0.0,0.0,0.0,-0.0004685958448992,-0.0060605447313519,0.0083095013813748,0.0,0.0,0.0,0.0,0.0,0.0,0.0,0.0,0.0,0.0,0.0,0.0,0.0,0.0,0.0,0.0,0.0,0.0,0.0,0.0,0.0,0,0,0,1,17,,1
1.701409636,0,1735643777088230371,map,0.9611366481042484,-0.2228496480400283,0.0263296475740802,-0.5034570095903962,0.4819347067804582,-0.477313839807184,0.5352022759884822,0.0,0.0,0.0,1,0.0210605934262275,0,1735643777088253974,map,0.9734100314566234,-0.2528227546297018,0.1498811695635986,0.5108895995874723,-0.5101908696667286,0.4856752685777981,-0.4927642712635966,0.0,0.0,0.0,16,0.0002321028296137,0,1735643777088270664,map,0.9702344683683188,0.051529751183083,0.0287268378974298,-0.4761235868439024,0.5016127331684013,-0.5110664101457447,0.5103940834247249,0.0,0.0,0.0,17,0.0001171209733001,0,1735643777088284730,map,0.9939842789615496,-0.2572184938730718,0.2400486117828449,-0.4900236464487711,0.5041335489640456,-0.486683317579262,0.518522457681448,0.0,0.0,0.0,121,1.8360367448622128e-06,0,1735643777088297367,map,0.9913177847972308,0.2050196385406519,0.2453089482433403,-0.4937713930303757,0.4922935115008951,-0.504949622211922,0.5087856021813093,0.0,0.0,0.0,122,3.1964814909551938e-12,0,1735643777088310956,map,0.9918860973061124,0.2094691058604426,0.1476799344354114,-0.4852347379771585,0.5007961379953301,-0.4816591663294062,0.5308059200122603,0.0,0.0,0.0,124,2.501995055581574e-09,0,1735643777088322877,map,0.9865352204755118,-0.0269929808642789,0.2455034569550583,-0.5496078380586382,0.3346917322842436,-0.3834898813286194,0.6624561718360267,0.0,0.0,0.0,125,6.368111815646671e-09,0,1735643777088343858,map,0.9873846041426556,-0.0199388169169698,0.14807425546566,-0.4911932601039279,0.4951080680437017,-0.5101215385847895,0.5033618957155933,0.0,0.0,0.0,126,2.4086311896098778e-06,0,1735644242188269615,map,0.9802113830437624,0.3321930887356784,0.0255839891234994,-0.5079545202306971,0.5017836119027818,-0.4818032749541615,0.5079970634230534,0.0,0.0,0.0,0,2.5944506987229946e-08,0.9625017194136652,-0.3923560546141499,-0.1499050643895394,1.0,2.9607675507402544e-05,-5.174779102153603e-06,-0.0004428539528757,0.0,0.0,0.0,-5.174779102153603e-06,0.0273641193142748,-0.0057161422385089,0.0,0.0,0.0,-0.0004428539528757,-0.0057161422385089,0.0078505974654292,0.0,0.0,0.0,0.0,0.0,0.0,0.0,0.0,0.0,0.0,0.0,0.0,0.0,0.0,0.0,0.0,0.0,0.0,0.0,0.0,0.0,0,0,0,1,18,,1
1.802678995,0,1735643777088230371,map,0.9703602929780006,-0.2240614670092456,0.0218523182573378,-0.4775178868314316,0.5135194349177595,-0.5127002458538267,0.4953916789967459,0.0,0.0,0.0,1,0.0216687768697738,0,1735643777088253974,map,0.9746717933435708,-0.2535272067378324,0.148669038614689,-0.5109386143197556,0.5042770734564321,-0.4835453142115354,0.5008296064404459,0.0,0.0,0.0,16,0.0001723635650705,0,1735643777088270664,map,0.9738104862102478,0.0533829649061106,0.0264721173788367,-0.491271595953386,0.493211599116379,-0.4974767789245188,0.5176015764440471,0.0,0.0,0.0,17,8.401635568588972e-05,0,1735643777088284730,map,0.9973042968310184,-0.2579972323016958,0.2392846925845388,-0.4442599459016575,0.4744373100599337,-0.5422965472571789,0.5324066060103808,0.0,0.0,0.0,121,1.073664179784828e-06,0,1735643777088297367,map,0.9935094292915028,0.2068889615651215,0.2450130132468986,-0.508639932876261,0.496643138946351,-0.4930612551671924,0.5015193015967593,0.0,0.0,0.0,122,8.986239486905023e-13,0,1735643777088310956,map,0.9908257393557776,0.2092878776739284,0.1468308432779266,-0.4853625621460142,0.4995968003275347,-0.4798072752191387,0.5334896428388575,0.0,0.0,0.0,124,1.0725007548728627e-09,0,1735643777088322877,map,0.9944763700229406,-0.0241704023160351,0.245658939531484,-0.5181537379983472,0.4913333095153899,-0.482074139710728,0.5076542195049262,0.0,0.0,0.0,125,2.5242659074109493e-09,0,1735643777088343858,map,0.9894984323518724,-0.0193829609827699,0.1470111323573745,-0.4888387710934473,0.477374790882791,-0.5091745518674359,0.5233461957787174,0.0,0.0,0.0,126,1.426522430847399e-06,0,1735644242188269615,map,0.9802113830437624,0.3321930887356784,0.0255839891234994,-0.5079545202306971,0.5017836119027818,-0.4818032749541615,0.5079970634230534,0.0,0.0,0.0,0,1.1738449323672741e-08,0.9624369852532436,-0.3907053042489525,-0.1492839230656221,1.0,2.812480600394571e-05,-6.825901208527657e-06,-0.0004202696132107,0.0,0.0,0.0,-6.825901208527657e-06,0.025972952090088,-0.0053968363601971,0.0,0.0,0.0,-0.0004202696132107,-0.0053968363601971,0.0074443528229404,0.0,0.0,0.0,0.0,0.0,0.0,0.0,0.0,0.0,0.0,0.0,0.0,0.0,0.0,0.0,0.0,0.0,0.0,0.0,0.0,0.0,0,0,0,1,19,,1
1.901385351,0,1735643777088230371,map,0.9645902695294896,-0.2231029462921464,0.0251210466990227,-0.4838978341015174,0.4969683546607247,-0.5136492041138062,0.505004787829705,0.0,0.0,0.0,1,0.0251342765986919,0,1735643777088253974,map,0.968044063840819,-0.2520985662249517,0.1508076923777415,-0.5077198931853513,0.4999903454022434,-0.4903439775687782,0.5017897450431108,0.0,0.0,0.0,16,0.000240971770836,0,1735643777088270664,map,0.9752894971958944,0.0551926302413688,0.0272189184393212,-0.5071107686859246,0.5011577826153257,-0.4894503753792134,0.5021134087514566,0.0,0.0,0.0,17,0.0001175133293145,0,1735643777088284730,map,0.9927477317438372,-0.257160801537339,0.2405960469977306,0.3793228211665069,-0.5276844915891201,0.6078445301042547,-0.4562765629538213,0.0,0.0,0.0,121,1.8662225329535431e-06,0,1735643777088297367,map,0.9935094292915028,0.2068889615651215,0.2450130132468986,-0.508639932876261,0.496643138946351,-0.4930612551671924,0.5015193015967593,0.0,0.0,0.0,122,2.755804482182378e-12,0,1735643777088310956,map,0.9908257393557776,0.2092878776739284,0.1468308432779266,-0.4853625621460142,0.4995968003275347,-0.4798072752191387,0.5334896428388575,0.0,0.0,0.0,124,2.3883974797911382e-09,0,1735643777088322877,map,0.9824768933879158,-0.0268706286911379,0.2460829007996959,-0.503755670167462,0.5249529187815916,-0.4913356221208581,0.4787942817869992,0.0,0.0,0.0,125,6.288793485964561e-09,0,1735643777088343858,map,0.984238465238234,-0.0205316834800797,0.148893498358157,-0.5074540946471157,0.4972245692649773,-0.4930067246678616,0.5021976094899319,0.0,0.0,0.0,126,2.516859922252479e-06,0,1735644242188269615,map,0.9802113830437624,0.3321930887356784,0.0255839891234994,-0.5079545202306971,0.5017836119027818,-0.4818032749541615,0.5079970634230534,0.0,0.0,0.0,0,1.8671819645987853e-08,0.9621127956793228,-0.3874995302515606,-0.1451016423349584,1.0,2.8715444420688878e-05,-2.623089776781967e-05,-0.0004250173169039,0.0,0.0,0.0,-2.623089776781967e-05,0.0248695672371083,-0.0048722530526803,0.0,0.0,0.0,-0.0004250173169039,-0.0048722530526803,0.0074044731518849,0.0,0.0,0.0,0.0,0.0,0.0,0.0,0.0,0.0,0.0,0.0,0.0,0.0,0.0,0.0,0.0,0.0,0.0,0.0,0.0,0.0,0,0,0,1,20,,1
1.999898009,0,1735643777088230371,map,0.9663377301624732,-0.2233266238011993,0.0239699589988689,-0.4877377668437522,0.5080589646595844,-0.5060582609838081,0.4978885374391992,0.0,0.0,0.0,1,0.0305093117058277,0,1735643777088253974,map,0.9700563638269376,-0.2522554054533309,0.1502726584031783,-0.490197383773322,0.492470645451355,-0.5082873296310504,0.5087466745316893,0.0,0.0,0.0,16,0.000300155574223,0,1735643777088270664,map,0.9772302996493256,0.0560110866477748,0.0262001698235257,-0.5059190441587845,0.5001728709304097,-0.4907724825416881,0.5030063521691975,0.0,0.0,0.0,17,0.0001573069166624,0,1735643777088284730,map,0.992718825987588,-0.2568633576144333,0.2406951177915548,0.3754685306798729,-0.502480281180857,0.6136927210349957,-0.4794978557221785,0.0,0.0,0.0,121,2.244406687168521e-06,0,1735643777088297367,map,0.9935094292915028,0.2068889615651215,0.2450130132468986,-0.508639932876261,0.496643138946351,-0.4930612551671924,0.5015193015967593,0.0,0.0,0.0,122,4.752767190224772e-12,0,1735643777088310956,map,0.9908257393557776,0.2092878776739284,0.1468308432779266,-0.4853625621460142,0.4995968003275347,-0.4798072752191387,0.5334896428388575,0.0,0.0,0.0,124,3.7466496571880725e-09,0,1735643777088322877,map,0.9834516364998682,-0.0259658170178698,0.2464983182530181,0.5210651226146295,-0.5114431508878677,0.4777454177717178,-0.4885451434643658,0.0,0.0,0.0,125,8.802822470954652e-09,0,1735643777088343858,map,0.985792169331746,-0.0189088923941701,0.1486713076134527,-0.5057987347022078,0.4961921826596019,-0.4948502394505084,0.5030747443043836,0.0,0.0,0.0,126,3.4360714380454738e-06,0,1735644242188269615,map,0.9802113830437624,0.3321930887356784,0.0255839891234994,-0.5079545202306971,0.5017836119027818,-0.4818032749541615,0.5079970634230534,0.0,0.0,0.0,0,2.6101847794279823e-08,0.9618765632569118,-0.3829236510216817,-0.1425283159836243,1.0,2.8464157453380545e-05,-4.660122810060541e-05,-0.0004169364594039,0.0,0.0,0.0,-4.660122810060541e-05,0.0241040755451081,-0.0044047363904973,0.0,0.0,0.0,-0.0004169364594039,-0.0044047363904973,0.0071843193624808,0.0,0.0,0.0,0.0,0.0,0.0,0.0,0.0,0.0,0.0,0.0,0.0,0.0,0.0,0.0,0.0,0.0,0.0,0.0,0.0,0.0,0,0,0,1,21,,1
2.100147721,0,1735643777088230371,map,0.9633818510310546,-0.2234269268746465,0.0249722871085205,-0.4910414527855952,0.4894328283028367,-0.5021046954912878,0.5169377844492503,0.0,0.0,0.0,1,0.0249264482408761,0,1735643777088253974,map,0.964995307534266,-0.252022733126253,0.1501763014095271,-0.5213310878364266,0.4926914515359697,-0.4668430322612564,0.5172297494032831,0.0,0.0,0.0,16,0.0001968329015653,0,1735643777088270664,map,0.969931860634954,0.0522551123295816,0.0282917394788208,-0.493514960709803,0.4995280903913454,-0.4967142579444852,0.5100878516689423,0.0,0.0,0.0,17,0.0001120847809943,0,1735643777088284730,map,0.9886342667002138,-0.2562830065353225,0.240085609960467,0.3487382275778016,-0.4959338391102237,0.6381449056880312,-0.4745549021933101,0.0,0.0,0.0,121,1.1931962262679008e-06,0,1735643777088297367,map,0.9935094292915028,0.2068889615651215,0.2450130132468986,-0.508639932876261,0.496643138946351,-0.4930612551671924,0.5015193015967593,0.0,0.0,0.0,122,1.4750978216682142e-12,0,1735643777088310956,map,0.9908257393557776,0.2092878776739284,0.1468308432779266,-0.4853625621460142,0.4995968003275347,-0.4798072752191387,0.5334896428388575,0.0,0.0,0.0,124,1.6592272000792716e-09,0,1735643777088322877,map,0.9915694073130152,-0.0238703533220551,0.2473421977835452,-0.4949797442837546,0.4939037186385598,-0.4985255439042447,0.51237335170632,0.0,0.0,0.0,125,3.3686542444399943e-09,0,1735643777088343858,map,0.9881001865980038,-0.0186411551192523,0.1485421521461039,-0.5101998336830085,0.4830484440684026,-0.4935980698009528,0.5125634359586139,0.0,0.0,0.0,126,1.9544147562555736e-06,0,1735644242188269615,map,0.9802113830437624,0.3321930887356784,0.0255839891234994,-0.5079545202306971,0.5017836119027818,-0.4818032749541615,0.5079970634230534,0.0,0.0,0.0,0,1.4392064429102902e-08,0.96193754641011,-0.377645530619634,-0.1445602452565944,1.0,2.724842995904406e-05,-3.772358553307534e-05,-0.0004005869846952,0.0,0.0,0.0,-3.772358553307534e-05,0.0235934654021519,-0.0044297412143949,0.0,0.0,0.0,-0.0004005869846952,-0.0044297412143949,0.0069444628594363,0.0,0.0,0.0,0.0,0.0,0.0,0.0,0.0,0.0,0.0,0.0,0.0,0.0,0.0,0.0,0.0,0.0,0.0,0.0,0.0,0.0,0,0,0,1,22,,1
2.201653327,0,1735643777088230371,map,0.9606475759537908,-0.2233229253777382,0.0248054251779295,-0.4966976215512611,0.4915976044749515,-0.4939151557244757,0.5173693912143202,0.0,0.0,0.0,1,0.0210070386528968,0,1735643777088253974,map,0.9708079794799092,-0.2530461212358763,0.1498376673654436,-0.5006315803209517,0.5067172698085748,-0.4979124070964745,0.494660352284762,0.0,0.0,0.0,16,0.0001398435997543,0,1735643777088270664,map,0.97398802122303,0.0548363827734998,0.0263321788748829,-0.5042443900406115,0.4964094399836247,-0.4916361793354556,0.507552096021829,0.0,0.0,0.0,17,7.794806879246607e-05,0,1735643777088284730,map,0.9949963149859608,-0.2579411027648191,0.2401383116713127,-0.474086481494707,0.5368365065566107,-0.502959408060206,0.4838185684074044,0.0,0.0,0.0,121,6.698061270071776e-07,0,1735643777088297367,map,0.9935094292915028,0.2068889615651215,0.2450130132468986,-0.508639932876261,0.496643138946351,-0.4930612551671924,0.5015193015967593,0.0,0.0,0.0,122,4.351177621333968e-13,0,1735643777088310956,map,0.9908257393557776,0.2092878776739284,0.1468308432779266,-0.4853625621460142,0.4995968003275347,-0.4798072752191387,0.5334896428388575,0.0,0.0,0.0,124,6.803546614975176e-10,0,1735643777088322877,map,0.9875786312147804,-0.0251151698278657,0.245928665185079,-0.5121729034485415,0.4973466023411183,-0.4870507563747462,0.503097241920113,0.0,0.0,0.0,125,1.5684603615895296e-09,0,1735643777088343858,map,0.9806361465553814,-0.0212270607230412,0.1479437953202809,-0.4741559058814536,0.4764917088295824,-0.526850164567913,0.5201545274523388,0.0,0.0,0.0,126,1.1637641819106648e-06,0,1735644242188269615,map,0.9802113830437624,0.3321930887356784,0.0255839891234994,-0.5079545202306971,0.5017836119027818,-0.4818032749541615,0.5079970634230534,0.0,0.0,0.0,0,6.704491184450489e-09,0.9619622465135528,-0.3756971524543505,-0.1453431338350972,1.0,2.607713770542055e-05,-3.5024676511311884e-05,-0.0003835955827089,0.0,0.0,0.0,-3.5024676511311884e-05,0.0226511784630291,-0.0042707017565593,0.0,0.0,0.0,-0.0003835955827089,-0.0042707017565593,0.0066560138112145,0.0,0.0,0.0,0.0,0.0,0.0,0.0,0.0,0.0,0.0,0.0,0.0,0.0,0.0,0.0,0.0,0.0,0.0,0.0,0.0,0.0,0,0,0,1,23,,1
2.300014861,0,1735643777088230371,map,0.9662417375453348,-0.2247896605902977,0.0228581581125439,-0.4895290785248356,0.509420028611457,-0.4962843483126856,0.5045338059515748,0.0,0.0,0.0,1,0.0213170982897281,0,1735643777088253974,map,0.9682901070427076,-0.2537891857086074,0.1499220790651824,-0.5249444754954882,0.4991598161686149,-0.4639133657978184,0.5099580027839761,0.0,0.0,0.0,16,0.0001098723441828,0,1735643777088270664,map,0.9690806979089774,0.0522650849406452,0.0277574717411814,-0.4982135927801357,0.500365571604454,-0.4943664515246467,0.5069707312350359,0.0,0.0,0.0,17,5.88760849495884e-05,0,1735643777088284730,map,0.9881468624934766,-0.2577846426524317,0.2408080039070011,-0.4984971710656865,0.5226378810497682,-0.481369633733295,0.4966220811147946,0.0,0.0,0.0,121,4.083305213953281e-07,0,1735643777088297367,map,0.9935094292915028,0.2068889615651215,0.2450130132468986,-0.508639932876261,0.496643138946351,-0.4930612551671924,0.5015193015967593,0.0,0.0,0.0,122,1.795247707003095e-13,0,1735643777088310956,map,0.9908257393557776,0.2092878776739284,0.1468308432779266,-0.4853625621460142,0.4995968003275347,-0.4798072752191387,0.5334896428388575,0.0,0.0,0.0,124,3.54213491871036e-10,0,1735643777088322877,map,0.9889372837642486,-0.0242300682998109,0.2478480274613278,-0.4901915599661698,0.4946927371120694,-0.5021368323895411,0.51268892317301,0.0,0.0,0.0,125,7.224663645111207e-10,0,1735643777088343858,map,0.9776322759874876,-0.0215823921279332,0.1493285844583305,0.491608548465611,-0.4973680719603475,0.5118115704824406,-0.4989939402340269,0.0,0.0,0.0,126,7.182517833825841e-07,0,1735644242188269615,map,0.9802113830437624,0.3321930887356784,0.0255839891234994,-0.5079545202306971,0.5017836119027818,-0.4818032749541615,0.5079970634230534,0.0,0.0,0.0,0,3.627647293669156e-09,0.9618739426796472,-0.3748687761833369,-0.144194460023784,1.0,2.5169934343923963e-05,-3.524773740488697e-05,-0.0003699453763626,0.0,0.0,0.0,-3.524773740488697e-05,0.0217231621270695,-0.0040708705650822,0.0,0.0,0.0,-0.0003699453763626,-0.0040708705650822,0.0064090272874842,0.0,0.0,0.0,0.0,0.0,0.0,0.0,0.0,0.0,0.0,0.0,0.0,0.0,0.0,0.0,0.0,0.0,0.0,0.0,0.0,0.0,0,0,0,1,24,,1
2.402739611,0,1735643777088230371,map,0.9607314973436524,-0.2242680177207058,0.0257962764169414,-0.4787856193535168,0.4982093009257252,-0.5107327815775126,0.5115699844532194,0.0,0.0,0.0,1,0.0235866606235504,0,1735643777088253974,map,0.9590798386795274,-0.2524605470604624,0.1516059341218153,-0.5221622752684023,0.4804788609966905,-0.4726567479036235,0.522572694544041,0.0,0.0,0.0,16,0.0001577297225594,0,1735643777088270664,map,0.9628147600905024,0.0496451791808088,0.0305897563809741,-0.4779857622631075,0.501064590261829,-0.508988889046838,0.5112672474219017,0.0,0.0,0.0,17,6.279982335399836e-05,0,1735643777088284730,map,0.9905429769037064,-0.2578995798491111,0.2427906955527043,-0.4641815801915777,0.5087524256340794,-0.5187927631901669,0.5065180143724429,0.0,0.0,0.0,121,7.82608651661576e-07,0,1735643777088297367,map,0.9935094292915028,0.2068889615651215,0.2450130132468986,-0.508639932876261,0.496643138946351,-0.4930612551671924,0.5015193015967593,0.0,0.0,0.0,122,3.3604699968894924e-13,0,1735643777088310956,map,0.9908257393557776,0.2092878776739284,0.1468308432779266,-0.4853625621460142,0.4995968003275347,-0.4798072752191387,0.5334896428388575,0.0,0.0,0.0,124,4.824458055274761e-10,0,1735643777088322877,map,0.9880530294706726,-0.02373213593144,0.2492167722191172,-0.4990573227445869,0.4807721508813551,-0.4914062906054517,0.5275602194113118,0.0,0.0,0.0,125,1.3723605585269636e-09,0,1735643777088343858,map,0.9814094583012872,-0.019593515136609,0.1506260008373884,-0.498071174592237,0.4928376956992308,-0.5021687635522968,0.5068161832958179,0.0,0.0,0.0,126,1.012791585708328e-06,0,1735644242188269615,map,0.9802113830437624,0.3321930887356784,0.0255839891234994,-0.5079545202306971,0.5017836119027818,-0.4818032749541615,0.5079970634230534,0.0,0.0,0.0,0,3.211773291766917e-09,0.9615896546741832,-0.3756202783581382,-0.1397726157673107,1.0,2.6102809051382592e-05,-2.871039460366617e-05,-0.0003853174161276,0.0,0.0,0.0,-2.871039460366617e-05,0.0208677897744363,-0.0039877883562878,0.0,0.0,0.0,-0.0003853174161276,-0.0039877883562878,0.0066219311550689,0.0,0.0,0.0,0.0,0.0,0.0,0.0,0.0,0.0,0.0,0.0,0.0,0.0,0.0,0.0,0.0,0.0,0.0,0.0,0.0,0.0,0,0,0,1,25,,1
