%time,field.boxes0.header.seq,field.boxes0.header.stamp,field.boxes0.header.frame_id,field.boxes0.pose.position.x,field.boxes0.pose.position.y,field.boxes0.pose.position.z,field.boxes0.pose.orientation.x,field.boxes0.pose.orientation.y,field.boxes0.pose.orientation.z,field.boxes0.pose.orientation.w,field.boxes0.scale.x,field.boxes0.scale.y,field.boxes0.scale.z,field.boxes0.id,field.boxes0.pdf,field.boxes1.header.seq,field.boxes1.header.stamp,field.boxes1.header.frame_id,field.boxes1.pose.position.x,field.boxes1.pose.position.y,field.boxes1.pose.position.z,field.boxes1.pose.orientation.x,field.boxes1.pose.orientation.y,field.boxes1.pose.orientation.z,field.boxes1.pose.orientation.w,field.boxes1.scale.x,field.boxes1.scale.y,field.boxes1.scale.z,field.boxes1.id,field.boxes1.pdf,field.boxes2.header.seq,field.boxes2.header.stamp,field.boxes2.header.frame_id,field.boxes2.pose.position.x,field.boxes2.pose.position.y,field.boxes2.pose.position.z,field.boxes2.pose.orientation.x,field.boxes2.pose.orientation.y,field.boxes2.pose.orientation.z,field.boxes2.pose.orientation.w,field.boxes2.scale.x,field.boxes2.scale.y,field.boxes2.scale.z,field.boxes2.id,field.boxes2.pdf,field.boxes3.header.seq,field.boxes3.header.stamp,field.boxes3.header.frame_id,field.boxes3.pose.position.x,field.boxes3.pose.position.y,field.boxes3.pose.position.z,field.boxes3.pose.orientation.x,field.boxes3.pose.orientation.y,field.boxes3.pose.orientation.z,field.boxes3.pose.orientation.w,field.boxes3.scale.x,field.boxes3.scale.y,field.boxes3.scale.z,field.boxes3.id,field.boxes3.pdf,field.boxes4.header.seq,field.boxes4.header.stamp,field.boxes4.header.frame_id,field.boxes4.pose.position.x,field.boxes4.pose.position.y,field.boxes4.pose.position.z,field.boxes4.pose.orientation.x,field.boxes4.pose.orientation.y,field.boxes4.pose.orientation.z,field.boxes4.pose.orientation.w,field.boxes4.scale.x,field.boxes4.scale.y,field.boxes4.scale.z,field.boxes4.id,field.boxes4.pdf,field.boxes5.header.seq,field.boxes5.header.stamp,field.boxes5.header.frame_id,field.boxes5.pose.position.x,field.boxes5.pose.position.y,field.boxes5.pose.position.z,field.boxes5.pose.orientation.x,field.boxes5.pose.orientation.y,field.boxes5.pose.orientation.z,field.boxes5.pose.orientation.w,field.boxes5.scale.x,field.boxes5.scale.y,field.boxes5.scale.z,field.boxes5.id,field.boxes5.pdf,field.boxes6.header.seq,field.boxes6.header.stamp,field.boxes6.header.frame_id,field.boxes6.pose.position.x,field.boxes6.pose.position.y,field.boxes6.pose.position.z,field.boxes6.pose.orientation.x,field.boxes6.pose.orientation.y,field.boxes6.pose.orientation.z,field.boxes6.pose.orientation.w,field.boxes6.scale.x,field.boxes6.scale.y,field.boxes6.scale.z,field.boxes6.id,field.boxes6.pdf,field.boxes7.header.seq,field.boxes7.header.stamp,field.boxes7.header.frame_id,field.boxes7.pose.position.x,field.boxes7.pose.position.y,field.boxes7.pose.position.z,field.boxes7.pose.orientation.x,field.boxes7.pose.orientation.y,field.boxes7.pose.orientation.z,field.boxes7.pose.orientation.w,field.boxes7.scale.x,field.boxes7.scale.y,field.boxes7.scale.z,field.boxes7.id,field.boxes7.pdf,field.boxes8.header.seq,field.boxes8.header.stamp,field.boxes8.header.frame_id,field.boxes8.pose.position.x,field.boxes8.pose.position.y,field.boxes8.pose.position.z,field.boxes8.pose.orientation.x,field.boxes8.pose.orientation.y,field.boxes8.pose.orientation.z,field.boxes8.pose.orientation.w,field.boxes8.scale.x,field.boxes8.scale.y,field.boxes8.scale.z,field.boxes8.id,field.boxes8.pdf,field.pose.pose.position.x,field.pose.pose.position.y,field.pose.pose.position.z,field.pose.pose.orientation.w,field.pose.covariance0,field.pose.covariance1,field.pose.covariance2,field.pose.covariance3,field.pose.covariance4,field.pose.covariance5,field.pose.covariance6,field.pose.covariance7,field.pose.covariance8,field.pose.covariance9,field.pose.covariance10,field.pose.covariance11,field.pose.covariance12,field.pose.covariance13,field.pose.covariance14,field.pose.covariance15,field.pose.covariance16,field.pose.covariance17,field.pose.covariance18,field.pose.covariance19,field.pose.covariance20,field.pose.covariance21,field.pose.covariance22,field.pose.covariance23,field.pose.covariance24,field.pose.covariance25,field.pose.covariance26,field.pose.covariance27,field.pose.covariance28,field.pose.covariance29,field.pose.covariance30,field.pose.covariance31,field.pose.covariance32,field.pose.covariance33,field.pose.covariance34,field.pose.covariance35,field.buttons0,field.buttons1,field.buttons2,field.buttons3,intersection_length,vacuum,desired_box
0.0,0,1735643777088230371,map,0.9755945091392466,-0.2204360947159138,0.0228231490486205,-0.487382416376486,0.4908994676676755,-0.5020951040182355,0.519015028078694,0.0,0.0,0.0,1,0.1111111119389534,0,1735643777088253974,map,0.9788529027772686,-0.2498995573000466,0.14856977640125,-0.4920539484739527,0.4851180788060781,-0.5127255936717978,0.5095643502057366,0.0,0.0,0.0,16,0.1111111119389534,0,1735643777088270664,map,0.9879657436811256,0.0564691798048696,0.0246922237857684,-0.5056170131178667,0.4931492843944557,-0.4761186799507647,0.5238952394791767,0.0,0.0,0.0,17,0.1111111119389534,0,1735643777088284730,map,1.000719592314935,-0.2562519246907156,0.2373739750027844,-0.5191809509023181,0.5335064308225553,-0.4527805831723407,0.4907257604744811,0.0,0.0,0.0,121,0.1111111119389534,0,1735643777088297367,map,1.0253598306553946,0.2077271663973028,0.2452357889118956,0.5394697927989266,-0.4964733828502667,0.4782076553423666,-0.4835327922185343,0.0,0.0,0.0,122,0.1111111119389534,0,1735643777088310956,map,1.0152207399620845,0.2072896580645124,0.147100332927961,-0.490990617958511,0.4974032496682014,-0.4773407166969861,0.5326012208767829,0.0,0.0,0.0,124,0.1111111119389534,0,1735643777088322877,map,0.9901837097715228,-0.0279661895801204,0.2433490906267137,-0.5266905367892176,0.5390975815375881,-0.4625515819366871,0.4669228095572943,0.0,0.0,0.0,125,0.1111111119389534,0,1735643777088343858,map,1.0042041818657097,-0.0210647490100317,0.1452113862029438,-0.5108352287609595,0.4596848785175279,-0.4848879281199271,0.5409444321578957,0.0,0.0,0.0,126,0.1111111119389534,0,1735644242188269615,map,0.9721859774262388,0.3299361272747085,0.0287500639200698,-0.5058282558357757,0.4993618953983268,-0.4768403322562919,0.5171061501819878,0.0,0.0,0.0,0,0.1111111119389534,0.9340925298436688,0.2699931407736591,0.1358364418846178,1.0,0.0,0.0,0.0,0.0,0.0,0.0,0.0,0.0,0.0,0.0,0.0,0.0,0.0,0.0,0.0,0.0,0.0,0.0,0.0,0.0,0.0,0.0,0.0,0.0,0.0,0.0,0.0,0.0,0.0,0.0,0.0,0.0,0.0,0.0,0.0,0.0,0,0,0,1,1,,124
0.100195196,0,1735643777088230371,map,0.97896321473021,-0.2203593134208817,0.0220726309964248,-0.501222721341631,0.5123218595791043,-0.4948045514634513,0.4913965319976846,0.0,0.0,0.0,1,0.0,0,1735643777088253974,map,0.978480751665525,-0.2488335354632028,0.1486034137934417,-0.5012581888859856,0.4812326282819812,-0.4926639943605205,0.5238678976729677,0.0,0.0,0.0,16,0.0,0,1735643777088270664,map,0.9905139004288868,0.0573722678856352,0.0245734825684737,-0.5069271556963139,0.4979600068844486,-0.4772376617470236,0.5170153813684065,0.0,0.0,0.0,17,0.0,0,1735643777088284730,map,1.003241626305311,-0.2561449325159768,0.2374064657019241,-0.5135009854755149,0.5187069136932693,-0.4599084454637606,0.5057114764305689,0.0,0.0,0.0,121,0.0,0,1735643777088297367,map,1.0237514274219728,0.2073598295469139,0.2452349562802105,0.5372111408450971,-0.4885116404707179,0.4816748194947521,-0.4906627513284615,0.0,0.0,0.0,122,0.0,0,1735643777088310956,map,1.016081786750242,0.2075972195454506,0.1470972053057145,-0.4955439381695621,0.5005235400626212,-0.4739859495632794,0.5284408299925161,0.0,0.0,0.0,124,0.0,0,1735643777088322877,map,1.0022193788430471,-0.0265362343470954,0.2435850221155538,-0.463707076980508,0.499189719345552,-0.5301415338657338,0.5047131115083,0.0,0.0,0.0,125,0.0,0,1735643777088343858,map,1.0044967325538314,-0.0203366061326967,0.1450778092498793,0.5100448024160856,-0.504225654959043,0.4914290896167111,-0.4940731102660324,0.0,0.0,0.0,126,0.0,0,1735644242188269615,map,0.9768171099406308,0.3327497898068625,0.0276138045221126,-0.5009909109106221,0.4870091042546212,-0.4773369719903949,0.5328974148268107,0.0,0.0,0.0,0,0.0,0.934004287291302,0.2690985179256354,0.1373490030120042,1.0,7.786748048184243e-09,7.89438035151438e-08,-1.3347225449118066e-07,0.0,0.0,0.0,7.89438035151438e-08,8.003500402059201e-07,-1.3531717435922517e-06,0.0,0.0,0.0,-1.3347225449118066e-07,-1.3531717435922517e-06,2.287841164080383e-06,0.0,0.0,0.0,0.0,0.0,0.0,0.0,0.0,0.0,0.0,0.0,0.0,0.0,0.0,0.0,0.0,0.0,0.0,0.0,0.0,0.0,0,0,0,1,2,,124
0.198820881,0,1735643777088230371,map,0.9751709376077424,-0.2192106017840528,0.0236965150071905,-0.4980534742895041,0.4973673548916607,-0.4952538663676261,0.5092072847909237,0.0,0.0,0.0,1,0.0,0,1735643777088253974,map,0.9852123515159888,-0.2504076867059248,0.1486034560184958,-0.5057183331057877,0.5079563290944648,-0.4915115825921773,0.4946167197652267,0.0,0.0,0.0,16,0.0,0,1735643777088270664,map,0.9856032438439726,0.056722066808101,0.0261412704877957,-0.4918398422120948,0.5090366199200593,-0.4931338669281097,0.5057610883427792,0.0,0.0,0.0,17,0.0,0,1735643777088284730,map,1.0058861493161972,-0.2569094401810406,0.2377828863849676,-0.5013594992861692,0.5094300924543957,-0.4731810327601018,0.5149945083333524,0.0,0.0,0.0,121,0.0,0,1735643777088297367,map,1.0220626233496195,0.2061833530048532,0.2455614201288316,-0.6128850709361547,0.2595988402157912,-0.2858587470089596,0.6893947408710547,0.0,0.0,0.0,122,0.0,0,1735643777088310956,map,1.0143033175109486,0.2070225424780867,0.1475578776732061,-0.487745988644035,0.4955132705823179,-0.4826631661771667,0.5325473849849424,0.0,0.0,0.0,124,0.0,0,1735643777088322877,map,1.003029940215134,-0.0262027125520276,0.2438528785323944,-0.4509665455066465,0.5027510233691385,-0.5409437115133398,0.50124892449686,0.0,0.0,0.0,125,0.0,0,1735643777088343858,map,0.994902922811888,-0.0215709626758128,0.1471143328501413,0.6195767728688282,-0.5287534070912745,0.3805365564198574,-0.4378771360084175,0.0,0.0,0.0,126,0.0,0,1735644242188269615,map,0.9726131696966722,0.3303210681113626,0.0293048057901769,-0.4893559271372975,0.4897865047720372,-0.4840716964804715,0.5350836840955868,0.0,0.0,0.0,0,0.0,0.9341471167794384,0.2751384614256129,0.13392853746314,1.0,4.5991690728107145e-08,1.7779932792933477e-06,-1.0660681900594997e-06,0.0,0.0,0.0,1.7779932792933477e-06,7.349540165930896e-05,-4.222095181324538e-05,0.0,0.0,0.0,-1.0660681900594997e-06,-4.222095181324538e-05,2.492439658465326e-05,0.0,0.0,0.0,0.0,0.0,0.0,0.0,0.0,0.0,0.0,0.0,0.0,0.0,0.0,0.0,0.0,0.0,0.0,0.0,0.0,0.0,0,0,0,1,3,,124
0.299294132,0,1735643777088230371,map,0.9798212838702584,-0.2195009707504036,0.0218616910468919,-0.4970247216419521,0.49588964284744,-0.4954280320805424,0.5114791816117052,0.0,0.0,0.0,1,0.0,0,1735643777088253974,map,0.9838837171790034,-0.2493384518994708,0.1482650241449425,-0.4976333363378269,0.4747737761655364,-0.4927310178610983,0.5330732295551583,0.0,0.0,0.0,16,0.0,0,1735643777088270664,map,0.9860426671455084,0.0572872579359354,0.0257408922017525,-0.4935864763389765,0.5015959737879926,-0.494994991150407,0.5096605028751564,0.0,0.0,0.0,17,1.8376315784595476e-35,0,1735643777088284730,map,1.003350437035656,-0.255863943673147,0.2371898264192937,-0.5123334761921553,0.4836275595251797,-0.471807477989038,0.5301098910171406,0.0,0.0,0.0,121,0.0,0,1735643777088297367,map,1.0192145613685657,0.2053163395042206,0.2448459961704601,-0.4963353427067208,0.4848230735579824,-0.5041575035489553,0.514220795516166,0.0,0.0,0.0,122,0.0,0,1735643777088310956,map,1.0147599086533028,0.2072827432186767,0.147125064166988,-0.4928537584412453,0.5010025587077278,-0.477576731564769,0.5272685031618721,0.0,0.0,0.0,124,8.486639835325605e-09,0,1735643777088322877,map,0.9934938026475968,-0.0266536161854231,0.2429211248294633,-0.4871015435492131,0.5609147881380155,-0.4993974181013603,0.4457677708333726,0.0,0.0,0.0,125,0.0,0,1735643777088343858,map,1.0080701606657505,-0.0198641723714143,0.1448156556677692,-0.4878163176927862,0.4943852935824455,-0.5162763388404016,0.5010760058470183,0.0,0.0,0.0,126,0.0,0,1735644242188269615,map,0.9669276753885776,0.3263188801271697,0.0310349483823153,-0.4940523425533218,0.4985906138583499,-0.4906596676225369,0.5163068594919796,0.0,0.0,0.0,0,0.0,0.9346876308872134,0.2665571644695758,0.1276407439255993,1.0,9.109602701570232e-07,-1.25814412437604e-05,-1.0995474483993515e-05,0.0,0.0,0.0,-1.25814412437604e-05,0.0002760375235875,0.0001302065567717,0.0,0.0,0.0,-1.0995474483993515e-05,0.0001302065567717,0.0001373023401507,0.0,0.0,0.0,0.0,0.0,0.0,0.0,0.0,0.0,0.0,0.0,0.0,0.0,0.0,0.0,0.0,0.0,0.0,0.0,0.0,0.0,0,0,0,1,4,,124
0.399066751,0,1735643777088230371,map,0.984687045996106,-0.2198954210156644,0.0207024398658204,-0.49113225249107,0.5008687954860707,-0.5007058976541586,0.5071618719163768,0.0,0.0,0.0,1,0.0,0,1735643777088253974,map,0.98221574406525,-0.2480018625819196,0.1488524956099142,-0.5174239252702667,0.4889986753846547,-0.4750292305015414,0.517204028599039,0.0,0.0,0.0,16,0.0,0,1735643777088270664,map,0.9777378789549264,0.0556152049596316,0.0289130838368812,-0.4714115361352232,0.4957127311482031,-0.5155556128225104,0.5159868814838455,0.0,0.0,0.0,17,1.3564492323629385e-18,0,1735643777088284730,map,1.0114787486570205,-0.2571414005413691,0.2374355746580295,0.302080902818337,-0.6208262974476115,0.6463676608597954,-0.3248548653546449,0.0,0.0,0.0,121,0.0,0,1735643777088297367,map,1.0225163272767768,0.2072645818459961,0.245269716156989,0.5390492202397985,-0.5088049751213816,0.4790894281800441,-0.470124191311949,0.0,0.0,0.0,122,0.0,0,1735643777088310956,map,1.016368365712151,0.2081064682650926,0.1471776740502754,-0.4928976098398592,0.4991510690310736,-0.4754310637917591,0.5309100301191586,0.0,0.0,0.0,124,1.525922166401017e-10,0,1735643777088322877,map,0.9990835043057,-0.0257525205000675,0.2435167999384924,0.45616226826741,-0.523548543353314,0.5318415765183887,-0.4847240918792765,0.0,0.0,0.0,125,0.0,0,1735643777088343858,map,0.990669130590174,-0.0208558610891784,0.1472431231051984,0.4497524381133144,-0.4936504595610411,0.5621722463362085,-0.487846629214145,0.0,0.0,0.0,126,0.0,0,1735644242188269615,map,0.9747050408926275,0.3314934069748022,0.0290110352136339,-0.4943460527115397,0.4988900643250222,-0.4875862374759486,0.5186427912449396,0.0,0.0,0.0,0,0.0,0.9354996654053306,0.2545445300426029,0.1180081706142554,1.0,3.366368450580804e-06,-4.9083848227907005e-05,-4.008430769561704e-05,0.0,0.0,0.0,-4.9083848227907005e-05,0.0007980435623744,0.0005670155725381,0.0,0.0,0.0,-4.008430769561704e-05,0.0005670155725381,0.0004809877465142,0.0,0.0,0.0,0.0,0.0,0.0,0.0,0.0,0.0,0.0,0.0,0.0,0.0,0.0,0.0,0.0,0.0,0.0,0.0,0.0,0.0,0,0,0,1,5,,124
0.500030406,0,1735643777088230371,map,0.9768008582847784,-0.2199008445196733,0.0218489487305723,-0.5005349080715568,0.4885015925369386,-0.483875478398344,0.5260185560371865,0.0,0.0,0.0,1,0.0,0,1735643777088253974,map,0.9872590004854692,-0.2517477612178435,0.1468585318232078,-0.5062211737301332,0.4844765672618617,-0.4871168996353839,0.5212865863717006,0.0,0.0,0.0,16,0.0,0,1735643777088270664,map,0.9823601575919612,0.0552855079945099,0.0258500335306539,0.4829492396500954,-0.5081972434111687,0.5099532363629554,-0.4984408595145783,0.0,0.0,0.0,17,7.579786030975027e-16,0,1735643777088284730,map,1.0068646367695866,-0.2582374380488965,0.2366245371608338,0.2877235780456504,-0.6349124144625887,0.6471898159274412,-0.3086206583456453,0.0,0.0,0.0,121,0.0,0,1735643777088297367,map,1.0276499599315452,0.2086222313929719,0.2444755698007174,-0.5127689047870109,0.4820646013371226,-0.4941674589301074,0.5103727000494551,0.0,0.0,0.0,122,0.0,0,1735643777088310956,map,1.0135201473466142,0.2060542865282016,0.1462964895516094,-0.5017331640210941,0.504046522124388,-0.4660151732200839,0.5263371485885695,0.0,0.0,0.0,124,8.335364191404404e-13,0,1735643777088322877,map,0.9974411507240858,-0.0277176616930105,0.2426976071638335,0.4894410270396842,-0.5080246616431063,0.5089397568929822,-0.493293774607443,0.0,0.0,0.0,125,0.0,0,1735643777088343858,map,0.9978433819699716,-0.0221014159136803,0.1450279032691579,-0.5062512131363174,0.4607901169216005,-0.4904560948735529,0.5392911980987353,0.0,0.0,0.0,126,0.0,0,1735644242188269615,map,0.9743561441836882,0.3311544831845684,0.0276883029271838,-0.5046530089082785,0.495356850664969,-0.4779538390061011,0.5210633923798856,0.0,0.0,0.0,0,0.0,0.9362807042719098,0.242643965318963,0.1088166305471489,1.0,5.855415597687058e-06,-8.737722477360836e-05,-6.929833992699703e-05,0.0,0.0,0.0,-8.737722477360836e-05,0.0013731535056863,0.0010194355645077,0.0,0.0,0.0,-6.929833992699703e-05,0.0010194355645077,0.0008232451661213,0.0,0.0,0.0,0.0,0.0,0.0,0.0,0.0,0.0,0.0,0.0,0.0,0.0,0.0,0.0,0.0,0.0,0.0,0.0,0.0,0.0,0,0,0,1,6,,124
0.59956155,0,1735643777088230371,map,0.9798987211018364,-0.2207825826174523,0.0205078352911885,-0.5034904435819627,0.500037319340081,-0.4857856539188017,0.5103649193817179,0.0,0.0,0.0,1,0.0,0,1735643777088253974,map,0.9843998770714588,-0.2508762099718099,0.1466390829406541,-0.5173348605281649,0.4927597210915834,-0.4734196547636643,0.5151954287797038,0.0,0.0,0.0,16,0.0,0,1735643777088270664,map,0.9801936156387792,0.0548691497924119,0.0262773721998636,0.4852337331289624,-0.5067859812731662,0.5083459882227139,-0.4993000597602584,0.0,0.0,0.0,17,5.5480853689005016e-08,0,1735643777088284730,map,1.0059152101978424,-0.2590404785223497,0.2361279732196856,-0.5066047703615502,0.4937189622832808,-0.4687351024710888,0.5290374246121536,0.0,0.0,0.0,121,0.0,0,1735643777088297367,map,1.0258641945961904,0.2073936941459763,0.2440779028686,-0.5305369772807256,0.4751073704612796,-0.4706186794529585,0.5208853624562256,0.0,0.0,0.0,122,0.0,0,1735643777088310956,map,1.0118257698059645,0.2050002020674474,0.1461004651872705,-0.4902902883688206,0.5058027409577507,-0.4805425280737064,0.5223580181095886,0.0,0.0,0.0,124,1.9746862131575504e-11,0,1735643777088322877,map,0.9934573816900546,-0.0284770100063103,0.2421831643857426,-0.4905173623329633,0.5247000014031495,-0.5057516357894726,0.4778053041498389,0.0,0.0,0.0,125,0.0,0,1735643777088343858,map,0.9966854670481268,-0.022684646339325,0.1448789679616062,0.6035975284878186,-0.5378137359165508,0.397203900239633,-0.4343448752976183,0.0,0.0,0.0,126,0.0,0,1735644242188269615,map,0.970311165952526,0.3281451444001281,0.0284787313539205,-0.4884473185560125,0.4926577931204614,-0.4865530237914253,0.531011931045376,0.0,0.0,0.0,0,0.0,0.9373105765145194,0.2242418498288419,0.0972705377856756,1.0,1.13827486717461e-05,-0.000188605731783,-0.0001307445797541,0.0,0.0,0.0,-0.000188605731783,0.0032088158462302,0.0021486371071729,0.0,0.0,0.0,-0.0001307445797541,0.0021486371071729,0.0015055122621575,0.0,0.0,0.0,0.0,0.0,0.0,0.0,0.0,0.0,0.0,0.0,0.0,0.0,0.0,0.0,0.0,0.0,0.0,0.0,0.0,0.0,0,0,0,1,7,,124
0.700097448,0,1735643777088230371,map,0.9845453283706688,-0.2225381408206706,0.0193889357132038,-0.4030677635483679,0.7954824971303925,-0.4019147458523881,0.2078665721411741,0.0,0.0,0.0,1,1.5307807347214846e-26,0,1735643777088253974,map,0.9828501434123726,-0.2509515149533886,0.1470976978061925,-0.5206499393771888,0.4976963463002832,-0.4711619516083803,0.5091447759355484,0.0,0.0,0.0,16,0.0,0,1735643777088270664,map,0.991158677418008,0.0561280432851635,0.0227899551602602,-0.5132059448004987,0.4904353229015185,-0.4680334963810955,0.5263435176167719,0.0,0.0,0.0,17,0.0513062700629234,0,1735643777088284730,map,1.011898003012468,-0.2624417841803313,0.2367424602867862,-0.4903899084819307,0.4983208744018557,-0.4890915835478645,0.5215203415947408,0.0,0.0,0.0,121,0.0,0,1735643777088297367,map,1.0223528946414095,0.2050210943316435,0.2444559583880152,-0.530711177138728,0.4739936668413066,-0.4712660585671982,0.5211371722463249,0.0,0.0,0.0,122,2.990800875733275e-17,0,1735643777088310956,map,1.012537788431034,0.2046118699501634,0.1464160702318445,-0.4921429662036957,0.499264322752823,-0.4767054547026564,0.530360581396399,0.0,0.0,0.0,124,0.0122874258086085,0,1735643777088322877,map,0.9948001077023776,-0.0291713334924177,0.2425294354471933,0.4388853568699968,-0.5222323022742402,0.5550275327742318,-0.4760225875407502,0.0,0.0,0.0,125,0.0,0,1735643777088343858,map,0.99738831813376,-0.0236056881273864,0.1448137953476556,0.4756945606953042,-0.4954016137335442,0.5292384843460142,-0.4981952957648592,0.0,0.0,0.0,126,8.35961620504269e-25,0,1735644242188269615,map,0.9757828179861834,0.3311376714817763,0.0270370246299624,-0.5127279511093367,0.4985440615637252,-0.4776226016192821,0.5103337312516136,0.0,0.0,0.0,0,8.625436451778316e-15,0.9376514078628136,0.2106834413065287,0.0950306603127039,1.0,1.077306714363814e-05,-0.0001973779299118,-0.0001197454504987,0.0,0.0,0.0,-0.0001973779299118,0.004094526957057,0.0020926416855056,0.0,0.0,0.0,-0.0001197454504987,0.0020926416855056,0.0013524425870453,0.0,0.0,0.0,0.0,0.0,0.0,0.0,0.0,0.0,0.0,0.0,0.0,0.0,0.0,0.0,0.0,0.0,0.0,0.0,0.0,0.0,0,0,0,1,8,,124
0.799728821,0,1735643777088230371,map,0.9809860508800866,-0.2242122090326567,0.0204086173041463,-0.503631909273686,0.5144953137275252,-0.4815475054024952,0.4997614152316992,0.0,0.0,0.0,1,9.707751269516507e-11,0,1735643777088253974,map,0.975983633890372,-0.2509766769729898,0.1491262481934865,-0.5123722819280071,0.4832543136962561,-0.4795035260045955,0.5234656450570639,0.0,0.0,0.0,16,3.3416775196866794e-20,0,1735643777088270664,map,0.989386552450214,0.0554722522419418,0.0234897075432479,-0.5165082886772089,0.4974890160624203,-0.4715872807405966,0.5131562172172096,0.0,0.0,0.0,17,0.0509355403482914,0,1735643777088284730,map,0.9989054827449908,-0.260673880058003,0.2379154628181539,-0.4920675951779763,0.4702436343022963,-0.5004141735430548,0.5350944412822402,0.0,0.0,0.0,121,7.740880445362618e-31,0,1735643777088297367,map,1.0138556621919796,0.2024482432859916,0.246096181223352,-0.5132835112588853,0.4939114648595266,-0.4879376757959464,0.5044881827049238,0.0,0.0,0.0,122,3.077973451581784e-05,0,1735643777088310956,map,1.0041146050314942,0.2017529116270567,0.148413830293741,-0.4834908752442052,0.4996335623395514,-0.4870157200096761,0.5286005726471913,0.0,0.0,0.0,124,0.365804374217987,0,1735643777088322877,map,0.9877326938282992,-0.0308840587508813,0.2439859337811744,-0.5571765687044047,0.4461613005941105,-0.4339671021283691,0.5496971160641682,0.0,0.0,0.0,125,1.842517905283926e-14,0,1735643777088343858,map,0.9847720316300372,-0.025055494912708,0.1476605546994654,-0.4782089879915705,0.4739043150877379,-0.5201760916581677,0.5254975714620702,0.0,0.0,0.0,126,1.0976370958815096e-06,0,1735644242188269615,map,0.9722455001747778,0.330216442167907,0.0284750368845612,-0.5126823149633317,0.5013527410508374,-0.4790325499497342,0.5062905184311738,0.0,0.0,0.0,0,9.899694850901142e-05,0.9374199764839344,0.2014690075460256,0.100451785551521,1.0,1.0004543548272368e-05,-0.0001583869759243,-0.000116477348356,0.0,0.0,0.0,-0.0001583869759243,0.0043188258335976,0.0014605051473079,0.0,0.0,0.0,-0.000116477348356,0.0014605051473079,0.0014372799793242,0.0,0.0,0.0,0.0,0.0,0.0,0.0,0.0,0.0,0.0,0.0,0.0,0.0,0.0,0.0,0.0,0.0,0.0,0.0,0.0,0.0,0,0,0,1,9,,124
0.899881827,0,1735643777088230371,map,0.9774117230767386,-0.2233352796703392,0.0222673513358273,-0.4966328129133454,0.500343995497453,-0.4967294548958284,0.5062327369365952,0.0,0.0,0.0,1,1.50674431265152e-10,0,1735643777088253974,map,0.9729589455538552,-0.2500913266907717,0.1504158766743207,-0.5083120454252268,0.4834698236130912,-0.4818012451911368,0.5251127062483051,0.0,0.0,0.0,16,2.5785851318765876e-14,0,1735643777088270664,map,0.9808252939413314,0.0542780050403993,0.0268318012445926,-0.4920900165546294,0.4989088135578409,-0.4931392139633046,0.515510549856379,0.0,0.0,0.0,17,0.039674237370491,0,1735643777088284730,map,0.9974907549249324,-0.2610225788728894,0.2388675677093136,-0.5000596987969564,0.4910759244107797,-0.4809686218919872,0.5267389475428204,0.0,0.0,0.0,121,1.208258791648298e-18,0,1735643777088297367,map,1.0127205227260054,0.2019868597310032,0.2470111348381722,-0.5233755971431372,0.4776378174538873,-0.4841591920283483,0.5133517083125451,0.0,0.0,0.0,122,0.0169225633144378,0,1735643777088310956,map,1.0050956392815116,0.2026641265090301,0.1489947133540474,-0.487731618543674,0.49761800408884,-0.4751619074423107,0.5373223911165366,0.0,0.0,0.0,124,0.7753579020500183,0,1735643777088322877,map,0.9928773201323984,-0.0307912268443642,0.2451480234532991,-0.5256146294803292,0.4731844694681663,-0.4711550632234881,0.5271039987794225,0.0,0.0,0.0,125,1.8930441569864345e-07,0,1735643777088343858,map,0.9827896661638746,-0.0252620899926075,0.148752167171007,-0.4884081201462681,0.4822421916266108,-0.5156995515010571,0.5127903561612294,0.0,0.0,0.0,126,0.0002072046045213,0,1735644242188269615,map,0.9722455001747778,0.330216442167907,0.0284750368845612,-0.5126823149633317,0.5013527410508374,-0.4790325499497342,0.5062905184311738,0.0,0.0,0.0,0,0.0036156787537038,0.9367442019396208,0.1986104337288442,0.1111898639727317,1.0,1.3114130306124437e-05,-0.0001251625155636,-0.0001701382939875,0.0,0.0,0.0,-0.0001251625155636,0.0039604862486523,0.0010381943241817,0.0,0.0,0.0,-0.0001701382939875,0.0010381943241817,0.0023313089350124,0.0,0.0,0.0,0.0,0.0,0.0,0.0,0.0,0.0,0.0,0.0,0.0,0.0,0.0,0.0,0.0,0.0,0.0,0.0,0.0,0.0,0,0,0,1,10,,124
1.000263296,0,1735643777088230371,map,0.978967388555574,-0.2239363110070518,0.0220434012977236,-0.4934865540009771,0.5099266442812529,-0.492371271907002,0.504000366143699,0.0,0.0,0.0,1,1.4459471814332048e-11,0,1735643777088253974,map,0.9770166825142425,-0.2518642622635531,0.150539688153218,-0.5085196613896097,0.4941589472835041,-0.4776960944290682,0.5186724690660484,0.0,0.0,0.0,16,2.1709723794604945e-14,0,1735643777088270664,map,0.9766367317504848,0.0539356063757681,0.0289945783225907,-0.4891167516265293,0.4861649916328206,-0.4932006205240943,0.5302466898563534,0.0,0.0,0.0,17,0.0358261205255985,0,1735643777088284730,map,0.9978033485353835,-0.2618402218243235,0.2397682110955022,-0.5025805244970912,0.4892713123903063,-0.482952381946753,0.5241978596294091,0.0,0.0,0.0,121,5.837393068707525e-17,0,1735643777088297367,map,1.0161909047771491,0.2040756120220498,0.2478505914453188,-0.5319265393251456,0.4816419767279294,-0.4712646841263125,0.5128203979079947,0.0,0.0,0.0,122,0.1953726857900619,0,1735643777088310956,map,1.0064296890249178,0.2038628725373865,0.1494799980852925,-0.4970604327801562,0.4967938229151232,-0.469114290005259,0.5348444695335672,0.0,0.0,0.0,124,0.9614551067352296,0,1735643777088322877,map,0.9920443623061164,-0.030719117064617,0.2460468152178382,-0.4974068236781311,0.4975123555133124,-0.5012327704140507,0.5038190327221508,0.0,0.0,0.0,125,8.23280970507767e-06,0,1735643777088343858,map,0.9846401292613196,-0.0250414571935102,0.1488882520951409,0.4491838282796866,-0.4844670567132804,0.5641677986119418,-0.4952173809358187,0.0,0.0,0.0,126,0.0003354974614921,0,1735644242188269615,map,0.9722455001747778,0.330216442167907,0.0284750368845612,-0.5126823149633317,0.5013527410508374,-0.4790325499497342,0.5062905184311738,0.0,0.0,0.0,0,0.0086001893505454,0.9357273921865557,0.199674961691201,0.1262109354862595,1.0,2.2260957381216504e-05,-0.0001246083292032,-0.0003074068965167,0.0,0.0,0.0,-0.0001246083292032,0.0036117742420558,0.0011037165284904,0.0,0.0,0.0,-0.0003074068965167,0.0011037165284904,0.0043756976532474,0.0,0.0,0.0,0.0,0.0,0.0,0.0,0.0,0.0,0.0,0.0,0.0,0.0,0.0,0.0,0.0,0.0,0.0,0.0,0.0,0.0,0,0,0,1,11,,124
1.10028244,0,1735643777088230371,map,0.9757442417574363,-0.2249523145487726,0.0219411223277178,-0.4882232967622172,0.4987979209208253,-0.5101894124799832,0.5025389636406558,0.0,0.0,0.0,1,2.117709826943148e-11,0,1735643777088253974,map,0.9761979223204909,-0.2538923995366652,0.1501494829526037,-0.5066069561572215,0.4924913652321271,-0.4874040941495676,0.5130681203808619,0.0,0.0,0.0,16,2.454506663565094e-15,0,1735643777088270664,map,0.9717665793284168,0.0529847942356337,0.0293963861988822,-0.4737048947700866,0.498423750340094,-0.5121460170027824,0.5146687235843689,0.0,0.0,0.0,17,0.0500604398548603,0,1735643777088284730,map,0.9965971385465056,-0.2641143757553851,0.2394485629679725,-0.4986185685423327,0.4910763841301711,-0.4878198721889129,0.5217808738848378,0.0,0.0,0.0,121,1.7249752558554462e-18,0,1735643777088297367,map,0.9999879441514234,0.1978447119624904,0.2468531802539202,-0.518851774852237,0.4947054800648415,-0.4849404764742608,0.5008912636525176,0.0,0.0,0.0,122,0.3085007071495056,0,1735643777088310956,map,0.9996985919858856,0.201439697154705,0.1495738615245433,-0.4903407198206534,0.4965035885825962,-0.4773758112886816,0.5340060859267814,0.0,0.0,0.0,124,0.9852188229560852,0,1735643777088322877,map,0.983333023811192,-0.031978174100799,0.2452359116894669,-0.4155505492774096,0.4906931396292725,-0.5785862754785878,0.5017727628556841,0.0,0.0,0.0,125,2.577593932073796e-06,0,1735643777088343858,map,0.984854851790391,-0.0262627523245046,0.14779456740141,-0.4806795555217758,0.479682615905357,-0.5200611638282334,0.5180619063193179,0.0,0.0,0.0,126,0.000166844780324,0,1735644242188269615,map,0.9722455001747778,0.330216442167907,0.0284750368845612,-0.5126823149633317,0.5013527410508374,-0.4790325499497342,0.5062905184311738,0.0,0.0,0.0,0,0.0053494642488658,0.9346238655852468,0.2082237253327516,0.140947656810335,1.0,3.380135815720409e-05,-0.0002179959707238,-0.0004606756591094,0.0,0.0,0.0,-0.0002179959707238,0.0041146880130079,0.0023975283730764,0.0,0.0,0.0,-0.0004606756591094,0.0023975283730764,0.0063999366913615,0.0,0.0,0.0,0.0,0.0,0.0,0.0,0.0,0.0,0.0,0.0,0.0,0.0,0.0,0.0,0.0,0.0,0.0,0.0,0.0,0.0,0,0,0,1,12,,124
1.19985278,0,1735643777088230371,map,0.9788889342092912,-0.2249516857850768,0.0202201139412626,-0.4946877988462173,0.5169217758850191,-0.4915313170430407,0.4964602941368992,0.0,0.0,0.0,1,2.3655345043893658e-11,0,1735643777088253974,map,0.9699987307277576,-0.2496467131572382,0.1506779310480433,-0.5042094550885086,0.4868583181881487,-0.4855672362172872,0.5224617330701479,0.0,0.0,0.0,16,1.5101753592970473e-15,0,1735643777088270664,map,0.9711988286761172,0.0545444503483681,0.0295594259055936,-0.4856991730412372,0.4931669053276568,-0.5021734119978671,0.5183672260849649,0.0,0.0,0.0,17,0.0522892475128173,0,1735643777088284730,map,0.995116935863228,-0.262662258055671,0.2391162638183722,-0.5001272920268693,0.4978166805939235,-0.4838043893369823,0.5176722487738628,0.0,0.0,0.0,121,3.112990579272809e-19,0,1735643777088297367,map,1.005331422496289,0.2017292483020898,0.2470253344791491,-0.5117656961120344,0.4931065996153444,-0.4885158320914984,0.5062549115758863,0.0,0.0,0.0,122,0.3210341930389404,0,1735643777088310956,map,0.9982211639934412,0.2023041723290354,0.1492897084498454,-0.485723277335898,0.497877299433214,-0.4803560227274578,0.5342744463219464,0.0,0.0,0.0,124,0.974533200263977,0,1735643777088322877,map,0.9893913826875956,-0.0310124959727529,0.2455160490535819,-0.5310811702333602,0.481036422281635,-0.4653103792777361,0.5196566193155425,0.0,0.0,0.0,125,1.1147071745654102e-06,0,1735643777088343858,map,0.9858773595450768,-0.0252044258655495,0.147942635890222,0.592880896285992,-0.5650325662591313,0.3963146337745026,-0.4149278888456654,0.0,0.0,0.0,126,0.0001180591716547,0,1735644242188269615,map,0.9722455001747778,0.330216442167907,0.0284750368845612,-0.5126823149633317,0.5013527410508374,-0.4790325499497342,0.5062905184311738,0.0,0.0,0.0,0,0.003853527130559,0.9339890100649982,0.2156157874024833,0.1489018377313763,1.0,3.60377520626564e-05,-0.0002575417468308,-0.0004858361379485,0.0,0.0,0.0,-0.0002575417468308,0.004453884530182,0.0029186767025955,0.0,0.0,0.0,-0.0004858361379485,0.0029186767025955,0.0066668617984449,0.0,0.0,0.0,0.0,0.0,0.0,0.0,0.0,0.0,0.0,0.0,0.0,0.0,0.0,0.0,0.0,0.0,0.0,0.0,0.0,0.0,0,0,0,1,13,,124
1.300918337,0,1735643777088230371,map,0.9707969798863084,-0.2220122092484011,0.0224562463955405,-0.4943453731529378,0.5008248183585502,-0.4985432302188763,0.5062131971426033,0.0,0.0,0.0,1,3.504801657228107e-11,0,1735643777088253974,map,0.9683367167765928,-0.2492196336489183,0.150035393975031,-0.5098798925619786,0.4893518960755756,-0.480501389353838,0.5193030250222458,0.0,0.0,0.0,16,8.866802831142284e-16,0,1735643777088270664,map,0.973321310750522,0.0542285861138178,0.0272120244167178,-0.4924426048632505,0.4998228203746805,-0.4929206716728646,0.5144964922968551,0.0,0.0,0.0,17,0.0486840605735778,0,1735643777088284730,map,0.990284350141536,-0.2613109533734265,0.2376785191661008,-0.4972373368686448,0.4837494659577112,-0.4894148506780373,0.528407597357571,0.0,0.0,0.0,121,1.1480832632414434e-19,0,1735643777088297367,map,1.0003991781135548,0.1990958539640735,0.245471206414395,-0.5106966671926846,0.495120664327684,-0.489699863604664,0.5042206713925662,0.0,0.0,0.0,122,0.2872530519962311,0,1735643777088310956,map,0.9941493717631162,0.2001231777333692,0.1485434634769654,-0.4827172258574495,0.5006567756966821,-0.4860944479931217,0.5291871695721203,0.0,0.0,0.0,124,0.9416504502296448,0,1735643777088322877,map,0.9843665833778732,-0.0313912742191871,0.2440146091417745,-0.4307770922997804,0.5680226585779546,-0.5524455345380355,0.4319551914964825,0.0,0.0,0.0,125,5.596739924840222e-07,0,1735643777088343858,map,0.9868781212953804,-0.0259110250247924,0.1458875943247184,-0.5121798401459021,0.5142691930282272,-0.4882296969365333,0.4845934084152143,0.0,0.0,0.0,126,8.858503861119971e-05,0,1735644242188269615,map,0.9722455001747778,0.330216442167907,0.0284750368845612,-0.5126823149633317,0.5013527410508374,-0.4790325499497342,0.5062905184311738,0.0,0.0,0.0,0,0.0030681227799504,0.933504645562542,0.2224447106936367,0.1547187267164795,1.0,3.6513543541440014e-05,-0.0002821458521905,-0.0004877609856749,0.0,0.0,0.0,-0.0002821458521905,0.0047419944339972,0.0032265999480088,0.0,0.0,0.0,-0.0004877609856749,0.0032265999480088,0.0066305279513155,0.0,0.0,0.0,0.0,0.0,0.0,0.0,0.0,0.0,0.0,0.0,0.0,0.0,0.0,0.0,0.0,0.0,0.0,0.0,0.0,0.0,0,0,0,1,14,,124
1.400343623,0,1735643777088230371,map,0.9696317284298468,-0.2240175018665621,0.0205538885359606,-0.4965309864653329,0.5068498115402666,-0.4909672042490315,0.5054814065554231,0.0,0.0,0.0,1,1.8896439968330012e-10,0,1735643777088253974,map,0.9651399944125572,-0.2501530304167841,0.1492075019602567,-0.5090844338926515,0.4923241605703056,-0.4797034626066314,0.5180101814155303,0.0,0.0,0.0,16,5.249472714564897e-15,0,1735643777088270664,map,0.970840142129975,0.05297260041331,0.0262300691104404,-0.4883676874865095,0.5065707425832467,-0.5008478017816806,0.5040184163581677,0.0,0.0,0.0,17,0.0504220128059387,0,1735643777088284730,map,0.9879540419197068,-0.2632911765311417,0.2366802583025366,-0.5020922329858847,0.4962546027312489,-0.4787804834213341,0.521923373243747,0.0,0.0,0.0,121,4.831873701615592e-19,0,1735643777088297367,map,0.9969357397506836,0.1972401265255458,0.2443643194293858,-0.5106524294203966,0.491428854113616,-0.4945383695747558,0.5031536332870583,0.0,0.0,0.0,122,0.2487274706363678,0,1735643777088310956,map,0.9931057283038184,0.1992839875098644,0.147101465093541,-0.4913261384621387,0.5064936586808442,-0.481819968815571,0.519530862442779,0.0,0.0,0.0,124,0.9051663279533386,0,1735643777088322877,map,0.97312420444772,-0.0324244720992981,0.2426462550032224,-0.4114330010962705,0.5800256909654325,-0.5705971501028442,0.4107456338459374,0.0,0.0,0.0,125,6.130152314653969e-07,0,1735643777088343858,map,0.983580528144387,-0.0258032459009389,0.1461049175581499,0.515801822903577,-0.5106933191337865,0.4832567053977959,-0.4894933809251474,0.0,0.0,0.0,126,0.0001229094195878,0,1735644242188269615,map,0.9722455001747778,0.330216442167907,0.0284750368845612,-0.5126823149633317,0.5013527410508374,-0.4790325499497342,0.5062905184311738,0.0,0.0,0.0,0,0.0034438571892678,0.9330744386640852,0.2306565403938305,0.1594307552007279,1.0,3.667039896206438e-05,-0.0003127951297148,-0.000483623646865,0.0,0.0,0.0,-0.0003127951297148,0.0053699395300805,0.0035532145411797,0.0,0.0,0.0,-0.000483623646865,0.0035532145411797,0.0064993377286703,0.0,0.0,0.0,0.0,0.0,0.0,0.0,0.0,0.0,0.0,0.0,0.0,0.0,0.0,0.0,0.0,0.0,0.0,0.0,0.0,0.0,0,0,0,1,15,,124
1.50005069,0,1735643777088230371,map,0.969462252367486,-0.2239906911332449,0.0204485659903828,-0.4998614896447857,0.5071416886824462,-0.4896881414801562,0.5031414541300714,0.0,0.0,0.0,1,7.028328613545298e-11,0,1735643777088253974,map,0.9642539922375348,-0.2495035810962457,0.1491126207430806,-0.5055242595566876,0.4942570077640657,-0.4791616782905111,0.5201531691084805,0.0,0.0,0.0,16,1.1262583112287461e-15,0,1735643777088270664,map,0.9700804873297956,0.0528688422490698,0.026310677726414,-0.4894628621836387,0.4991251438665737,-0.5047834445062824,0.5064522400538333,0.0,0.0,0.0,17,0.0412387214601039,0,1735643777088284730,map,0.9859840859907684,-0.2627486118140156,0.23637796363129,-0.5022631578231244,0.4775246498075868,-0.4880363970681678,0.5305868489290007,0.0,0.0,0.0,121,5.808803473350038e-20,0,1735643777088297367,map,0.996349852907608,0.1968195243638424,0.2440877294426083,-0.5110784380937077,0.4883499107018866,-0.4947625445078287,0.5054930458327734,0.0,0.0,0.0,122,0.2215112745761871,0,1735643777088310956,map,0.9924765525886668,0.1988783108385368,0.1468794215897474,-0.4933833932058,0.5065432993261956,-0.4793940342851899,0.5197769455335944,0.0,0.0,0.0,124,0.8785649538040161,0,1735643777088322877,map,0.9723684690100332,-0.0330598798003752,0.2424970515047858,-0.5462538755493583,0.4727651375708391,-0.4454352462635645,0.5288546771382941,0.0,0.0,0.0,125,2.418064752873761e-07,0,1735643777088343858,map,0.9874271165515504,-0.0286859506119304,0.1435376511045569,0.5135229572118506,-0.5074200082511165,0.4865186556815127,-0.4920555916933435,0.0,0.0,0.0,126,6.487715290859342e-05,0,1735644242188269615,map,0.9722455001747778,0.330216442167907,0.0284750368845612,-0.5126823149633317,0.5013527410508374,-0.4790325499497342,0.5062905184311738,0.0,0.0,0.0,0,0.0025983166415244,0.9328431748789632,0.2344631615565132,0.1620924528154818,1.0,3.5180743101568925e-05,-0.0003064504383867,-0.0004626304829145,0.0,0.0,0.0,-0.0003064504383867,0.0052516737795932,0.0034831197493907,0.0,0.0,0.0,-0.0004626304829145,0.0034831197493907,0.0061993986335142,0.0,0.0,0.0,0.0,0.0,0.0,0.0,0.0,0.0,0.0,0.0,0.0,0.0,0.0,0.0,0.0,0.0,0.0,0.0,0.0,0.0,0,0,0,1,16,,124
1.599854788,0,1735643777088230371,map,0.9683362832513368,-0.2237551890974584,0.0206674845125452,-0.4974294169678721,0.5068580483037602,-0.4898557296456268,0.505668130435424,0.0,0.0,0.0,1,7.941230312225045e-11,0,1735643777088253974,map,0.965507550676104,-0.2504749971718701,0.1487649026338357,-0.5053838710064672,0.4982869293990941,-0.4798901574285859,0.515754511099717,0.0,0.0,0.0,16,6.002625506264095e-16,0,1735643777088270664,map,0.9694148029624672,0.0529914070564032,0.0263646690496202,-0.4903631321225588,0.5004383506996766,-0.4971125553994673,0.511844276189696,0.0,0.0,0.0,17,0.0396989658474922,0,1735643777088284730,map,0.9849969707658056,-0.263175255118777,0.2363930511900482,-0.5066064502515875,0.4875935551431207,-0.4786074370210931,0.525868187642568,0.0,0.0,0.0,121,1.7495487109781682e-20,0,1735643777088297367,map,0.995436592556144,0.1963275858298303,0.2442021591189468,-0.5078157171109643,0.4896166602493804,-0.4965025128252716,0.5058497585444826,0.0,0.0,0.0,122,0.1932541877031326,0,1735643777088310956,map,0.990234200025321,0.1979749900932823,0.1470982991991805,-0.4860174557789223,0.5075947581021725,-0.4840686778539364,0.5213560293562571,0.0,0.0,0.0,124,0.8399249315261841,0,1735643777088322877,map,0.9724369380351504,-0.0328185330592306,0.242529189125973,0.3686685196693506,-0.5703275261639562,0.6160338450402022,-0.3991394960029588,0.0,0.0,0.0,125,1.330799221932466e-07,0,1735643777088343858,map,0.98282660115427,-0.0289338100290677,0.1441758907057773,0.4965310467847673,-0.5071838420845954,0.5085568459684173,-0.4874334870787878,0.0,0.0,0.0,126,4.859120963374153e-05,0,1735644242188269615,map,0.9564275873089956,0.3248164079628899,0.0308180577663398,-0.4988092221282518,0.4998546559285203,-0.4904363548367662,0.5106925344283142,0.0,0.0,0.0,0,0.0031898501329123,0.9324540243938758,0.2404964611674411,0.1666501192499944,1.0,3.553429722570608e-05,-0.0003259897255353,-0.0004637948147577,0.0,0.0,0.0,-0.0003259897255353,0.0055251630596819,0.0037181946263851,0.0,0.0,0.0,-0.0004637948147577,0.0037181946263851,0.0061670852989129,0.0,0.0,0.0,0.0,0.0,0.0,0.0,0.0,0.0,0.0,0.0,0.0,0.0,0.0,0.0,0.0,0.0,0.0,0.0,0.0,0.0,0,0,0,1,17,,124
1.699902267,0,1735643777088230371,map,0.9681051413490048,-0.2243755529518935,0.0205199643845682,-0.4948195518157758,0.5056786016563418,-0.4963522000795171,0.5030678447723973,0.0,0.0,0.0,1,1.928811776963357e-09,0,1735643777088253974,map,0.9655783056322442,-0.2511479822728626,0.1490615790519658,-0.5028307154097625,0.4926698446243758,-0.4880943431330589,0.5159472919202189,0.0,0.0,0.0,16,5.5843818339094276e-14,0,1735643777088270664,map,0.96761592228243,0.0528822965025952,0.0271327893823479,-0.4895887016338096,0.5005725882295052,-0.5040771167410487,0.5056048333666978,0.0,0.0,0.0,17,0.0456274673342704,0,1735643777088284730,map,0.9828535896078794,-0.2630372441812226,0.2365325910904128,-0.5014646964336742,0.4910570648837015,-0.4772137104449614,0.5288319126356122,0.0,0.0,0.0,121,4.203300084714734e-18,0,1735643777088297367,map,0.9966486350291665,0.1971116738769636,0.2441117010012521,-0.510291829874284,0.4976064033334229,-0.4907628940009014,0.5011405966363031,0.0,0.0,0.0,122,0.1876864284276962,0,1735643777088310956,map,0.9888453377007308,0.1975799869495969,0.1473244338135613,-0.4915774895060321,0.5066727943421573,-0.4818280153172425,0.519110792548088,0.0,0.0,0.0,124,0.8055112361907959,0,1735643777088322877,map,0.975966005636153,-0.034384605588465,0.2426736008283178,-0.5233956644635984,0.4626054163239319,-0.4691484386023902,0.5403267065076549,0.0,0.0,0.0,125,5.226898451837769e-07,0,1735643777088343858,map,0.9811252937921412,-0.0295447776989013,0.1442204387731093,-0.501886209024089,0.5075609810791785,-0.5018318424413214,0.4885252148961396,0.0,0.0,0.0,126,0.0001452702126698,0,1735644242188269615,map,0.9582029202719776,0.3271991896992673,0.0300590882889394,-0.5039592633796702,0.4911878629432443,-0.4783940987513948,0.5252605357638339,0.0,0.0,0.0,0,0.00459022866562,0.9321588945595652,0.2489125635457475,0.1692934968584266,1.0,3.504089712675912e-05,-0.0003501045145355,-0.0004512908092852,0.0,0.0,0.0,-0.0003501045145355,0.0064223328034825,0.0038898261800631,0.0,0.0,0.0,-0.0004512908092852,0.0038898261800631,0.0059432560170463,0.0,0.0,0.0,0.0,0.0,0.0,0.0,0.0,0.0,0.0,0.0,0.0,0.0,0.0,0.0,0.0,0.0,0.0,0.0,0.0,0.0,0,0,0,1,18,,124
1.800282564,0,1735643777088230371,map,0.9687217536125244,-0.2239091876121752,0.0187893033567247,-0.4970661579762921,0.5091545089005562,-0.4935222796242595,0.5001226651286624,0.0,0.0,0.0,1,5.30016652788845e-09,0,1735643777088253974,map,0.9634323334091464,-0.2486681771167969,0.1483568989658358,-0.5013959707031509,0.4899961448372568,-0.4907203450512921,0.5173967544931185,0.0,0.0,0.0,16,3.5298996256365183e-13,0,1735643777088270664,map,0.9693624470153052,0.0541707380543792,0.0247658355243661,-0.4963456554445952,0.4960585863548748,-0.4885131828954981,0.5185766475287799,0.0,0.0,0.0,17,0.042299710214138,0,1735643777088284730,map,0.9820282117912164,-0.2622029719674483,0.2354763498430517,-0.5055518927666941,0.491215207125812,-0.4768441228917669,0.5251138795270418,0.0,0.0,0.0,121,3.231162356384444e-17,0,1735643777088297367,map,0.99254340139188,0.1966323253384362,0.2433780443354277,0.5145368268240543,-0.5025188891469731,0.4924928179494522,-0.49007901828229,0.0,0.0,0.0,122,0.1732978373765945,0,1735643777088310956,map,0.988438475413772,0.1986723875441573,0.1460694086435976,-0.4960001050793529,0.5120029773038335,-0.4781099875358449,0.5130766870671051,0.0,0.0,0.0,124,0.7835473418235779,0,1735643777088322877,map,0.9740496840822404,-0.0333890554546483,0.2415019091063745,-0.5284931546208691,0.4611759568572904,-0.4646855446887569,0.5404433984174092,0.0,0.0,0.0,125,9.257094575332304e-07,0,1735643777088343858,map,0.9798359794350712,-0.0288410487799757,0.1431317798083778,-0.506281243624104,0.5093943663337474,-0.4969858336695951,0.4870336364498948,0.0,0.0,0.0,126,0.0002118914853781,0,1735644242188269615,map,0.9576827719035002,0.3285919834065372,0.0287588982657455,-0.5030923364361817,0.4982751410503989,-0.4808157700326346,0.5171423209507362,0.0,0.0,0.0,0,0.0051365969702601,0.9319937081844444,0.2549137447884774,0.1704997541703435,1.0,3.368779707670556e-05,-0.0003495216019056,-0.0004311252923388,0.0,0.0,0.0,-0.0003495216019056,0.0067325704610554,0.0038153999239508,0.0,0.0,0.0,-0.0004311252923388,0.0038153999239508,0.0056566440894266,0.0,0.0,0.0,0.0,0.0,0.0,0.0,0.0,0.0,0.0,0.0,0.0,0.0,0.0,0.0,0.0,0.0,0.0,0.0,0.0,0.0,0,0,0,1,19,,124
1.90054627,0,1735643777088230371,map,0.9687217536125244,-0.2239091876121752,0.0187893033567247,-0.4970661579762921,0.5091545089005562,-0.4935222796242595,0.5001226651286624,0.0,0.0,0.0,1,1.9833015230119604e-09,0,1735643777088253974,map,0.9634323334091464,-0.2486681771167969,0.1483568989658358,-0.5013959707031509,0.4899961448372568,-0.4907203450512921,0.5173967544931185,0.0,0.0,0.0,16,8.281489236776698e-14,0,1735643777088270664,map,0.9683553137557516,0.0510033264073719,0.0238301848296604,-0.4939045714157926,0.5049956655661607,-0.4898548882279066,0.5109597250010982,0.0,0.0,0.0,17,0.0318998247385025,0,1735643777088284730,map,0.9820282117912164,-0.2622029719674483,0.2354763498430517,-0.5055518927666941,0.491215207125812,-0.4768441228917669,0.5251138795270418,0.0,0.0,0.0,121,4.7929582659149974e-18,0,1735643777088297367,map,0.9908540502972832,0.1933389340539131,0.2425209878973039,-0.4911208584978767,0.493924292002896,-0.5101955460839175,0.5045191779049433,0.0,0.0,0.0,122,0.1449812054634094,0,1735643777088310956,map,0.9849282865742957,0.1946388040436167,0.145903536609769,-0.4870994351549954,0.5087375562545902,-0.4840906306174258,0.5192075697408649,0.0,0.0,0.0,124,0.7335265278816223,0,1735643777088322877,map,0.9719703325105872,-0.0370289439909943,0.2412156009371763,-0.5355881816414482,0.4863848731672751,-0.4510155499317302,0.5226471357999009,0.0,0.0,0.0,125,3.2838914876265335e-07,0,1735643777088343858,map,0.9731918672656688,-0.0316141262643755,0.1437092471758471,-0.5133090468371374,0.4816039262007495,-0.4911918025354509,0.5131297046801591,0.0,0.0,0.0,126,0.0001069042118615,0,1735644242188269615,map,0.9528684967800626,0.3233820877416751,0.0300523207109198,-0.4997538839479715,0.5019761110449517,-0.4830733464315096,0.5146903742897923,0.0,0.0,0.0,0,0.0055779740214347,0.9319503766476338,0.2563340861233075,0.1708487597171863,1.0,3.203908204243521e-05,-0.0003332148876942,-0.0004098563637092,0.0,0.0,0.0,-0.0003332148876942,0.0064342719586438,0.0036340483608343,0.0,0.0,0.0,-0.0004098563637092,0.0036340483608343,0.0053761261775181,0.0,0.0,0.0,0.0,0.0,0.0,0.0,0.0,0.0,0.0,0.0,0.0,0.0,0.0,0.0,0.0,0.0,0.0,0.0,0.0,0.0,0,0,0,1,20,,124
2.001047496,0,1735643777088230371,map,0.9687217536125244,-0.2239091876121752,0.0187893033567247,-0.4970661579762921,0.5091545089005562,-0.4935222796242595,0.5001226651286624,0.0,0.0,0.0,1,7.391909306875276e-10,0,1735643777088253974,map,0.9634323334091464,-0.2486681771167969,0.1483568989658358,-0.5013959707031509,0.4899961448372568,-0.4907203450512921,0.5173967544931185,0.0,0.0,0.0,16,1.7923623739715674e-14,0,1735643777088270664,map,0.9683553137557516,0.0510033264073719,0.0238301848296604,-0.4939045714157926,0.5049956655661607,-0.4898548882279066,0.5109597250010982,0.0,0.0,0.0,17,0.0283648464828729,0,1735643777088284730,map,0.9820282117912164,-0.2622029719674483,0.2354763498430517,-0.5055518927666941,0.491215207125812,-0.4768441228917669,0.5251138795270418,0.0,0.0,0.0,121,6.41639710157956e-19,0,1735643777088297367,map,0.9884899926601778,0.1918848254402828,0.242206670956879,-0.4872059688667807,0.4748583333308415,-0.5123710781888619,0.5240379617951546,0.0,0.0,0.0,122,0.1241176724433898,0,1735643777088310956,map,0.9836063692032492,0.1934845084538482,0.1455140536866105,-0.4850584293247111,0.5083324223905156,-0.4850944266232709,0.5205764744460458,0.0,0.0,0.0,124,0.7169729471206665,0,1735643777088322877,map,0.9716123861816808,-0.0379648538035877,0.240523890301724,-0.5228871719109854,0.4857574404498976,-0.4745567841508294,0.5151937238698844,0.0,0.0,0.0,125,1.46776159226647e-07,0,1735643777088343858,map,0.9749412272149136,-0.0331777436140772,0.1424790347014692,-0.5042768450815921,0.505404967572926,-0.4973920386942429,0.4928202939315205,0.0,0.0,0.0,126,6.306524301180616e-05,0,1735644242188269615,map,0.9528684967800626,0.3233820877416751,0.0300523207109198,-0.4997538839479715,0.5019761110449517,-0.4830733464315096,0.5146903742897923,0.0,0.0,0.0,0,0.0047830753028392,0.9320781076428096,0.2555421647772688,0.1691011804166897,1.0,3.083971561155863e-05,-0.0003193705701223,-0.0003948037948728,0.0,0.0,0.0,-0.0003193705701223,0.0061404208442174,0.003488677345929,0.0,0.0,0.0,-0.0003948037948728,0.003488677345929,0.0051812008372953,0.0,0.0,0.0,0.0,0.0,0.0,0.0,0.0,0.0,0.0,0.0,0.0,0.0,0.0,0.0,0.0,0.0,0.0,0.0,0.0,0.0,0,0,0,1,21,,124
2.100787265,0,1735643777088230371,map,0.9687217536125244,-0.2239091876121752,0.0187893033567247,-0.4970661579762921,0.5091545089005562,-0.4935222796242595,0.5001226651286624,0.0,0.0,0.0,1,3.2140343164677176e-10,0,1735643777088253974,map,0.9634323334091464,-0.2486681771167969,0.1483568989658358,-0.5013959707031509,0.4899961448372568,-0.4907203450512921,0.5173967544931185,0.0,0.0,0.0,16,3.9532836063700585e-15,0,1735643777088270664,map,0.9683553137557516,0.0510033264073719,0.0238301848296604,-0.4939045714157926,0.5049956655661607,-0.4898548882279066,0.5109597250010982,0.0,0.0,0.0,17,0.028912715613842,0,1735643777088284730,map,0.9820282117912164,-0.2622029719674483,0.2354763498430517,-0.5055518927666941,0.491215207125812,-0.4768441228917669,0.5251138795270418,0.0,0.0,0.0,121,8.55196185924433e-20,0,1735643777088297367,map,0.9926875355659092,0.1929189394859373,0.2417917505463859,-0.509713344505829,0.4959708963430596,-0.4905588329585829,0.5035446433233678,0.0,0.0,0.0,122,0.1157948225736618,0,1735643777088310956,map,0.9832446958097883,0.1932310594958575,0.1453482175661518,-0.4907954486750481,0.5100167433262985,-0.482372053010828,0.5160619648460967,0.0,0.0,0.0,124,0.7166207432746887,0,1735643777088322877,map,0.9709273038586002,-0.0380175998829322,0.240140500847978,-0.5288441825224601,0.480583460987893,-0.4607835319070258,0.5263477029116174,0.0,0.0,0.0,125,6.937447238897222e-08,0,1735643777088343858,map,0.9735153244247584,-0.0333955195371116,0.1426814107159424,-0.5198316198468872,0.4974441800513148,-0.4781262173188688,0.5037059609065457,0.0,0.0,0.0,126,3.904221375705674e-05,0,1735644242188269615,map,0.9528684967800626,0.3233820877416751,0.0300523207109198,-0.4997538839479715,0.5019761110449517,-0.4830733464315096,0.5146903742897923,0.0,0.0,0.0,0,0.0045532146468758,0.9323387391078726,0.2533617416574756,0.1656548210457269,1.0,3.086441432868382e-05,-0.0003167877503414,-0.0003957209913648,0.0,0.0,0.0,-0.0003167877503414,0.0059611499504518,0.0034879060576151,0.0,0.0,0.0,-0.0003957209913648,0.0034879060576151,0.0051951169595176,0.0,0.0,0.0,0.0,0.0,0.0,0.0,0.0,0.0,0.0,0.0,0.0,0.0,0.0,0.0,0.0,0.0,0.0,0.0,0.0,0.0,0,0,0,1,22,,124
2.201054729,0,1735643777088230371,map,0.9687217536125244,-0.2239091876121752,0.0187893033567247,-0.4970661579762921,0.5091545089005562,-0.4935222796242595,0.5001226651286624,0.0,0.0,0.0,1,1.6219212084500612e-10,0,1735643777088253974,map,0.9634323334091464,-0.2486681771167969,0.1483568989658358,-0.5013959707031509,0.4899961448372568,-0.4907203450512921,0.5173967544931185,0.0,0.0,0.0,16,8.909318061742937e-16,0,1735643777088270664,map,0.9683553137557516,0.0510033264073719,0.0238301848296604,-0.4939045714157926,0.5049956655661607,-0.4898548882279066,0.5109597250010982,0.0,0.0,0.0,17,0.032987892627716,0,1735643777088284730,map,0.9820282117912164,-0.2622029719674483,0.2354763498430517,-0.5055518927666941,0.491215207125812,-0.4768441228917669,0.5251138795270418,0.0,0.0,0.0,121,1.1388885206539344e-20,0,1735643777088297367,map,0.9895825995381928,0.1911555654058372,0.2410954655067721,-0.515416684521779,0.4921628472761135,-0.4860628152504191,0.5058303200762906,0.0,0.0,0.0,122,0.0992557555437088,0,1735643777088310956,map,0.9841051638722887,0.1925601526818073,0.1442999904586292,-0.4989445458090877,0.5108364487386761,-0.4735540289417984,0.5156035730291356,0.0,0.0,0.0,124,0.7196570634841919,0,1735643777088322877,map,0.9710286185552984,-0.0393361073253125,0.239286693799455,-0.5273817814100487,0.4779635238004169,-0.4653205754326692,0.5262091681375964,0.0,0.0,0.0,125,3.027631123586616e-08,0,1735643777088343858,map,0.9715441955619556,-0.0340429040693222,0.1422554999731081,-0.5234439688257234,0.503854616642656,-0.4701790611582215,0.5010674477914429,0.0,0.0,0.0,126,2.439106719975825e-05,0,1735644242188269615,map,0.9528684967800626,0.3233820877416751,0.0300523207109198,-0.4997538839479715,0.5019761110449517,-0.4830733464315096,0.5146903742897923,0.0,0.0,0.0,0,0.0046668709255754,0.9326857883014236,0.2503001501214283,0.1610992464453508,1.0,3.217223241129113e-05,-0.0003263898731102,-0.0004132979176776,0.0,0.0,0.0,-0.0003263898731102,0.0059081830579626,0.0036430987581971,0.0,0.0,0.0,-0.0004132979176776,0.0036430987581971,0.0054258140277749,0.0,0.0,0.0,0.0,0.0,0.0,0.0,0.0,0.0,0.0,0.0,0.0,0.0,0.0,0.0,0.0,0.0,0.0,0.0,0.0,0.0,0,0,0,1,23,,124
2.300263578,0,1735643777088230371,map,0.9687217536125244,-0.2239091876121752,0.0187893033567247,-0.4970661579762921,0.5091545089005562,-0.4935222796242595,0.5001226651286624,0.0,0.0,0.0,1,8.697815384595131e-11,0,1735643777088253974,map,0.9634323334091464,-0.2486681771167969,0.1483568989658358,-0.5013959707031509,0.4899961448372568,-0.4907203450512921,0.5173967544931185,0.0,0.0,0.0,16,2.116284819539676e-16,0,1735643777088270664,map,0.9683553137557516,0.0510033264073719,0.0238301848296604,-0.4939045714157926,0.5049956655661607,-0.4898548882279066,0.5109597250010982,0.0,0.0,0.0,17,0.0370530411601066,0,1735643777088284730,map,0.9820282117912164,-0.2622029719674483,0.2354763498430517,-0.5055518927666941,0.491215207125812,-0.4768441228917669,0.5251138795270418,0.0,0.0,0.0,121,1.5266602703075843e-21,0,1735643777088297367,map,0.9838133747110546,0.1886471583905787,0.2403572227967946,-0.5065384384245943,0.4892972862913775,-0.4928491714881533,0.5109859784668346,0.0,0.0,0.0,122,0.0820600464940071,0,1735643777088310956,map,0.9778690102914273,0.1900932430136258,0.1441918664315081,-0.4893022680407495,0.5091129784963194,-0.4827022946388801,0.5180596108240295,0.0,0.0,0.0,124,0.6994675993919373,0,1735643777088322877,map,0.9688265813188512,-0.0416758018899318,0.2388228490440448,-0.5280071864792412,0.491397730679655,-0.4600149589531627,0.5178058698474569,0.0,0.0,0.0,125,1.1303125546646696e-08,0,1735643777088343858,map,0.9691002353533896,-0.0362556053292177,0.1412692210980734,-0.5279767249807135,0.4950943749275165,-0.4684429601728213,0.5066392512017766,0.0,0.0,0.0,126,1.4093586287344806e-05,0,1735644242188269615,map,0.9528684967800626,0.3233820877416751,0.0300523207109198,-0.4997538839479715,0.5019761110449517,-0.4830733464315096,0.5146903742897923,0.0,0.0,0.0,0,0.0044273054227232,0.9330096179044672,0.2472239360325387,0.1568949318771925,1.0,3.3243631799057285e-05,-0.0003357021863715,-0.0004273912460143,0.0,0.0,0.0,-0.0003357021863715,0.0058796599056565,0.0037887705259055,0.0,0.0,0.0,-0.0004273912460143,0.0037887705259055,0.0056062924460089,0.0,0.0,0.0,0.0,0.0,0.0,0.0,0.0,0.0,0.0,0.0,0.0,0.0,0.0,0.0,0.0,0.0,0.0,0.0,0.0,0.0,0,0,0,1,24,,124
2.400589463,0,1735643777088230371,map,0.9687217536125244,-0.2239091876121752,0.0187893033567247,-0.4970661579762921,0.5091545089005562,-0.4935222796242595,0.5001226651286624,0.0,0.0,0.0,1,4.4082241329457255e-11,0,1735643777088253974,map,0.9634323334091464,-0.2486681771167969,0.1483568989658358,-0.5013959707031509,0.4899961448372568,-0.4907203450512921,0.5173967544931185,0.0,0.0,0.0,16,5.0389609529076547e-17,0,1735643777088270664,map,0.9683553137557516,0.0510033264073719,0.0238301848296604,-0.4939045714157926,0.5049956655661607,-0.4898548882279066,0.5109597250010982,0.0,0.0,0.0,17,0.0393481962382793,0,1735643777088284730,map,0.9820282117912164,-0.2622029719674483,0.2354763498430517,-0.5055518927666941,0.491215207125812,-0.4768441228917669,0.5251138795270418,0.0,0.0,0.0,121,2.0642233116356225e-22,0,1735643777088297367,map,0.9883577585371356,0.18996682688859,0.2416168999040084,-0.5342347939206488,0.4789914571308426,-0.466376351368526,0.5173523633312356,0.0,0.0,0.0,122,0.0729646310210228,0,1735643777088310956,map,0.9762844381914156,0.1897082092939188,0.1450634049647571,-0.4898438947757216,0.5047514194765393,-0.4816678725177741,0.5227571366051081,0.0,0.0,0.0,124,0.6899926066398621,0,1735643777088322877,map,0.9675954839009012,-0.0425100251256152,0.2398002417872042,-0.5162631270920942,0.4818691439572691,-0.4801753864313192,0.5202942532572448,0.0,0.0,0.0,125,4.324858693394162e-09,0,1735643777088343858,map,0.9668072475416712,-0.0368226785316923,0.1422080871578959,-0.5202536603460898,0.4933531130894819,-0.476475809800828,0.5088316395194558,0.0,0.0,0.0,126,8.318384971062187e-06,0,1735644242188269615,map,0.9528684967800626,0.3233820877416751,0.0300523207109198,-0.4997538839479715,0.5019761110449517,-0.4830733464315096,0.5146903742897923,0.0,0.0,0.0,0,0.0039878142997622,0.933282020098918,0.2445781931710281,0.153370598334504,1.0,3.36947574600947e-05,-0.0003395710467909,-0.0004333364647578,0.0,0.0,0.0,-0.0003395710467909,0.0058124724363719,0.0038610072323608,0.0,0.0,0.0,-0.0004333364647578,0.0038610072323608,0.0056801429942514,0.0,0.0,0.0,0.0,0.0,0.0,0.0,0.0,0.0,0.0,0.0,0.0,0.0,0.0,0.0,0.0,0.0,0.0,0.0,0.0,0.0,0,0,0,1,25,,124
2.500284016,0,1735643777088230371,map,0.9687217536125244,-0.2239091876121752,0.0187893033567247,-0.4970661579762921,0.5091545089005562,-0.4935222796242595,0.5001226651286624,0.0,0.0,0.0,1,2.1263851790465083e-11,0,1735643777088253974,map,0.9634323334091464,-0.2486681771167969,0.1483568989658358,-0.5013959707031509,0.4899961448372568,-0.4907203450512921,0.5173967544931185,0.0,0.0,0.0,16,1.2208207286618038e-17,0,1735643777088270664,map,0.9683553137557516,0.0510033264073719,0.0238301848296604,-0.4939045714157926,0.5049956655661607,-0.4898548882279066,0.5109597250010982,0.0,0.0,0.0,17,0.0395033694803714,0,1735643777088284730,map,0.9820282117912164,-0.2622029719674483,0.2354763498430517,-0.5055518927666941,0.491215207125812,-0.4768441228917669,0.5251138795270418,0.0,0.0,0.0,121,2.8650102791306383e-23,0,1735643777088297367,map,0.9802488265187516,0.1874969069571134,0.2423838505761624,-0.4956712352794385,0.4729229592242728,-0.5018171839531008,0.5280467924762852,0.0,0.0,0.0,122,0.0560123100876808,0,1735643777088310956,map,0.974628102808398,0.1890706613717539,0.145965584271742,-0.4944776324346451,0.5084350211792104,-0.4757645097643451,0.5202247894026363,0.0,0.0,0.0,124,0.673935055732727,0,1735643777088322877,map,0.9626420835287572,-0.0421799419506792,0.240727494100159,-0.5238558237533981,0.4914922510811282,-0.4687124677652983,0.5141196996889137,0.0,0.0,0.0,125,1.855538500628029e-09,0,1735643777088343858,map,0.9638952407045897,-0.0372791628679295,0.1434853376111615,-0.5178150222027949,0.4991713730281152,-0.4769394800726705,0.5051972639260398,0.0,0.0,0.0,126,4.819159585167654e-06,0,1735644242188269615,map,0.9528684967800626,0.3233820877416751,0.0300523207109198,-0.4997538839479715,0.5019761110449517,-0.4830733464315096,0.5146903742897923,0.0,0.0,0.0,0,0.0034013874828815,0.9334831607872786,0.2425160957021276,0.1507912152127641,1.0,3.341024466294324e-05,-0.0003368799145233,-0.000429640150068,0.0,0.0,0.0,-0.0003368799145233,0.0056952219534849,0.0038454804393597,0.0,0.0,0.0,-0.000429640150068,0.0038454804393597,0.0056280063882289,0.0,0.0,0.0,0.0,0.0,0.0,0.0,0.0,0.0,0.0,0.0,0.0,0.0,0.0,0.0,0.0,0.0,0.0,0.0,0.0,0.0,0,0,0,1,26,,124
