%time,field.boxes0.header.seq,field.boxes0.header.stamp,field.boxes0.header.frame_id,field.boxes0.pose.position.x,field.boxes0.pose.position.y,field.boxes0.pose.position.z,field.boxes0.pose.orientation.x,field.boxes0.pose.orientation.y,field.boxes0.pose.orientation.z,field.boxes0.pose.orientation.w,field.boxes0.scale.x,field.boxes0.scale.y,field.boxes0.scale.z,field.boxes0.id,field.boxes0.pdf,field.boxes1.header.seq,field.boxes1.header.stamp,field.boxes1.header.frame_id,field.boxes1.pose.position.x,field.boxes1.pose.position.y,field.boxes1.pose.position.z,field.boxes1.pose.orientation.x,field.boxes1.pose.orientation.y,field.boxes1.pose.orientation.z,field.boxes1.pose.orientation.w,field.boxes1.scale.x,field.boxes1.scale.y,field.boxes1.scale.z,field.boxes1.id,field.boxes1.pdf,field.boxes2.header.seq,field.boxes2.header.stamp,field.boxes2.header.frame_id,field.boxes2.pose.position.x,field.boxes2.pose.position.y,field.boxes2.pose.position.z,field.boxes2.pose.orientation.x,field.boxes2.pose.orientation.y,field.boxes2.pose.orientation.z,field.boxes2.pose.orientation.w,field.boxes2.scale.x,field.boxes2.scale.y,field.boxes2.scale.z,field.boxes2.id,field.boxes2.pdf,field.boxes3.header.seq,field.boxes3.header.stamp,field.boxes3.header.frame_id,field.boxes3.pose.position.x,field.boxes3.pose.position.y,field.boxes3.pose.position.z,field.boxes3.pose.orientation.x,field.boxes3.pose.orientation.y,field.boxes3.pose.orientation.z,field.boxes3.pose.orientation.w,field.boxes3.scale.x,field.boxes3.scale.y,field.boxes3.scale.z,field.boxes3.id,field.boxes3.pdf,field.boxes4.header.seq,field.boxes4.header.stamp,field.boxes4.header.frame_id,field.boxes4.pose.position.x,field.boxes4.pose.position.y,field.boxes4.pose.position.z,field.boxes4.pose.orientation.x,field.boxes4.pose.orientation.y,field.boxes4.pose.orientation.z,field.boxes4.pose.orientation.w,field.boxes4.scale.x,field.boxes4.scale.y,field.boxes4.scale.z,field.boxes4.id,field.boxes4.pdf,field.boxes5.header.seq,field.boxes5.header.stamp,field.boxes5.header.frame_id,field.boxes5.pose.position.x,field.boxes5.pose.position.y,field.boxes5.pose.position.z,field.boxes5.pose.orientation.x,field.boxes5.pose.orientation.y,field.boxes5.pose.orientation.z,field.boxes5.pose.orientation.w,field.boxes5.scale.x,field.boxes5.scale.y,field.boxes5.scale.z,field.boxes5.id,field.boxes5.pdf,field.boxes6.header.seq,field.boxes6.header.stamp,field.boxes6.header.frame_id,field.boxes6.pose.position.x,field.boxes6.pose.position.y,field.boxes6.pose.position.z,field.boxes6.pose.orientation.x,field.boxes6.pose.orientation.y,field.boxes6.pose.orientation.z,field.boxes6.pose.orientation.w,field.boxes6.scale.x,field.boxes6.scale.y,field.boxes6.scale.z,field.boxes6.id,field.boxes6.pdf,field.boxes7.header.seq,field.boxes7.header.stamp,field.boxes7.header.frame_id,field.boxes7.pose.position.x,field.boxes7.pose.position.y,field.boxes7.pose.position.z,field.boxes7.pose.orientation.x,field.boxes7.pose.orientation.y,field.boxes7.pose.orientation.z,field.boxes7.pose.orientation.w,field.boxes7.scale.x,field.boxes7.scale.y,field.boxes7.scale.z,field.boxes7.id,field.boxes7.pdf,field.boxes8.header.seq,field.boxes8.header.stamp,field.boxes8.header.frame_id,field.boxes8.pose.position.x,field.boxes8.pose.position.y,field.boxes8.pose.position.z,field.boxes8.pose.orientation.x,field.boxes8.pose.orientation.y,field.boxes8.pose.orientation.z,field.boxes8.pose.orientation.w,field.boxes8.scale.x,field.boxes8.scale.y,field.boxes8.scale.z,field.boxes8.id,field.boxes8.pdf,field.pose.pose.position.x,field.pose.pose.position.y,field.pose.pose.position.z,field.pose.pose.orientation.w,field.pose.covariance0,field.pose.covariance1,field.pose.covariance2,field.pose.covariance3,field.pose.covariance4,field.pose.covariance5,field.pose.covariance6,field.pose.covariance7,field.pose.covariance8,field.pose.covariance9,field.pose.covariance10,field.pose.covariance11,field.pose.covariance12,field.pose.covariance13,field.pose.covariance14,field.pose.covariance15,field.pose.covariance16,field.pose.covariance17,field.pose.covariance18,field.pose.covariance19,field.pose.covariance20,field.pose.covariance21,field.pose.covariance22,field.pose.covariance23,field.pose.covariance24,field.pose.covariance25,field.pose.covariance26,field.pose.covariance27,field.pose.covariance28,field.pose.covariance29,field.pose.covariance30,field.pose.covariance31,field.pose.covariance32,field.pose.covariance33,field.pose.covariance34,field.pose.covariance35,field.buttons0,field.buttons1,field.buttons2,field.buttons3,intersection_length,vacuum,desired_box
0.0,0,1735643777088230371,map,0.981900034726658,-0.2221500879656716,0.0219366357614173,-0.5051620249721613,0.7247155880075756,-0.3786584032233216,0.276073285004587,0.0,0.0,0.0,1,0.1111111119389534,0,1735643777088253974,map,0.9857630057669884,-0.2519834703593395,0.1487193667989458,-0.50318087061732,0.5106929682317841,-0.4950977115863791,0.4907952318689906,0.0,0.0,0.0,16,0.1111111119389534,0,1735643777088270664,map,0.9797902839704202,0.0538041324797901,0.0279079688667049,-0.4897695636792707,0.503783402715995,-0.5017529411201348,0.5045513291218297,0.0,0.0,0.0,17,0.1111111119389534,0,1735643777088284730,map,1.003877658049607,-0.2569024307055577,0.2377765504905179,-0.5061855032594791,0.5096204509469892,-0.4721138332362644,0.5110496656231135,0.0,0.0,0.0,121,0.1111111119389534,0,1735643777088297367,map,1.016610172506772,0.2086427324407926,0.2434110770106286,0.5396437530216595,-0.4953848420518013,0.4754712966689642,-0.4871401483494701,0.0,0.0,0.0,122,0.1111111119389534,0,1735643777088310956,map,1.0046009389895958,0.2067946059674489,0.1454486030630606,-0.474401598782959,0.4915312075088132,-0.4910348158049609,0.5405783983701983,0.0,0.0,0.0,124,0.1111111119389534,0,1735643777088322877,map,0.9960204468307036,-0.0279884427947385,0.2432221985713336,0.5698826155532373,-0.5090097911993062,0.4330927964443228,-0.4780935751727649,0.0,0.0,0.0,125,0.1111111119389534,0,1735643777088343858,map,0.993378838083414,-0.0221941196971581,0.1470546029758642,-0.4648106614694975,0.4726096751657282,-0.537662565472589,0.521066319784216,0.0,0.0,0.0,126,0.1111111119389534,0,1735644242188269615,map,0.97073823067315,0.3276037280450034,0.0276167774950625,-0.4960526982770891,0.4898008883997756,-0.4846518455799609,0.528336444730768,0.0,0.0,0.0,0,0.1111111119389534,0.9366561465827394,-0.2333264220331298,0.2039630877057465,1.0,0.0,0.0,0.0,0.0,0.0,0.0,0.0,0.0,0.0,0.0,0.0,0.0,0.0,0.0,0.0,0.0,0.0,0.0,0.0,0.0,0.0,0.0,0.0,0.0,0.0,0.0,0.0,0.0,0.0,0.0,0.0,0.0,0.0,0.0,0.0,0.0,0,0,0,1,1,,16
0.101538556,0,1735643777088230371,map,0.973708239873906,-0.2207361241768749,0.0250239828968696,-0.4941479475557739,0.7447310487298572,-0.3706508713040633,0.252609189432376,0.0,0.0,0.0,1,0.0,0,1735643777088253974,map,0.9881419768094072,-0.2526860345213284,0.1485546233093164,-0.5035271472509542,0.5097588108301274,-0.4950171126337258,0.4914920395714862,0.0,0.0,0.0,16,0.0,0,1735643777088270664,map,0.9811325328121424,0.0538707738744406,0.0277690294038112,-0.4835653825009404,0.5005028225206698,-0.5057805244375678,0.5097523973413177,0.0,0.0,0.0,17,0.0,0,1735643777088284730,map,1.0125437242846012,-0.2590594052870724,0.2383962067151325,-0.4607046268291933,0.4799466718036229,-0.5354407518033152,0.5202938019533766,0.0,0.0,0.0,121,0.0,0,1735643777088297367,map,1.0131017087647858,0.2073658740203816,0.2436301630991794,-0.510520095621501,0.4927186492414085,-0.4896933348464471,0.5067524074568373,0.0,0.0,0.0,122,0.0,0,1735643777088310956,map,1.007277691420763,0.2076031377545313,0.1456047359903276,-0.4887922369608937,0.5015538236283373,-0.4810882229028219,0.527332943096451,0.0,0.0,0.0,124,0.0,0,1735643777088322877,map,0.996870697869792,-0.0280452313053966,0.2435560121079044,-0.4786179125457723,0.5349583472430173,-0.5107235226754653,0.4731870073145605,0.0,0.0,0.0,125,0.0,0,1735643777088343858,map,1.0112852434756792,-0.0201374103427518,0.1452298630478933,0.5069822489439898,-0.4999084494770397,0.4938464080763751,-0.4991755869703754,0.0,0.0,0.0,126,0.0,0,1735644242188269615,map,0.9742507341088512,0.3296696001343746,0.0270678328059609,-0.5066892399979205,0.4908254397150334,-0.4826058342914511,0.5190838183826639,0.0,0.0,0.0,0,0.0,0.9403052568674916,-0.2862995095766049,0.1604626920044317,1.0,1.3316005870284926e-05,-0.0001933046385699,-0.0001587377413444,0.0,0.0,0.0,-0.0001933046385699,0.0028061480038886,0.0023043502696615,0.0,0.0,0.0,-0.0001587377413444,0.0023043502696615,0.0018922844261709,0.0,0.0,0.0,0.0,0.0,0.0,0.0,0.0,0.0,0.0,0.0,0.0,0.0,0.0,0.0,0.0,0.0,0.0,0.0,0.0,0.0,0,0,0,1,2,,16
0.199723938,0,1735643777088230371,map,0.9909007634789464,-0.224559302819978,0.0188809155010837,-0.4804620671627422,0.5350645787617893,-0.5072584430870273,0.4749220678059707,0.0,0.0,0.0,1,0.0,0,1735643777088253974,map,0.9707394839176978,-0.2489777695250234,0.1502509670437592,-0.5011994037707266,0.4743816415508196,-0.49128018737012,0.5314179083517965,0.0,0.0,0.0,16,0.0014912034384906,0,1735643777088270664,map,0.9831157945558104,0.0536053458904043,0.0267488576758151,-0.4767318124708309,0.5004608756150066,-0.5105344326803734,0.5114883029011198,0.0,0.0,0.0,17,0.0,0,1735643777088284730,map,1.010674321652216,-0.2590918444834652,0.23789931202179,0.3559451942421386,-0.5904324261865402,0.6128707065154637,-0.3861114682298865,0.0,0.0,0.0,121,0.0007011570851318,0,1735643777088297367,map,1.0159442551913958,0.2083436466571743,0.2434217751321805,-0.5096638347578686,0.4943582335745609,-0.4909762557995054,0.5047722542672527,0.0,0.0,0.0,122,0.0,0,1735643777088310956,map,1.0086618857759633,0.2081156274716023,0.1449307823617444,-0.4904506880862155,0.5026656592651714,-0.475447824268243,0.5298440562560491,0.0,0.0,0.0,124,0.0,0,1735643777088322877,map,0.9958216152902064,-0.0284146736742981,0.2431352069859498,-0.4871061886570572,0.5481922454646856,-0.5042839889864779,0.4559720182601862,0.0,0.0,0.0,125,9.924162730120598e-20,0,1735643777088343858,map,0.9966367228805694,-0.0227170938661195,0.1467891447080702,-0.6508109686362636,0.4432070944078978,-0.3474015104481384,0.5092393789835878,0.0,0.0,0.0,126,0.0,0,1735644242188269615,map,0.9742507341088512,0.3296696001343746,0.0270678328059609,-0.5066892399979205,0.4908254397150334,-0.4826058342914511,0.5190838183826639,0.0,0.0,0.0,0,0.0,0.940959981055118,-0.3063097125412132,0.1548821988568173,1.0,9.73466477058284e-06,-0.0001550720868071,-0.0001131325285815,0.0,0.0,0.0,-0.0001550720868071,0.0026715817812954,0.0017595671141604,0.0,0.0,0.0,-0.0001131325285815,0.0017595671141604,0.0013238067583217,0.0,0.0,0.0,0.0,0.0,0.0,0.0,0.0,0.0,0.0,0.0,0.0,0.0,0.0,0.0,0.0,0.0,0.0,0.0,0.0,0.0,0,0,0,1,3,,16
0.300542705,0,1735643777088230371,map,0.9806772491784884,-0.2239458034876846,0.022726242808356,-0.4869253276676902,0.4880280242587573,-0.5036053026575882,0.5206861549426541,0.0,0.0,0.0,1,4.489355821822338e-33,0,1735643777088253974,map,0.9833093213808424,-0.2526323602338132,0.1493802628277145,-0.4991118379183899,0.5024409192261826,-0.4994460669857226,0.4989931082784296,0.0,0.0,0.0,16,0.0058026812039315,0,1735643777088270664,map,0.9942752411938384,0.0549260487571255,0.0239864396294309,-0.5007273488851571,0.5064266942559411,-0.4942784905194579,0.4984906210083074,0.0,0.0,0.0,17,0.0,0,1735643777088284730,map,1.003940777189361,-0.2588113258757517,0.2381476321814575,0.5233063197872194,-0.5223364859068076,0.4525917163113852,-0.4984734992831597,0.0,0.0,0.0,121,0.0087253004312515,0,1735643777088297367,map,1.0224511191347254,0.2101549987685138,0.2439686564594288,-0.513828421512422,0.4810666674462091,-0.491045004647593,0.5132543405845652,0.0,0.0,0.0,122,0.0,0,1735643777088310956,map,1.0049439272146214,0.2051217768174468,0.145770508568849,-0.472948664127062,0.4921073206331796,-0.494413765505028,0.5382424867648409,0.0,0.0,0.0,124,0.0,0,1735643777088322877,map,1.005198889522385,-0.0286009020115693,0.2437391152200179,-0.5688622093085038,0.4198570663462875,-0.4161153643511828,0.5718075150001265,0.0,0.0,0.0,125,1.6646582870084709e-15,0,1735643777088343858,map,1.0056796017307907,-0.0221118324149771,0.1461011522621124,-0.5045371822610579,0.5048908841012854,-0.4968908716840031,0.4935857458482831,0.0,0.0,0.0,126,2.1835733320341458e-40,0,1735644242188269615,map,0.9742507341088512,0.3296696001343746,0.0270678328059609,-0.5066892399979205,0.4908254397150334,-0.4826058342914511,0.5190838183826639,0.0,0.0,0.0,0,0.0,0.9409187865659224,-0.3132037598711521,0.1569595448838487,1.0,7.306089535757363e-06,-0.0001154520748306,-8.510612206156885e-05,0.0,0.0,0.0,-0.0001154520748306,0.0021462700017338,0.0012767113701272,0.0,0.0,0.0,-8.510612206156885e-05,0.0012767113701272,0.0010058011682894,0.0,0.0,0.0,0.0,0.0,0.0,0.0,0.0,0.0,0.0,0.0,0.0,0.0,0.0,0.0,0.0,0.0,0.0,0.0,0.0,0.0,0,0,0,1,4,,16
0.399908427,0,1735643777088230371,map,0.9797914992533576,-0.2238611440264015,0.0224134659202764,-0.516581550555074,0.73459354163544,-0.3513551611553782,0.2646986606371379,0.0,0.0,0.0,1,2.5885792815537737e-22,0,1735643777088253974,map,0.98631010941144,-0.2542122589824532,0.1483357133490975,-0.5130286516387961,0.5178978762711062,-0.4742477036742703,0.4936319559259087,0.0,0.0,0.0,16,0.0309149976819753,0,1735643777088270664,map,0.9829503676221736,0.0525795406525689,0.0266760469341039,-0.4803233224156219,0.5000439238861871,-0.5071247174904285,0.5119278279585677,0.0,0.0,0.0,17,0.0,0,1735643777088284730,map,1.0074768973696675,-0.2595730135233209,0.2378666694753457,0.3623635177151795,-0.5884921624321975,0.6060309560237394,-0.3938224677769282,0.0,0.0,0.0,121,0.0108878370374441,0,1735643777088297367,map,1.0127068979962308,0.2065649033221986,0.243325905132323,-0.5079905990952626,0.4951690932575549,-0.4924064000959551,0.5042708175751099,0.0,0.0,0.0,122,8.371858713147461e-36,0,1735643777088310956,map,0.9989091371486106,0.2033652971677518,0.1459925820810369,-0.4663876468069437,0.5019884795097254,-0.5033243507115843,0.5264548673211769,0.0,0.0,0.0,124,0.0,0,1735643777088322877,map,1.0012329537159614,-0.0284770827624662,0.2435048476365212,-0.4925147102547624,0.5194501725749308,-0.4955552561354182,0.4919611432939619,0.0,0.0,0.0,125,8.167411635895405e-09,0,1735643777088343858,map,0.9953721020999092,-0.0232762896651782,0.1467548083442055,0.484772710730091,-0.5035381671700556,0.525258078431106,-0.4853335803107822,0.0,0.0,0.0,126,1.1773116255625191e-20,0,1735644242188269615,map,0.9742507341088512,0.3296696001343746,0.0270678328059609,-0.5066892399979205,0.4908254397150334,-0.4826058342914511,0.5190838183826639,0.0,0.0,0.0,0,0.0,0.9413102446197172,-0.3297467759976437,0.1545924732173535,1.0,6.457829260128399e-06,-0.0001182652474515,-7.179133472028893e-05,0.0,0.0,0.0,-0.0001182652474515,0.0028117015316325,0.0011780031151073,0.0,0.0,0.0,-7.179133472028893e-05,0.0011780031151073,0.0008270530477288,0.0,0.0,0.0,0.0,0.0,0.0,0.0,0.0,0.0,0.0,0.0,0.0,0.0,0.0,0.0,0.0,0.0,0.0,0.0,0.0,0.0,0,0,0,1,5,,16
0.500965693,0,1735643777088230371,map,0.979986324555086,-0.2249391794986245,0.0229121828406765,-0.5005528141284987,0.5086418883134498,-0.4946233072722499,0.4960625904299077,0.0,0.0,0.0,1,7.207036741739358e-17,0,1735643777088253974,map,0.9791813745353508,-0.2533916464980941,0.1502401724559753,-0.5074836676402369,0.4765338623647528,-0.4819352508490042,0.5320847856190326,0.0,0.0,0.0,16,0.0442029125988483,0,1735643777088270664,map,0.9854593357253516,0.0523538116099545,0.0266746283369498,-0.489170521671639,0.5115303228883026,-0.5063212371062132,0.4926334685631087,0.0,0.0,0.0,17,0.0,0,1735643777088284730,map,0.998679031323862,-0.2588194696938121,0.2385195413155755,-0.5289675906416069,0.5182017909456236,-0.4481369654313412,0.5008327586386004,0.0,0.0,0.0,121,0.0319457724690437,0,1735643777088297367,map,1.0050827438641663,0.2029069447030371,0.2440344054423547,-0.4913782007120809,0.4939060452281663,-0.5085057038969938,0.505990347196716,0.0,0.0,0.0,122,9.571288900877798e-41,0,1735643777088310956,map,1.004582633844352,0.2062526285022858,0.1459712105846224,-0.4822290045341568,0.5070028329963121,-0.4866717558001033,0.5230238203238495,0.0,0.0,0.0,124,0.0,0,1735643777088322877,map,0.9996234571291456,-0.0292630513324982,0.2444277077889948,-0.4574666871746022,0.503336838513233,-0.5329310975021462,0.5033494833971288,0.0,0.0,0.0,125,2.3984869645943263e-10,0,1735643777088343858,map,0.9918916365946104,-0.0244821786940333,0.1475919214098793,-0.4930915153050779,0.5357437545894451,-0.5108156495050475,0.4570631894752441,0.0,0.0,0.0,126,3.571181446358288e-21,0,1735644242188269615,map,0.9742507341088512,0.3296696001343746,0.0270678328059609,-0.5066892399979205,0.4908254397150334,-0.4826058342914511,0.5190838183826639,0.0,0.0,0.0,0,0.0,0.9421996656877376,-0.3395918354657188,0.1433405992249038,1.0,9.336873564633126e-06,-0.0001423363894104,-0.0001098643811848,0.0,0.0,0.0,-0.0001423363894104,0.0028277105893434,0.0015355461055042,0.0,0.0,0.0,-0.0001098643811848,0.0015355461055042,0.0013222342148171,0.0,0.0,0.0,0.0,0.0,0.0,0.0,0.0,0.0,0.0,0.0,0.0,0.0,0.0,0.0,0.0,0.0,0.0,0.0,0.0,0.0,0,0,0,1,6,,16
0.600435273,0,1735643777088230371,map,0.9723255936904192,-0.2236601944632174,0.0241934309420428,-0.4965221026297549,0.4851885300679512,-0.4885216978292073,0.5285872138452623,0.0,0.0,0.0,1,5.362536947938267e-19,0,1735643777088253974,map,0.9806618195024884,-0.2537033720378939,0.1486242702506597,-0.4794159836892115,0.4839889514523282,-0.5170006333158513,0.5182908011979283,0.0,0.0,0.0,16,0.0233477931469678,0,1735643777088270664,map,0.9871573533635856,0.0537811977083774,0.0244693749643046,-0.49923624562572,0.5100967992268948,-0.4931751101506084,0.4973356383770906,0.0,0.0,0.0,17,0.0,0,1735643777088284730,map,1.0061782494004508,-0.2600110108570727,0.2375806224831624,0.3639279923514456,-0.5881794987737011,0.6065317697095727,-0.3920720672763337,0.0,0.0,0.0,121,0.019045265391469,0,1735643777088297367,map,1.0082161664527336,0.2060596906573297,0.2429677442919725,0.5010051516781291,-0.4982462002760704,0.501413837259472,-0.4993282744920064,0.0,0.0,0.0,122,0.0,0,1735643777088310956,map,0.9995430082803236,0.2050168336621775,0.1454580940623582,-0.4749410834901524,0.5065571909170927,-0.4972007806304778,0.5202135746823875,0.0,0.0,0.0,124,0.0,0,1735643777088322877,map,1.0075038832887544,-0.0271446195871918,0.2437631866568868,-0.581303904446348,0.395520319967798,-0.3948829936973548,0.5913686400686263,0.0,0.0,0.0,125,2.8664572885445105e-12,0,1735643777088343858,map,1.0085878248840745,-0.0205184340461891,0.1444937659930093,0.5116166239537219,-0.5104202900843088,0.4920922440970476,-0.4853501631440722,0.0,0.0,0.0,126,8.010085619745585e-26,0,1735644242188269615,map,0.9742507341088512,0.3296696001343746,0.0270678328059609,-0.5066892399979205,0.4908254397150334,-0.4826058342914511,0.5190838183826639,0.0,0.0,0.0,0,0.0,0.9424356631332402,-0.3425780547893874,0.140434221587393,1.0,8.337203249673366e-06,-0.0001262310602872,-9.828485577575292e-05,0.0,0.0,0.0,-0.0001262310602872,0.0024772569688172,0.0013682568625245,0.0,0.0,0.0,-9.828485577575292e-05,0.0013682568625245,0.0011840257985313,0.0,0.0,0.0,0.0,0.0,0.0,0.0,0.0,0.0,0.0,0.0,0.0,0.0,0.0,0.0,0.0,0.0,0.0,0.0,0.0,0.0,0,0,0,1,7,,16
0.70028491,0,1735643777088230371,map,0.9767829087034664,-0.2244058924706261,0.024720722755857,-0.5233283162031402,0.7405392648116748,-0.3358844032916261,0.254775859055756,0.0,0.0,0.0,1,6.46143466642978e-17,0,1735643777088253974,map,0.9769194541624991,-0.2533494731672959,0.1509673504284448,-0.5123008737073331,0.4898993635865696,-0.4838350149497599,0.5132739099786225,0.0,0.0,0.0,16,0.0211221035569906,0,1735643777088270664,map,0.9807820070616255,0.0518683907379543,0.0284669970916887,-0.4843107614578312,0.5041106605298432,-0.5004262367955765,0.5107730511713775,0.0,0.0,0.0,17,0.0,0,1735643777088284730,map,1.003943563212217,-0.2599069410925876,0.2396442782057703,-0.4834467144692213,0.4985296360389275,-0.4943363923967767,0.5228565839806838,0.0,0.0,0.0,121,0.0352617353200912,0,1735643777088297367,map,1.0043161672876924,0.2049490158564212,0.2453334896605646,-0.4949109775444999,0.492336943525807,-0.5043816346358774,0.5081993949107517,0.0,0.0,0.0,122,0.0,0,1735643777088310956,map,1.001966456217939,0.2073773847635757,0.1469173064190861,-0.4794041786404602,0.5107083369051106,-0.492341592614978,0.5166704794150996,0.0,0.0,0.0,124,0.0,0,1735643777088322877,map,0.9891169063778678,-0.03013717824538,0.2449730569590729,-0.4857121237198968,0.5363288629149231,-0.5090481904309058,0.4661598690309081,0.0,0.0,0.0,125,4.824329412518591e-13,0,1735643777088343858,map,0.9916102787495062,-0.0232963953924352,0.1484650025676546,0.4758292777456596,-0.4993744683982368,0.5333827540124892,-0.4896064506050491,0.0,0.0,0.0,126,2.5373677489845373e-24,0,1735644242188269615,map,0.9742507341088512,0.3296696001343746,0.0270678328059609,-0.5066892399979205,0.4908254397150334,-0.4826058342914511,0.5190838183826639,0.0,0.0,0.0,0,0.0,0.9420848044764794,-0.3416997867088485,0.1455091863280603,1.0,8.156765422632175e-06,-0.0001126092134644,-9.84634159879165e-05,0.0,0.0,0.0,-0.0001126092134644,0.0021729993314641,0.0012284250115001,0.0,0.0,0.0,-9.84634159879165e-05,0.0012284250115001,0.001216309443548,0.0,0.0,0.0,0.0,0.0,0.0,0.0,0.0,0.0,0.0,0.0,0.0,0.0,0.0,0.0,0.0,0.0,0.0,0.0,0.0,0.0,0,0,0,1,8,,16
0.80126419,0,1735643777088230371,map,0.9781273632704296,-0.2253451574106424,0.0230978954680419,0.4708200117401299,-0.5055950973947948,0.5254668875409872,-0.4965749330497456,0.0,0.0,0.0,1,1.6323324127770332e-17,0,1735643777088253974,map,0.9826262954366424,-0.255053909432324,0.1501467386399404,-0.4998823778928488,0.5094555815377914,-0.4986548418446789,0.4918495373760556,0.0,0.0,0.0,16,0.0142697989940643,0,1735643777088270664,map,0.9870966692106422,0.0540249297579689,0.0257180830985856,-0.4956766324760576,0.493896698964251,-0.4866923145851907,0.5229735344098411,0.0,0.0,0.0,17,0.0,0,1735643777088284730,map,1.00471710314523,-0.2604258336706212,0.2395394555017963,-0.3995991977181149,0.6127638884633961,-0.5560823052238976,0.3944786027088584,0.0,0.0,0.0,121,0.0379060059785842,0,1735643777088297367,map,1.0091745689364693,0.2087398507550687,0.245163161354443,0.5104903279788302,-0.5008452878612679,0.4948768883100762,-0.493609651530201,0.0,0.0,0.0,122,0.0,0,1735643777088310956,map,1.0004674121152186,0.207326566222023,0.1467296344966885,-0.4756396191110991,0.5036782559493206,-0.4964521705507835,0.5230778236277224,0.0,0.0,0.0,124,0.0,0,1735643777088322877,map,0.994441041646272,-0.0288317416012567,0.245147254305404,-0.4564687939611218,0.4958699199487103,-0.5297109649171036,0.5149325744952725,0.0,0.0,0.0,125,1.4886446499866142e-14,0,1735643777088343858,map,1.0082647880036428,-0.0199768696753785,0.1458289101858312,-0.5339097859240362,0.4913402670450074,-0.4702488334547494,0.5023854268478914,0.0,0.0,0.0,126,6.638981733746104e-27,0,1735644242188269615,map,0.9742507341088512,0.3296696001343746,0.0270678328059609,-0.5066892399979205,0.4908254397150334,-0.4826058342914511,0.5190838183826639,0.0,0.0,0.0,0,0.0,0.94189588464509,-0.341700401627219,0.1483420577401683,1.0,7.535983774988414e-06,-0.0001000961492728,-9.180452114988996e-05,0.0,0.0,0.0,-0.0001000961492728,0.0019315549643264,0.0010919194076783,0.0,0.0,0.0,-9.180452114988996e-05,0.0010919194076783,0.0011453652333208,0.0,0.0,0.0,0.0,0.0,0.0,0.0,0.0,0.0,0.0,0.0,0.0,0.0,0.0,0.0,0.0,0.0,0.0,0.0,0.0,0.0,0,0,0,1,9,,16
0.900187046,0,1735643777088230371,map,0.968841235292768,-0.2241790168236564,0.0251817556670665,-0.492507407027803,0.4841309882338492,-0.4920548261451037,0.530033667158775,0.0,0.0,0.0,1,2.338298557392969e-18,0,1735643777088253974,map,0.9759939387497036,-0.2540793847532988,0.1499136648739114,-0.506782176830108,0.5082899961881153,-0.4906166293052849,0.4940733023262278,0.0,0.0,0.0,16,0.0115563506260514,0,1735643777088270664,map,0.9838804973953325,0.0546695530745317,0.0253161923304411,0.5074219671548834,-0.5034320907213953,0.4903186326138711,-0.4986649333893623,0.0,0.0,0.0,17,0.0,0,1735643777088284730,map,0.9993225142939508,-0.2594268960844305,0.2388558441449576,0.3705113807242174,-0.5760737890220118,0.6009764332924671,-0.4119315877457344,0.0,0.0,0.0,121,0.0272901728749275,0,1735643777088297367,map,0.9925653225153024,0.2018338974084063,0.2442764682062607,-0.4937072511829311,0.5053979765026817,-0.5049291769869776,0.4958553838607006,0.0,0.0,0.0,122,0.0,0,1735643777088310956,map,0.9908187381013434,0.2046730371783962,0.1470094521480809,-0.4699426392865061,0.5058151851651713,-0.4997702869459812,0.5230053293444423,0.0,0.0,0.0,124,0.0,0,1735643777088322877,map,0.9937869575353964,-0.0275440006410756,0.2449097850957936,-0.4985142945185347,0.505851212830481,-0.4992639895564759,0.4963199747851887,0.0,0.0,0.0,125,1.50362324181268e-15,0,1735643777088343858,map,0.9887114423100256,-0.0224486401116785,0.1474396183266861,0.481083018395712,-0.5082497374301187,0.5263469273277129,-0.4829081133157346,0.0,0.0,0.0,126,1.2051784923880092e-27,0,1735644242188269615,map,0.9742507341088512,0.3296696001343746,0.0270678328059609,-0.5066892399979205,0.4908254397150334,-0.4826058342914511,0.5190838183826639,0.0,0.0,0.0,0,0.0,0.9418617649422552,-0.3398006252602966,0.1484514277278,1.0,6.792862784583356e-06,-9.066991259136995e-05,-8.265765407819427e-05,0.0,0.0,0.0,-9.066991259136995e-05,0.0017708818200926,0.0009845974735702,0.0,0.0,0.0,-8.265765407819427e-05,0.0009845974735702,0.0010309363661364,0.0,0.0,0.0,0.0,0.0,0.0,0.0,0.0,0.0,0.0,0.0,0.0,0.0,0.0,0.0,0.0,0.0,0.0,0.0,0.0,0.0,0,0,0,1,10,,16
1.005515659,0,1735643777088230371,map,0.969188975422098,-0.2244557374644951,0.0256695213817403,-0.4921255611755429,0.4885853034606212,-0.4915927799183903,0.5267194433586624,0.0,0.0,0.0,1,3.526225714873808e-19,0,1735643777088253974,map,0.9701265363904804,-0.2532021148166586,0.1515653186730869,-0.5008193351583033,0.4809958506318234,-0.4915134004563729,0.525583068960918,0.0,0.0,0.0,16,0.0120823206380009,0,1735643777088270664,map,0.9785062936950598,0.0530491961430589,0.0277245300794187,-0.4898122466018339,0.502519266074272,-0.4997325538576346,0.5077654231217069,0.0,0.0,0.0,17,0.0,0,1735643777088284730,map,0.9935992072144976,-0.2587546883319411,0.2399351244387789,-0.492252838659177,0.5104885679072962,-0.4836907504622231,0.5129637636180859,0.0,0.0,0.0,121,0.0165674928575754,0,1735643777088297367,map,1.0014130281377986,0.2091297784682123,0.245896101184159,-0.5014476829165894,0.4852841383985407,-0.4978228834657978,0.5149969932088622,0.0,0.0,0.0,122,0.0,0,1735643777088310956,map,0.9936311560599106,0.2079279575845561,0.1476243318497745,-0.4935451380378357,0.5096843643645089,-0.4810319228988559,0.5150178002688737,0.0,0.0,0.0,124,0.0,0,1735643777088322877,map,0.9886981213216918,-0.0277989612967657,0.2456160720969584,-0.4970769607564037,0.5321833423257327,-0.4979931940093288,0.4708483449653142,0.0,0.0,0.0,125,3.9963861484405134e-16,0,1735643777088343858,map,0.9884917914415354,-0.0217771346854488,0.1482500354537065,-0.5004774007890556,0.5034508835761968,-0.5022311999489781,0.4937847718627896,0.0,0.0,0.0,126,7.834624634015835e-29,0,1735644242188269615,map,0.9742507341088512,0.3296696001343746,0.0270678328059609,-0.5066892399979205,0.4908254397150334,-0.4826058342914511,0.5190838183826639,0.0,0.0,0.0,0,0.0,0.9418296824875996,-0.3379502461293878,0.148540709133468,1.0,6.1856226431339335e-06,-8.302084031051118e-05,-7.517196555575676e-05,0.0,0.0,0.0,-8.302084031051118e-05,0.0016441315930016,0.0008967406568348,0.0,0.0,0.0,-7.517196555575676e-05,0.0008967406568348,0.0009372945899998,0.0,0.0,0.0,0.0,0.0,0.0,0.0,0.0,0.0,0.0,0.0,0.0,0.0,0.0,0.0,0.0,0.0,0.0,0.0,0.0,0.0,0,0,0,1,11,,16
1.101031111,0,1735643777088230371,map,0.9680009947170168,-0.2247248093437949,0.0237929920835783,-0.4886003401063807,0.4975905136904444,-0.5056809922706668,0.5078977479664218,0.0,0.0,0.0,1,2.3597219562316642e-17,0,1735643777088253974,map,0.969199621807994,-0.2535480479678428,0.1501922821325813,-0.4930966335555709,0.4890422523014734,-0.5028591407024943,0.5146125436209403,0.0,0.0,0.0,16,0.0152075719088315,0,1735643777088270664,map,0.9691316785158148,0.0508058734236799,0.0288080355938739,-0.4832796559416123,0.5019206813448852,-0.5031015852480364,0.511278005308419,0.0,0.0,0.0,17,0.0,0,1735643777088284730,map,0.9927693442764388,-0.259170561244909,0.2387780023610912,-0.5031135170858297,0.5236099735902375,-0.4801284600441219,0.4921240152014705,0.0,0.0,0.0,121,0.0148550355806946,0,1735643777088297367,map,1.0014130281377986,0.2091297784682123,0.245896101184159,-0.5014476829165894,0.4852841383985407,-0.4978228834657978,0.5149969932088622,0.0,0.0,0.0,122,0.0,0,1735643777088310956,map,0.9936311560599106,0.2079279575845561,0.1476243318497745,-0.4935451380378357,0.5096843643645089,-0.4810319228988559,0.5150178002688737,0.0,0.0,0.0,124,0.0,0,1735643777088322877,map,0.9912670664824316,-0.0277914717489034,0.2450452284241999,-0.5021169868191709,0.5201880808918135,-0.494504574577792,0.4824397555833947,0.0,0.0,0.0,125,8.608583778380625e-17,0,1735643777088343858,map,0.9898939390001114,-0.0219219907765819,0.1471209230652777,0.507247963592793,-0.504060606765839,0.4939786384592347,-0.494578116058302,0.0,0.0,0.0,126,4.4143050993559165e-28,0,1735644242188269615,map,0.9742507341088512,0.3296696001343746,0.0270678328059609,-0.5066892399979205,0.4908254397150334,-0.4826058342914511,0.5190838183826639,0.0,0.0,0.0,0,0.0,0.9420137453436704,-0.3378376448552256,0.1457569546110259,1.0,6.042824574374595e-06,-7.587445411798718e-05,-7.454387898079079e-05,0.0,0.0,0.0,-7.587445411798718e-05,0.0015072600964345,0.0008185642713972,0.0,0.0,0.0,-7.454387898079079e-05,0.0008185642713972,0.0009444288891532,0.0,0.0,0.0,0.0,0.0,0.0,0.0,0.0,0.0,0.0,0.0,0.0,0.0,0.0,0.0,0.0,0.0,0.0,0.0,0.0,0.0,0,0,0,1,12,,16
1.1999594,0,1735643777088230371,map,0.9678836955053904,-0.2254579601827736,0.0240570018559579,-0.4961944304759039,0.4950641833878698,-0.4920962903744709,0.5162787836923765,0.0,0.0,0.0,1,9.022547686754478e-08,0,1735643777088253974,map,0.9695867336523284,-0.2544056091726365,0.1500184568761375,-0.5121923341572086,0.4960688895122802,-0.478515240831623,0.5124430055923272,0.0,0.0,0.0,16,0.1171225905418396,0,1735643777088270664,map,0.9764245150572056,0.0529830343813076,0.0264048268262403,-0.4971621999008624,0.5027159296995608,-0.4938655937561332,0.5061652065481618,0.0,0.0,0.0,17,8.747334452879769e-35,0,1735643777088284730,map,0.992939080936464,-0.2593927141309919,0.2386518082719183,0.3888365145949977,-0.5773464016997416,0.5849435437065298,-0.4163152027466951,0.0,0.0,0.0,121,0.0146267637610435,0,1735643777088297367,map,1.0014130281377986,0.2091297784682123,0.245896101184159,-0.5014476829165894,0.4852841383985407,-0.4978228834657978,0.5149969932088622,0.0,0.0,0.0,122,4.1744681252236294e-42,0,1735643777088310956,map,0.9936311560599106,0.2079279575845561,0.1476243318497745,-0.4935451380378357,0.5096843643645089,-0.4810319228988559,0.5150178002688737,0.0,0.0,0.0,124,0.0,0,1735643777088322877,map,0.9850586091711496,-0.0283674185954305,0.2444944417744322,-0.4990397093887287,0.526933927908889,-0.4968583418271409,0.4758484971380144,0.0,0.0,0.0,125,2.423302715177239e-13,0,1735643777088343858,map,0.9832073597148544,-0.0226867766663138,0.1471275423128802,0.4927843856871751,-0.5105746311206228,0.5135776392784196,-0.482405538641669,0.0,0.0,0.0,126,4.033077233435407e-16,0,1735644242188269615,map,0.9742507341088512,0.3296696001343746,0.0270678328059609,-0.5066892399979205,0.4908254397150334,-0.4826058342914511,0.5190838183826639,0.0,0.0,0.0,0,0.0,0.9422593980986196,-0.3336998664682976,0.1411974555007056,1.0,6.302135226975884e-06,-5.78404777259641e-05,-8.225037665546088e-05,0.0,0.0,0.0,-5.78404777259641e-05,0.0015967715318453,0.0005292034264953,0.0,0.0,0.0,-8.225037665546088e-05,0.0005292034264953,0.0011212488987087,0.0,0.0,0.0,0.0,0.0,0.0,0.0,0.0,0.0,0.0,0.0,0.0,0.0,0.0,0.0,0.0,0.0,0.0,0.0,0.0,0.0,0,0,0,1,13,,16
1.30232126,0,1735643777088230371,map,0.9636367348019916,-0.2243138862090362,0.0257896457018104,-0.4921134904744454,0.4970024122301415,-0.5023312109653267,0.5084056148594228,0.0,0.0,0.0,1,3.4739377952064388e-06,0,1735643777088253974,map,0.9645069096501092,-0.252923711358696,0.151480119976497,-0.5210497954179721,0.5032552922024283,-0.463081950427596,0.5106822189515833,0.0,0.0,0.0,16,0.168554738163948,0,1735643777088270664,map,0.9705865717052864,0.0525378505204171,0.028527290704352,-0.4954191227155862,0.4995275488301198,-0.4973303170979495,0.5076363624709571,0.0,0.0,0.0,17,4.965888546533505e-28,0,1735643777088284730,map,0.9843397029734612,-0.2576257209879413,0.2397167635365115,-0.5137561624910852,0.521637204990323,-0.465192525454589,0.4975390900557454,0.0,0.0,0.0,121,0.0085568036884069,0,1735643777088297367,map,1.0014130281377986,0.2091297784682123,0.245896101184159,-0.5014476829165894,0.4852841383985407,-0.4978228834657978,0.5149969932088622,0.0,0.0,0.0,122,1.750210571553982e-38,0,1735643777088310956,map,0.9936311560599106,0.2079279575845561,0.1476243318497745,-0.4935451380378357,0.5096843643645089,-0.4810319228988559,0.5150178002688737,0.0,0.0,0.0,124,4.0318159415553637e-41,0,1735643777088322877,map,0.9818476239209906,-0.0267555726239637,0.2458299866525653,-0.4816588900978078,0.5136414579467985,-0.5124783785510008,0.4914703223855666,0.0,0.0,0.0,125,6.723269944247656e-13,0,1735643777088343858,map,0.9787965803511212,-0.0215739977206299,0.1482466023372431,0.4973625091491576,-0.503214082581458,0.5069549232884903,-0.4923442163142742,0.0,0.0,0.0,126,6.893610844920657e-14,0,1735644242188269615,map,0.9742507341088512,0.3296696001343746,0.0270678328059609,-0.5066892399979205,0.4908254397150334,-0.4826058342914511,0.5190838183826639,0.0,0.0,0.0,0,0.0,0.94236261712556,-0.3299228615476384,0.1388500516045009,1.0,5.99048688855587e-06,-4.8640850986682816e-05,-7.952520744952701e-05,0.0,0.0,0.0,-4.8640850986682816e-05,0.0016681713826467,0.000376143152878,0.0,0.0,0.0,-7.952520744952701e-05,0.000376143152878,0.0011127936573329,0.0,0.0,0.0,0.0,0.0,0.0,0.0,0.0,0.0,0.0,0.0,0.0,0.0,0.0,0.0,0.0,0.0,0.0,0.0,0.0,0.0,0,0,0,1,14,,16
1.400424148,0,1735643777088230371,map,0.9624618921106513,-0.2245028780000656,0.0256568070424972,-0.489265775595426,0.4940004403480444,-0.5001508840011888,0.5161701841445062,0.0,0.0,0.0,1,4.041990905534476e-06,0,1735643777088253974,map,0.9627194359423804,-0.2532016371007149,0.1516227054980104,-0.5079323860906063,0.4905100545342766,-0.4752769801420437,0.5248965323834245,0.0,0.0,0.0,16,0.279313862323761,0,1735643777088270664,map,0.9713499942814808,0.0536477310127468,0.0275094761717415,-0.4954764461128634,0.5008280051225985,-0.4954971508669214,0.5080915017150437,0.0,0.0,0.0,17,2.6137848527847164e-25,0,1735643777088284730,map,0.984128887817546,-0.2579175434761938,0.2395991796049743,-0.4809253057521069,0.4955701988075301,-0.5039882889287418,0.5187647183105135,0.0,0.0,0.0,121,0.010882812552154,0,1735643777088297367,map,1.0014130281377986,0.2091297784682123,0.245896101184159,-0.5014476829165894,0.4852841383985407,-0.4978228834657978,0.5149969932088622,0.0,0.0,0.0,122,1.1693482786090132e-31,0,1735643777088310956,map,0.9936311560599106,0.2079279575845561,0.1476243318497745,-0.4935451380378357,0.5096843643645089,-0.4810319228988559,0.5150178002688737,0.0,0.0,0.0,124,1.470898951043183e-34,0,1735643777088322877,map,0.9735688401323696,-0.0289157520921541,0.2454582057507123,-0.4871294389051965,0.5123231263366202,-0.5088980528657507,0.4911748118155363,0.0,0.0,0.0,125,1.8134485579857082e-10,0,1735643777088343858,map,0.97735276176443,-0.0215515663863463,0.148326035805294,0.4906480314574817,-0.496358748821561,0.5130125824165115,-0.4997105081720166,0.0,0.0,0.0,126,1.450665455815514e-11,0,1735644242188269615,map,0.9742507341088512,0.3296696001343746,0.0270678328059609,-0.5066892399979205,0.4908254397150334,-0.4826058342914511,0.5190838183826639,0.0,0.0,0.0,0,0.0,0.9421965631493412,-0.3243237083303285,0.1401544384476652,1.0,5.977156018238822e-06,-5.841479076027218e-05,-7.725590765858179e-05,0.0,0.0,0.0,-5.841479076027218e-05,0.0019958671916497,0.0004533154077394,0.0,0.0,0.0,-7.725590765858179e-05,0.0004533154077394,0.0010624273640234,0.0,0.0,0.0,0.0,0.0,0.0,0.0,0.0,0.0,0.0,0.0,0.0,0.0,0.0,0.0,0.0,0.0,0.0,0.0,0.0,0.0,0,0,0,1,15,,16
1.500291388,0,1735643777088230371,map,0.9587365413082952,-0.2239506699744455,0.0265749373532063,-0.493874918336879,0.4961353543542512,-0.4916533401471665,0.5178940705585053,0.0,0.0,0.0,1,1.207690638693748e-05,0,1735643777088253974,map,0.9626866406691256,-0.2530831075348608,0.1516750552994878,-0.5055787939606983,0.50878446152456,-0.492180256990764,0.4932413703623357,0.0,0.0,0.0,16,0.41518035531044,0,1735643777088270664,map,0.9685468486377552,0.0544060730538329,0.0278644645073672,-0.50030315053942,0.4938482157020649,-0.4905803277577664,0.5149190610428986,0.0,0.0,0.0,17,3.9202165258355026e-21,0,1735643777088284730,map,0.9799804329858808,-0.256839881355411,0.2400640730347066,0.380086584796206,-0.5535635667567791,0.6003014949018689,-0.4344418037390636,0.0,0.0,0.0,121,0.008509480394423,0,1735643777088297367,map,1.0014130281377986,0.2091297784682123,0.245896101184159,-0.5014476829165894,0.4852841383985407,-0.4978228834657978,0.5149969932088622,0.0,0.0,0.0,122,9.663612032798689e-26,0,1735643777088310956,map,0.9936311560599106,0.2079279575845561,0.1476243318497745,-0.4935451380378357,0.5096843643645089,-0.4810319228988559,0.5150178002688737,0.0,0.0,0.0,124,1.0735545659022552e-27,0,1735643777088322877,map,0.9734922605911492,-0.0269780205672977,0.2461518463594463,-0.4944515719259268,0.5132031986230687,-0.502002085554238,0.490034719221227,0.0,0.0,0.0,125,6.096148030820814e-09,0,1735643777088343858,map,0.9717995040286324,-0.0213843420497745,0.1493143378150729,0.5002067064955847,-0.5049115001225096,0.5059558652498843,-0.4887394911812615,0.0,0.0,0.0,126,3.3705378488235734e-09,0,1735644242188269615,map,0.9742507341088512,0.3296696001343746,0.0270678328059609,-0.5066892399979205,0.4908254397150334,-0.4826058342914511,0.5190838183826639,0.0,0.0,0.0,0,0.0,0.9421000265110864,-0.3183512167433761,0.1403374079158125,1.0,5.743373604981297e-06,-6.341233023487625e-05,-7.269236229029297e-05,0.0,0.0,0.0,-6.341233023487625e-05,0.0024061853285148,0.0004413749488934,0.0,0.0,0.0,-7.269236229029297e-05,0.0004413749488934,0.0009965278211661,0.0,0.0,0.0,0.0,0.0,0.0,0.0,0.0,0.0,0.0,0.0,0.0,0.0,0.0,0.0,0.0,0.0,0.0,0.0,0.0,0.0,0,0,0,1,16,,16
1.601605482,0,1735643777088230371,map,0.960711218431002,-0.2245416617752154,0.026336831152482,-0.4855058770791579,0.5005604061634407,-0.5096995639607361,0.5039143554229473,0.0,0.0,0.0,1,9.719205991132183e-06,0,1735643777088253974,map,0.9655492013718564,-0.2538025299313931,0.1520889918580487,-0.5091144625860239,0.5292684596636962,-0.484352436006486,0.4754787895643145,0.0,0.0,0.0,16,0.5527515411376953,0,1735643777088270664,map,0.9618788843416116,0.050617412413692,0.0313963045334149,-0.4890553974579699,0.4970689139740218,-0.4990437710397353,0.5144925923318566,0.0,0.0,0.0,17,7.367184347042153e-19,0,1735643777088284730,map,0.9789785036089677,-0.257496445452932,0.2409055104434124,-0.491009848129721,0.5023102148947156,-0.4946298257005195,0.5117959677249581,0.0,0.0,0.0,121,0.0081103453412652,0,1735643777088297367,map,1.0014130281377986,0.2091297784682123,0.245896101184159,-0.5014476829165894,0.4852841383985407,-0.4978228834657978,0.5149969932088622,0.0,0.0,0.0,122,2.7537904840430826e-21,0,1735643777088310956,map,0.9936311560599106,0.2079279575845561,0.1476243318497745,-0.4935451380378357,0.5096843643645089,-0.4810319228988559,0.5150178002688737,0.0,0.0,0.0,124,1.5808352866627502e-23,0,1735643777088322877,map,0.966591173645258,-0.0292017670202023,0.2465939797653396,-0.4942679559100568,0.5271262674269785,-0.5007905246621425,0.4764933749356979,0.0,0.0,0.0,125,2.1195337751578339e-07,0,1735643777088343858,map,0.9699685899213908,-0.0219732317144241,0.1498115858855861,0.4918714674569027,-0.4965424880010358,0.5115090249360577,-0.4998665167027071,0.0,0.0,0.0,126,1.0590097332396908e-07,0,1735644242188269615,map,0.9742507341088512,0.3296696001343746,0.0270678328059609,-0.5066892399979205,0.4908254397150334,-0.4826058342914511,0.5190838183826639,0.0,0.0,0.0,0,0.0,0.9419288666794292,-0.3122527921121425,0.141612644584158,1.0,5.874259106373474e-06,-7.638307849434815e-05,-7.190864967473605e-05,0.0,0.0,0.0,-7.638307849434815e-05,0.0028596975427982,0.0005398426719478,0.0,0.0,0.0,-7.190864967473605e-05,0.0005398426719478,0.0009639281945328,0.0,0.0,0.0,0.0,0.0,0.0,0.0,0.0,0.0,0.0,0.0,0.0,0.0,0.0,0.0,0.0,0.0,0.0,0.0,0.0,0.0,0,0,0,1,17,,16
1.701586567,0,1735643777088230371,map,0.9568798014698684,-0.2243734538826648,0.0276885451607135,-0.4842531618697064,0.4941129564964667,-0.5079373059857915,0.5131773130501861,0.0,0.0,0.0,1,6.880442924739327e-06,0,1735643777088253974,map,0.961960218031472,-0.2538339706496824,0.1523313544671953,-0.4960216354336967,0.4960100893950354,-0.4990929658154755,0.5087658988901693,0.0,0.0,0.0,16,0.6112682819366455,0,1735643777088270664,map,0.9626864640827796,0.0519997876491547,0.0305340142662712,-0.4837177768500816,0.4968145131321491,-0.5029838346912733,0.5159454563611757,0.0,0.0,0.0,17,3.083641177163662e-19,0,1735643777088284730,map,0.9779735269834636,-0.2577612195374588,0.2410512325741271,-0.4922757533843783,0.5138059914369115,-0.4908007969375022,0.502774863650608,0.0,0.0,0.0,121,0.0075604203157126,0,1735643777088297367,map,1.0014130281377986,0.2091297784682123,0.245896101184159,-0.5014476829165894,0.4852841383985407,-0.4978228834657978,0.5149969932088622,0.0,0.0,0.0,122,4.2701622310007375e-20,0,1735643777088310956,map,0.9936311560599106,0.2079279575845561,0.1476243318497745,-0.4935451380378357,0.5096843643645089,-0.4810319228988559,0.5150178002688737,0.0,0.0,0.0,124,9.345366300356829e-23,0,1735643777088322877,map,0.974451872652362,-0.0258702395950661,0.247006977222301,-0.51146449212163,0.4951585876807088,-0.48437817032782,0.5085271226342625,0.0,0.0,0.0,125,4.892195875072503e-07,0,1735643777088343858,map,0.9747033714720216,-0.0195020447250248,0.1491026721707007,-0.5142236401871422,0.4966651731470487,-0.4885055655452642,0.5002599984875842,0.0,0.0,0.0,126,1.617782316998273e-07,0,1735644242188269615,map,0.9742507341088512,0.3296696001343746,0.0270678328059609,-0.5066892399979205,0.4908254397150334,-0.4826058342914511,0.5190838183826639,0.0,0.0,0.0,0,0.0,0.9417906426186432,-0.3081397698618725,0.142814393001883,1.0,5.872711524903546e-06,-8.180439097163955e-05,-7.073760398060054e-05,0.0,0.0,0.0,-8.180439097163955e-05,0.0029884136416178,0.0005938793180777,0.0,0.0,0.0,-7.073760398060054e-05,0.0005938793180777,0.0009349280155814,0.0,0.0,0.0,0.0,0.0,0.0,0.0,0.0,0.0,0.0,0.0,0.0,0.0,0.0,0.0,0.0,0.0,0.0,0.0,0.0,0.0,0,0,0,1,18,,16
1.800696218,0,1735643777088230371,map,0.958085439069463,-0.2254513991827916,0.0256365780173891,-0.4808769756210745,0.4979263416243775,-0.5084554178410792,0.5121521069976627,0.0,0.0,0.0,1,1.0271937753714155e-05,0,1735643777088253974,map,0.9612719791743384,-0.2545771282296241,0.151170588010414,-0.5041727764802433,0.5061715435452095,-0.4935169400482441,0.4960254125008922,0.0,0.0,0.0,16,0.6731300950050354,0,1735643777088270664,map,0.9640598128991372,0.0524136450865505,0.0281656154888791,-0.4907024171941517,0.4964544380842012,-0.4951189974803475,0.517301949542404,0.0,0.0,0.0,17,7.807364891097067e-18,0,1735643777088284730,map,0.9753884338311412,-0.2583584173987117,0.2398277110454679,-0.4981814293111865,0.520753552596908,-0.4824845042884542,0.497835016916937,0.0,0.0,0.0,121,0.0063418610952794,0,1735643777088297367,map,1.0014130281377986,0.2091297784682123,0.245896101184159,-0.5014476829165894,0.4852841383985407,-0.4978228834657978,0.5149969932088622,0.0,0.0,0.0,122,3.2374610989346093e-19,0,1735643777088310956,map,0.9936311560599106,0.2079279575845561,0.1476243318497745,-0.4935451380378357,0.5096843643645089,-0.4810319228988559,0.5150178002688737,0.0,0.0,0.0,124,5.7126785430434836e-21,0,1735643777088322877,map,0.9672933839267128,-0.0288608334545872,0.2457052870306819,-0.4789418664820188,0.5093008101366439,-0.5098195563367109,0.5013096780449361,0.0,0.0,0.0,125,7.349769930442562e-07,0,1735643777088343858,map,0.9723198091642508,-0.0207042794417181,0.1477717602001244,-0.5006692036828776,0.4899741289582371,-0.4994404751908323,0.5097204264852699,0.0,0.0,0.0,126,7.16586441740219e-07,0,1735644242188269615,map,0.9742507341088512,0.3296696001343746,0.0270678328059609,-0.5066892399979205,0.4908254397150334,-0.4826058342914511,0.5190838183826639,0.0,0.0,0.0,0,3.119290381587043e-42,0.94178352019535,-0.3043323822566773,0.1421150610902701,1.0,5.56453456508976e-06,-7.798701758097456e-05,-6.692491530999884e-05,0.0,0.0,0.0,-7.798701758097456e-05,0.0030920603198831,0.0005146952141236,0.0,0.0,0.0,-6.692491530999884e-05,0.0005146952141236,0.000894524450126,0.0,0.0,0.0,0.0,0.0,0.0,0.0,0.0,0.0,0.0,0.0,0.0,0.0,0.0,0.0,0.0,0.0,0.0,0.0,0.0,0.0,0,0,0,1,19,,16
1.901369501,0,1735643777088230371,map,0.9545023638420812,-0.2248996024496813,0.0254190727054373,-0.4805133224138906,0.4885772795863952,-0.5117183266691984,0.5182118707687016,0.0,0.0,0.0,1,6.638276681769639e-05,0,1735643777088253974,map,0.956370551242756,-0.2537196488378578,0.1510682133735071,-0.4890701424454212,0.4949958856434123,-0.5090552770537522,0.5066085213142759,0.0,0.0,0.0,16,0.711326539516449,0,1735643777088270664,map,0.9580272094587196,0.0515353892885867,0.0289642807520201,-0.4915412286910144,0.4974100645534257,-0.4983837763116529,0.512429565586551,0.0,0.0,0.0,17,1.399870769026564e-14,0,1735643777088284730,map,0.9723767766539956,-0.2577858718034083,0.2391050111827334,-0.4811335240769626,0.5031504380192918,-0.5017287301467952,0.513437873627922,0.0,0.0,0.0,121,0.0060844589024782,0,1735643777088297367,map,1.0014130281377986,0.2091297784682123,0.245896101184159,-0.5014476829165894,0.4852841383985407,-0.4978228834657978,0.5149969932088622,0.0,0.0,0.0,122,1.871042840925546e-18,0,1735643777088310956,map,0.9936311560599106,0.2079279575845561,0.1476243318497745,-0.4935451380378357,0.5096843643645089,-0.4810319228988559,0.5150178002688737,0.0,0.0,0.0,124,1.6145079733859804e-18,0,1735643777088322877,map,0.9675127989187238,-0.0266342516630622,0.2451368012090505,-0.4953299555391552,0.499975459262827,-0.4973465723266705,0.507266362254995,0.0,0.0,0.0,125,5.109713470119459e-07,0,1735643777088343858,map,0.963604459746647,-0.0219761841816062,0.1481271572020894,0.4954736796502211,-0.4968686041034141,0.5108532011088218,-0.4966451750969342,0.0,0.0,0.0,126,5.211580173636321e-06,0,1735644242188269615,map,0.9742507341088512,0.3296696001343746,0.0270678328059609,-0.5066892399979205,0.4908254397150334,-0.4826058342914511,0.5190838183826639,0.0,0.0,0.0,0,1.7400989812016177e-35,0.9418422878478572,-0.3002037313626,0.1403597261796664,1.0,5.35192693947858e-06,-6.947767540164586e-05,-6.55386508736466e-05,0.0,0.0,0.0,-6.947767540164586e-05,0.0032613267097871,0.0003512643175041,0.0,0.0,0.0,-6.55386508736466e-05,0.0003512643175041,0.000908341039939,0.0,0.0,0.0,0.0,0.0,0.0,0.0,0.0,0.0,0.0,0.0,0.0,0.0,0.0,0.0,0.0,0.0,0.0,0.0,0.0,0.0,0,0,0,1,20,,16
2.000693796,0,1735643777088230371,map,0.9545023638420812,-0.2248996024496813,0.0254190727054373,-0.4805133224138906,0.4885772795863952,-0.5117183266691984,0.5182118707687016,0.0,0.0,0.0,1,0.0001011466883937,0,1735643777088253974,map,0.95436019091038,-0.2539744177299028,0.1515710155750064,-0.5169399738232513,0.5050741343007661,-0.472982952394834,0.5039447480307884,0.0,0.0,0.0,16,0.7270815372467041,0,1735643777088270664,map,0.9580272094587196,0.0515353892885867,0.0289642807520201,-0.4915412286910144,0.4974100645534257,-0.4983837763116529,0.512429565586551,0.0,0.0,0.0,17,9.057691256102521e-14,0,1735643777088284730,map,0.9732244671753928,-0.2584761829251683,0.2394389399565427,-0.4897642382769221,0.5153781409296577,-0.492734060730597,0.5017265272564856,0.0,0.0,0.0,121,0.0046138833276927,0,1735643777088297367,map,1.0014130281377986,0.2091297784682123,0.245896101184159,-0.5014476829165894,0.4852841383985407,-0.4978228834657978,0.5149969932088622,0.0,0.0,0.0,122,1.4746436225245688e-18,0,1735643777088310956,map,0.9936311560599106,0.2079279575845561,0.1476243318497745,-0.4935451380378357,0.5096843643645089,-0.4810319228988559,0.5150178002688737,0.0,0.0,0.0,124,5.625898950663538e-18,0,1735643777088322877,map,0.9633830109242808,-0.0282019781231593,0.2453574057452901,-0.4982239468870729,0.5143037331611022,-0.4945447690124848,0.4926358089371995,0.0,0.0,0.0,125,3.534134407345846e-07,0,1735643777088343858,map,0.9624182367084532,-0.0224227456250293,0.1486353010303408,0.4971577826915381,-0.4988991228300717,0.506920276659895,-0.4969563737992238,0.0,0.0,0.0,126,8.66559366841102e-06,0,1735644242188269615,map,0.9742507341088512,0.3296696001343746,0.0270678328059609,-0.5066892399979205,0.4908254397150334,-0.4826058342914511,0.5190838183826639,0.0,0.0,0.0,0,8.22060576576962e-34,0.941870036723792,-0.2973212236557517,0.139333342200926,1.0,5.1124732780065175e-06,-6.456948769347908e-05,-6.298738277055211e-05,0.0,0.0,0.0,-6.456948769347908e-05,0.0032722024514933,0.0002753662506639,0.0,0.0,0.0,-6.298738277055211e-05,0.0002753662506639,0.0008861559861401,0.0,0.0,0.0,0.0,0.0,0.0,0.0,0.0,0.0,0.0,0.0,0.0,0.0,0.0,0.0,0.0,0.0,0.0,0.0,0.0,0.0,0,0,0,1,21,,16
2.100653933,0,1735643777088230371,map,0.9545023638420812,-0.2248996024496813,0.0254190727054373,-0.4805133224138906,0.4885772795863952,-0.5117183266691984,0.5182118707687016,0.0,0.0,0.0,1,6.642277003265917e-05,0,1735643777088253974,map,0.9531083766265565,-0.2549960281417787,0.152976033749824,-0.4936992202182463,0.496452778660824,-0.5014966803291755,0.5082290803709091,0.0,0.0,0.0,16,0.7345191836357117,0,1735643777088270664,map,0.9580272094587196,0.0515353892885867,0.0289642807520201,-0.4915412286910144,0.4974100645534257,-0.4983837763116529,0.512429565586551,0.0,0.0,0.0,17,3.2013769483670365e-14,0,1735643777088284730,map,0.9675497580346016,-0.2589132407696635,0.2410843029932992,-0.5031400030102547,0.513298676358111,-0.4769224029891108,0.5058849945856715,0.0,0.0,0.0,121,0.0029721625614911,0,1735643777088297367,map,1.0014130281377986,0.2091297784682123,0.245896101184159,-0.5014476829165894,0.4852841383985407,-0.4978228834657978,0.5149969932088622,0.0,0.0,0.0,122,5.676343939934625e-19,0,1735643777088310956,map,0.9936311560599106,0.2079279575845561,0.1476243318497745,-0.4935451380378357,0.5096843643645089,-0.4810319228988559,0.5150178002688737,0.0,0.0,0.0,124,2.065502869974259e-18,0,1735643777088322877,map,0.9620343530920984,-0.028848225100822,0.2471064875020528,-0.5028280227824133,0.5138390665327952,-0.4924855117993091,0.490501186417737,0.0,0.0,0.0,125,2.23437723434472e-07,0,1735643777088343858,map,0.9651675130896183,-0.0212239142996261,0.1491746224538231,0.5051583981666812,-0.49899769653228,0.4985337739466378,-0.4972729309460491,0.0,0.0,0.0,126,6.277522516029421e-06,0,1735644242188269615,map,0.9742507341088512,0.3296696001343746,0.0270678328059609,-0.5066892399979205,0.4908254397150334,-0.4826058342914511,0.5190838183826639,0.0,0.0,0.0,0,6.883566922692544e-35,0.94182904845818,-0.2957326299486879,0.139611588136624,1.0,4.915368925281443e-06,-6.300189869724248e-05,-6.036382110201907e-05,0.0,0.0,0.0,-6.300189869724248e-05,0.003176462205714,0.0002721320174983,0.0,0.0,0.0,-6.036382110201907e-05,0.0002721320174983,0.0008475020054037,0.0,0.0,0.0,0.0,0.0,0.0,0.0,0.0,0.0,0.0,0.0,0.0,0.0,0.0,0.0,0.0,0.0,0.0,0.0,0.0,0.0,0,0,0,1,22,,16
2.199902274,0,1735643777088230371,map,0.9545023638420812,-0.2248996024496813,0.0254190727054373,-0.4805133224138906,0.4885772795863952,-0.5117183266691984,0.5182118707687016,0.0,0.0,0.0,1,4.608193557942286e-05,0,1735643777088253974,map,0.9549771940652598,-0.2560406183288209,0.1517389269383791,0.4900537009794246,-0.5027596358388051,0.5072513701357384,-0.4997761160990157,0.0,0.0,0.0,16,0.7549023032188416,0,1735643777088270664,map,0.9580272094587196,0.0515353892885867,0.0289642807520201,-0.4915412286910144,0.4974100645534257,-0.4983837763116529,0.512429565586551,0.0,0.0,0.0,17,1.1501366570557895e-14,0,1735643777088284730,map,0.9653638388295392,-0.2592750130864354,0.2405630205293066,-0.4897393152723805,0.5056776190278232,-0.4920973991409492,0.5121383586977309,0.0,0.0,0.0,121,0.0023765317164361,0,1735643777088297367,map,1.0014130281377986,0.2091297784682123,0.245896101184159,-0.5014476829165894,0.4852841383985407,-0.4978228834657978,0.5149969932088622,0.0,0.0,0.0,122,1.341849029262283e-19,0,1735643777088310956,map,0.9936311560599106,0.2079279575845561,0.1476243318497745,-0.4935451380378357,0.5096843643645089,-0.4810319228988559,0.5150178002688737,0.0,0.0,0.0,124,5.644397707689944e-19,0,1735643777088322877,map,0.957247400171506,-0.0300032003389121,0.2463903227655998,-0.4878583557573904,0.5077868401329926,-0.5039764229834163,0.5001544909148449,0.0,0.0,0.0,125,1.4593770458759536e-07,0,1735643777088343858,map,0.9591464959230662,-0.0229121388578936,0.1493551661137232,0.4988166889557027,-0.4968791840941338,0.5052129356196757,-0.4990519781703776,0.0,0.0,0.0,126,5.233279807725921e-06,0,1735644242188269615,map,0.9742507341088512,0.3296696001343746,0.0270678328059609,-0.5066892399979205,0.4908254397150334,-0.4826058342914511,0.5190838183826639,0.0,0.0,0.0,0,4.9363394370899024e-36,0.9418176869667904,-0.2946621956124203,0.1395553066610348,1.0,4.704497069583003e-06,-6.053024378128738e-05,-5.772523942805516e-05,0.0,0.0,0.0,-6.053024378128738e-05,0.0030635634059934,0.0002589747869232,0.0,0.0,0.0,-5.772523942805516e-05,0.0002589747869232,0.0008107237794241,0.0,0.0,0.0,0.0,0.0,0.0,0.0,0.0,0.0,0.0,0.0,0.0,0.0,0.0,0.0,0.0,0.0,0.0,0.0,0.0,0.0,0,0,0,1,23,,16
2.300520544,0,1735643777088230371,map,0.9545023638420812,-0.2248996024496813,0.0254190727054373,-0.4805133224138906,0.4885772795863952,-0.5117183266691984,0.5182118707687016,0.0,0.0,0.0,1,4.390205867821351e-05,0,1735643777088253974,map,0.9489508135433736,-0.254911957056846,0.1520322737956689,-0.5043034667874715,0.4995151759821059,-0.4875380348804946,0.508398728258213,0.0,0.0,0.0,16,0.7386444211006165,0,1735643777088270664,map,0.9580272094587196,0.0515353892885867,0.0289642807520201,-0.4915412286910144,0.4974100645534257,-0.4983837763116529,0.512429565586551,0.0,0.0,0.0,17,1.1084177433046736e-14,0,1735643777088284730,map,0.962333498800812,-0.2584236878989111,0.240217127295273,-0.4816716350413287,0.502560995697717,-0.500723713475759,0.5144906649910934,0.0,0.0,0.0,121,0.0018340519163757,0,1735643777088297367,map,1.0014130281377986,0.2091297784682123,0.245896101184159,-0.5014476829165894,0.4852841383985407,-0.4978228834657978,0.5149969932088622,0.0,0.0,0.0,122,3.9111280404137904e-20,0,1735643777088310956,map,0.9936311560599106,0.2079279575845561,0.1476243318497745,-0.4935451380378357,0.5096843643645089,-0.4810319228988559,0.5150178002688737,0.0,0.0,0.0,124,3.1415391671514283e-19,0,1735643777088322877,map,0.954106362385956,-0.0289479432195663,0.2462116423824619,-0.500386283925892,0.5069997974374736,-0.4968770264432538,0.495659149870258,0.0,0.0,0.0,125,7.389177625327649e-08,0,1735643777088343858,map,0.9546051750916408,-0.022293852473266,0.1494215000972719,-0.4981142526064213,0.4942452613685254,-0.5046131358529101,0.502960630755327,0.0,0.0,0.0,126,4.381143753562355e-06,0,1735644242188269615,map,0.9742507341088512,0.3296696001343746,0.0270678328059609,-0.5066892399979205,0.4908254397150334,-0.4826058342914511,0.5190838183826639,0.0,0.0,0.0,0,2.847866088537014e-36,0.9418347994401024,-0.2931545702305895,0.1389795095714538,1.0,4.515211603435909e-06,-5.741476871085053e-05,-5.554664730210845e-05,0.0,0.0,0.0,-5.741476871085053e-05,0.0029881924194583,0.0002282181857396,0.0,0.0,0.0,-5.554664730210845e-05,0.0002282181857396,0.0007845690945806,0.0,0.0,0.0,0.0,0.0,0.0,0.0,0.0,0.0,0.0,0.0,0.0,0.0,0.0,0.0,0.0,0.0,0.0,0.0,0.0,0.0,0,0,0,1,24,,16
2.401430194,0,1735643777088230371,map,0.9545023638420812,-0.2248996024496813,0.0254190727054373,-0.4805133224138906,0.4885772795863952,-0.5117183266691984,0.5182118707687016,0.0,0.0,0.0,1,2.9111630283296108e-05,0,1735643777088253974,map,0.9481293432039736,-0.2556338644054905,0.1523292743456836,-0.4976374572339566,0.4993150666971093,-0.4928398550411125,0.5100493139001739,0.0,0.0,0.0,16,0.7250697016716003,0,1735643777088270664,map,0.9580272094587196,0.0515353892885867,0.0289642807520201,-0.4915412286910144,0.4974100645534257,-0.4983837763116529,0.512429565586551,0.0,0.0,0.0,17,2.855878307819228e-15,0,1735643777088284730,map,0.959958039213338,-0.2589880139713826,0.2403003209064116,-0.4836511816073099,0.4933008337992551,-0.4998481826994151,0.5223864624537127,0.0,0.0,0.0,121,0.0013426181394606,0,1735643777088297367,map,1.0014130281377986,0.2091297784682123,0.245896101184159,-0.5014476829165894,0.4852841383985407,-0.4978228834657978,0.5149969932088622,0.0,0.0,0.0,122,6.660294310182889e-21,0,1735643777088310956,map,0.9936311560599106,0.2079279575845561,0.1476243318497745,-0.4935451380378357,0.5096843643645089,-0.4810319228988559,0.5150178002688737,0.0,0.0,0.0,124,5.599256652205336e-20,0,1735643777088322877,map,0.954140587712176,-0.0285530348853548,0.2464242821297017,-0.5089241764922453,0.5096127226505548,-0.4884270566486235,0.4926764311674962,0.0,0.0,0.0,125,3.5216618954336816e-08,0,1735643777088343858,map,0.9542215278126738,-0.0222407042762622,0.1490915770701855,-0.4990306761924935,0.4947764892447758,-0.5043693003431836,0.5017730749858983,0.0,0.0,0.0,126,2.557164634708897e-06,0,1735644242188269615,map,0.9742507341088512,0.3296696001343746,0.0270678328059609,-0.5066892399979205,0.4908254397150334,-0.4826058342914511,0.5190838183826639,0.0,0.0,0.0,0,9.98772117331199e-38,0.94185852309659,-0.2938754409430597,0.1387764154756515,1.0,4.348110624350127e-06,-5.552861850213109e-05,-5.3440416639548576e-05,0.0,0.0,0.0,-5.552861850213109e-05,0.0028811364326983,0.000222603168363,0.0,0.0,0.0,-5.3440416639548576e-05,0.000222603168363,0.0007541762638794,0.0,0.0,0.0,0.0,0.0,0.0,0.0,0.0,0.0,0.0,0.0,0.0,0.0,0.0,0.0,0.0,0.0,0.0,0.0,0.0,0.0,0,0,0,1,25,,16
2.501039206,0,1735643777088230371,map,0.9545023638420812,-0.2248996024496813,0.0254190727054373,-0.4805133224138906,0.4885772795863952,-0.5117183266691984,0.5182118707687016,0.0,0.0,0.0,1,1.9853448975482024e-05,0,1735643777088253974,map,0.9487127260357996,-0.2565306136755051,0.1526014589292764,-0.4982894895402218,0.5019345301280381,-0.4950608660373563,0.5046623138270123,0.0,0.0,0.0,16,0.7201709151268005,0,1735643777088270664,map,0.9580272094587196,0.0515353892885867,0.0289642807520201,-0.4915412286910144,0.4974100645534257,-0.4983837763116529,0.512429565586551,0.0,0.0,0.0,17,9.694170320339302e-16,0,1735643777088284730,map,0.96016381623465,-0.259734559139484,0.2410571390799843,-0.4849426498754631,0.4998663552971855,-0.4985109003845502,0.5161890500305655,0.0,0.0,0.0,121,0.0010462532518431,0,1735643777088297367,map,1.0014130281377986,0.2091297784682123,0.245896101184159,-0.5014476829165894,0.4852841383985407,-0.4978228834657978,0.5149969932088622,0.0,0.0,0.0,122,1.0377053485898757e-21,0,1735643777088310956,map,0.9936311560599106,0.2079279575845561,0.1476243318497745,-0.4935451380378357,0.5096843643645089,-0.4810319228988559,0.5150178002688737,0.0,0.0,0.0,124,1.0882157109787484e-20,0,1735643777088322877,map,0.953540268444097,-0.0290288507538115,0.2470043167488776,-0.4944469268644812,0.5012920780415436,-0.4966651242210682,0.507496052585173,0.0,0.0,0.0,125,1.7082413705793442e-08,0,1735643777088343858,map,0.9525579643017889,-0.023385385110348,0.1499573544275758,0.4990381748344852,-0.4986718652886302,0.5042829419464475,-0.4979819126125565,0.0,0.0,0.0,126,1.7275636992053478e-06,0,1735644242188269615,map,0.9742507341088512,0.3296696001343746,0.0270678328059609,-0.5066892399979205,0.4908254397150334,-0.4826058342914511,0.5190838183826639,0.0,0.0,0.0,0,6.5675173607943e-39,0.9418365661259628,-0.2945766770423029,0.139254118199013,1.0,4.192928314314803e-06,-5.300797689504906e-05,-5.164723861620103e-05,0.0,0.0,0.0,-5.300797689504906e-05,0.0027826167946511,0.0002056669481831,0.0,0.0,0.0,-5.164723861620103e-05,0.0002056669481831,0.0007308744817971,0.0,0.0,0.0,0.0,0.0,0.0,0.0,0.0,0.0,0.0,0.0,0.0,0.0,0.0,0.0,0.0,0.0,0.0,0.0,0.0,0.0,0,0,0,1,26,,16
