%time,field.boxes0.header.seq,field.boxes0.header.stamp,field.boxes0.header.frame_id,field.boxes0.pose.position.x,field.boxes0.pose.position.y,field.boxes0.pose.position.z,field.boxes0.pose.orientation.x,field.boxes0.pose.orientation.y,field.boxes0.pose.orientation.z,field.boxes0.pose.orientation.w,field.boxes0.scale.x,field.boxes0.scale.y,field.boxes0.scale.z,field.boxes0.id,field.boxes0.pdf,field.boxes1.header.seq,field.boxes1.header.stamp,field.boxes1.header.frame_id,field.boxes1.pose.position.x,field.boxes1.pose.position.y,field.boxes1.pose.position.z,field.boxes1.pose.orientation.x,field.boxes1.pose.orientation.y,field.boxes1.pose.orientation.z,field.boxes1.pose.orientation.w,field.boxes1.scale.x,field.boxes1.scale.y,field.boxes1.scale.z,field.boxes1.id,field.boxes1.pdf,field.boxes2.header.seq,field.boxes2.header.stamp,field.boxes2.header.frame_id,field.boxes2.pose.position.x,field.boxes2.pose.position.y,field.boxes2.pose.position.z,field.boxes2.pose.orientation.x,field.boxes2.pose.orientation.y,field.boxes2.pose.orientation.z,field.boxes2.pose.orientation.w,field.boxes2.scale.x,field.boxes2.scale.y,field.boxes2.scale.z,field.boxes2.id,field.boxes2.pdf,field.boxes3.header.seq,field.boxes3.header.stamp,field.boxes3.header.frame_id,field.boxes3.pose.position.x,field.boxes3.pose.position.y,field.boxes3.pose.position.z,field.boxes3.pose.orientation.x,field.boxes3.pose.orientation.y,field.boxes3.pose.orientation.z,field.boxes3.pose.orientation.w,field.boxes3.scale.x,field.boxes3.scale.y,field.boxes3.scale.z,field.boxes3.id,field.boxes3.pdf,field.boxes4.header.seq,field.boxes4.header.stamp,field.boxes4.header.frame_id,field.boxes4.pose.position.x,field.boxes4.pose.position.y,field.boxes4.pose.position.z,field.boxes4.pose.orientation.x,field.boxes4.pose.orientation.y,field.boxes4.pose.orientation.z,field.boxes4.pose.orientation.w,field.boxes4.scale.x,field.boxes4.scale.y,field.boxes4.scale.z,field.boxes4.id,field.boxes4.pdf,field.boxes5.header.seq,field.boxes5.header.stamp,field.boxes5.header.frame_id,field.boxes5.pose.position.x,field.boxes5.pose.position.y,field.boxes5.pose.position.z,field.boxes5.pose.orientation.x,field.boxes5.pose.orientation.y,field.boxes5.pose.orientation.z,field.boxes5.pose.orientation.w,field.boxes5.scale.x,field.boxes5.scale.y,field.boxes5.scale.z,field.boxes5.id,field.boxes5.pdf,field.boxes6.header.seq,field.boxes6.header.stamp,field.boxes6.header.frame_id,field.boxes6.pose.position.x,field.boxes6.pose.position.y,field.boxes6.pose.position.z,field.boxes6.pose.orientation.x,field.boxes6.pose.orientation.y,field.boxes6.pose.orientation.z,field.boxes6.pose.orientation.w,field.boxes6.scale.x,field.boxes6.scale.y,field.boxes6.scale.z,field.boxes6.id,field.boxes6.pdf,field.boxes7.header.seq,field.boxes7.header.stamp,field.boxes7.header.frame_id,field.boxes7.pose.position.x,field.boxes7.pose.position.y,field.boxes7.pose.position.z,field.boxes7.pose.orientation.x,field.boxes7.pose.orientation.y,field.boxes7.pose.orientation.z,field.boxes7.pose.orientation.w,field.boxes7.scale.x,field.boxes7.scale.y,field.boxes7.scale.z,field.boxes7.id,field.boxes7.pdf,field.boxes8.header.seq,field.boxes8.header.stamp,field.boxes8.header.frame_id,field.boxes8.pose.position.x,field.boxes8.pose.position.y,field.boxes8.pose.position.z,field.boxes8.pose.orientation.x,field.boxes8.pose.orientation.y,field.boxes8.pose.orientation.z,field.boxes8.pose.orientation.w,field.boxes8.scale.x,field.boxes8.scale.y,field.boxes8.scale.z,field.boxes8.id,field.boxes8.pdf,field.pose.pose.position.x,field.pose.pose.position.y,field.pose.pose.position.z,field.pose.pose.orientation.w,field.pose.covariance0,field.pose.covariance1,field.pose.covariance2,field.pose.covariance3,field.pose.covariance4,field.pose.covariance5,field.pose.covariance6,field.pose.covariance7,field.pose.covariance8,field.pose.covariance9,field.pose.covariance10,field.pose.covariance11,field.pose.covariance12,field.pose.covariance13,field.pose.covariance14,field.pose.covariance15,field.pose.covariance16,field.pose.covariance17,field.pose.covariance18,field.pose.covariance19,field.pose.covariance20,field.pose.covariance21,field.pose.covariance22,field.pose.covariance23,field.pose.covariance24,field.pose.covariance25,field.pose.covariance26,field.pose.covariance27,field.pose.covariance28,field.pose.covariance29,field.pose.covariance30,field.pose.covariance31,field.pose.covariance32,field.pose.covariance33,field.pose.covariance34,field.pose.covariance35,field.buttons0,field.buttons1,field.buttons2,field.buttons3,intersection_length,vacuum,desired_box
0.0,0,1735643777088230371,map,0.981884045535305,-0.2218164404143875,0.0218502896865392,0.4815372571148539,-0.5064486495945063,0.519695508502634,-0.4914755474857247,0.0,0.0,0.0,1,0.1111111119389534,0,1735643777088253974,map,0.9752598043850444,-0.2488484924658262,0.1497875066809937,-0.500987052570358,0.4765576236661791,-0.4913048755313169,0.5296454698774142,0.0,0.0,0.0,16,0.1111111119389534,0,1735643777088270664,map,0.987490921430557,0.0553259339451186,0.0258288423175294,-0.5058119339219515,0.485187501193468,-0.4791483970856545,0.5283599055170838,0.0,0.0,0.0,17,0.1111111119389534,0,1735643777088284730,map,1.0101844900889834,-0.2578207146640043,0.2374799384914066,-0.4935604272623289,0.505267556586111,-0.4905363677006639,0.5103693494570058,0.0,0.0,0.0,121,0.1111111119389534,0,1735643777088297367,map,1.0233043475503218,0.2146079858446095,0.2422710757264503,-0.5069896729853599,0.4699662529313396,-0.490195755905838,0.5308496147533482,0.0,0.0,0.0,122,0.1111111119389534,0,1735643777088310956,map,1.0075014012624937,0.2070102379851184,0.1441224855439053,-0.4825855230953958,0.5053356453854915,-0.4820039743980614,0.5286012363455508,0.0,0.0,0.0,124,0.1111111119389534,0,1735643777088322877,map,1.006230384259899,-0.0262493106209245,0.2424508982276348,-0.5034351913924534,0.5035700632558369,-0.4954127296291789,0.4975303274992612,0.0,0.0,0.0,125,0.1111111119389534,0,1735643777088343858,map,1.0037593583001496,-0.021530284288695,0.1455228280807026,0.5059533918438117,-0.5050708192524972,0.4954482643529674,-0.4934021181257594,0.0,0.0,0.0,126,0.1111111119389534,0,1735644242188269615,map,0.9707000157848654,0.328891217812794,0.0270950718886197,-0.4948130603332895,0.4890170164013478,-0.4808938409918762,0.5336323703539811,0.0,0.0,0.0,0,0.1111111119389534,0.925310597401488,-0.3963278907830483,0.4085947763428992,1.0,0.0,0.0,0.0,0.0,0.0,0.0,0.0,0.0,0.0,0.0,0.0,0.0,0.0,0.0,0.0,0.0,0.0,0.0,0.0,0.0,0.0,0.0,0.0,0.0,0.0,0.0,0.0,0.0,0.0,0.0,0.0,0.0,0.0,0.0,0.0,0.0,0,0,0,1,1,,121
0.099032647,0,1735643777088230371,map,0.9785912708445736,-0.2219280633531691,0.0229683787065201,-0.4892697169287477,0.491108111438277,-0.4922120887894611,0.5264553415300366,0.0,0.0,0.0,1,0.0,0,1735643777088253974,map,0.9828464956698744,-0.251341791926751,0.1493622301919594,-0.5057883620563164,0.4938543752826049,-0.4845838361956701,0.5152324664852793,0.0,0.0,0.0,16,0.0,0,1735643777088270664,map,0.9991511413628624,0.0572371009857516,0.0219618030548309,-0.5126251266702219,0.4999219273891006,-0.4797337760202936,0.5070986592047121,0.0,0.0,0.0,17,0.0,0,1735643777088284730,map,1.0143495143918575,-0.2593795676617813,0.2375941204798802,-0.4789101044689857,0.5065190372536493,-0.5027160405748472,0.5112339574851128,0.0,0.0,0.0,121,0.0,0,1735643777088297367,map,1.0248805084654435,0.2144605159324096,0.242428971025627,-0.5066712274853874,0.4927224001014296,-0.4934217077233063,0.5069949921095412,0.0,0.0,0.0,122,0.0,0,1735643777088310956,map,1.0092457047857524,0.2069189779421736,0.1440335873714956,-0.4917415403146385,0.5076118276313314,-0.4743561705095096,0.5248873340797237,0.0,0.0,0.0,124,0.0,0,1735643777088322877,map,1.008637039507276,-0.0269263238252376,0.2426760633501416,0.5127278812909036,-0.5044234248624155,0.4863630343103021,-0.4961029399766624,0.0,0.0,0.0,125,0.0,0,1735643777088343858,map,1.0066428911109186,-0.0220994311739805,0.1452348136950146,-0.5043231279386936,0.4617145140371801,-0.4989391450410161,0.5324825064725438,0.0,0.0,0.0,126,0.0,0,1735644242188269615,map,0.975793063598288,0.3313042215353192,0.0259428059520053,-0.4994883032370673,0.4975185568482188,-0.4781173775460309,0.5238229603687942,0.0,0.0,0.0,0,0.0,0.9238073794257512,-0.4062763947601444,0.4332410127646077,1.0,2.259664282577486e-06,1.4954770010057436e-05,-3.70486656233649e-05,0.0,0.0,0.0,1.4954770010057436e-05,9.89727313822974e-05,-0.0002451931810618,0.0,0.0,0.0,-3.70486656233649e-05,-0.0002451931810618,0.0006074369697547,0.0,0.0,0.0,0.0,0.0,0.0,0.0,0.0,0.0,0.0,0.0,0.0,0.0,0.0,0.0,0.0,0.0,0.0,0.0,0.0,0.0,0,0,0,1,2,,121
0.199382058,0,1735643777088230371,map,0.9856901736298768,-0.2237792160392249,0.0224759036263881,0.4780189650758314,-0.5149634064116684,0.5169955551794633,-0.4889030118637033,0.0,0.0,0.0,1,0.0,0,1735643777088253974,map,0.9877963508099372,-0.2530324951876024,0.1502030650542216,-0.5032371203404488,0.5087479739139189,-0.4946933863868327,0.4931595616178026,0.0,0.0,0.0,16,2.795199062859442e-34,0,1735643777088270664,map,0.9755541692699512,0.0508893617417784,0.0313136431822581,-0.4621087973677587,0.499206997139471,-0.5216089664869158,0.5149484629385426,0.0,0.0,0.0,17,6.5269817144490366e-21,0,1735643777088284730,map,1.0103334852461034,-0.2589811589658841,0.2386610300823925,-0.4690304760858209,0.4736958731690435,-0.525891913400609,0.5282616091153816,0.0,0.0,0.0,121,2.7668737093144987e-11,0,1735643777088297367,map,1.0105934213636305,0.2073617629878628,0.2437272921990498,-0.489728752552045,0.4884893420246119,-0.5090782256373556,0.5122336106056508,0.0,0.0,0.0,122,0.0,0,1735643777088310956,map,1.0055092736237472,0.2045791008987272,0.1460252309625969,-0.4786697771825088,0.5016621665980641,-0.4894993819265023,0.5287727963026803,0.0,0.0,0.0,124,0.0,0,1735643777088322877,map,0.9977246476417272,-0.0282997224837674,0.244110200061069,-0.4752950654671627,0.5207768593688671,-0.5196884676224958,0.4825038446568557,0.0,0.0,0.0,125,4.9083398839394493e-23,0,1735643777088343858,map,1.000543441488067,-0.023165912276988,0.1473206102198329,0.6537389271123988,-0.5096137860871884,0.3565967480580382,-0.4309964773431951,0.0,0.0,0.0,126,4.230732788840924e-13,0,1735644242188269615,map,0.9758700343843402,0.3304326716748443,0.0276989859787093,-0.4942973786475301,0.4918049857492832,-0.4816518626743487,0.5308572695524268,0.0,0.0,0.0,0,0.0,0.922460317350446,-0.4453485454826095,0.4617120589853905,1.0,5.1355953245043454e-06,0.000115235071551,-0.0001014036436321,0.0,0.0,0.0,0.000115235071551,0.0031192477450795,-0.0023883121390372,0.0,0.0,0.0,-0.0001014036436321,-0.0023883121390372,0.0020261589256484,0.0,0.0,0.0,0.0,0.0,0.0,0.0,0.0,0.0,0.0,0.0,0.0,0.0,0.0,0.0,0.0,0.0,0.0,0.0,0.0,0.0,0,0,0,1,3,,121
0.300304725,0,1735643777088230371,map,0.9857630551168391,-0.2241035959630756,0.0211498571639953,-0.5030091535629756,0.5099511576363726,-0.4935543159145416,0.4932907312116368,0.0,0.0,0.0,1,0.0,0,1735643777088253974,map,0.9902352327576708,-0.2537924379344897,0.1483637726079728,-0.5041432948667023,0.5094154002446911,-0.4938401661786549,0.4923996126147189,0.0,0.0,0.0,16,1.401298464324817e-45,0,1735643777088270664,map,0.9837708939114512,0.0532026992290026,0.0276947128164533,0.7677422530821212,-0.4666214897329161,0.2180474350273257,-0.3811712662699363,0.0,0.0,0.0,17,1.2672238704504082e-23,0,1735643777088284730,map,1.0171568569278462,-0.2605137374302271,0.2376856510795501,0.4907871354603679,-0.5049352351646111,0.5051700742718973,-0.4989705322120646,0.0,0.0,0.0,121,1.7140832947554697e-15,0,1735643777088297367,map,1.0128919182116858,0.209831696482639,0.2426301234424375,-0.489675715634605,0.4894560512624015,-0.5094459747763471,0.5109943895822461,0.0,0.0,0.0,122,0.0,0,1735643777088310956,map,1.008431108970001,0.2072449850120382,0.1441744409036538,-0.4896833138352098,0.5021015433851506,-0.4797917651247793,0.5271661544523378,0.0,0.0,0.0,124,0.0,0,1735643777088322877,map,0.9974870087497604,-0.0278813010926323,0.24306685198353,-0.4637273986992043,0.5375496908483068,-0.5323412552444745,0.4610965381883672,0.0,0.0,0.0,125,1.050920146949127e-18,0,1735643777088343858,map,1.0072790169822108,-0.0217141068378768,0.1451687880085821,-0.4835597406859293,0.4924769120728967,-0.5197125277839496,0.5035229455817469,0.0,0.0,0.0,126,9.69415953760988e-12,0,1735644242188269615,map,0.9713665855300376,0.3286701986774816,0.0275509403003446,-0.495712874278801,0.4930738820858246,-0.4869818171909486,0.523445892910113,0.0,0.0,0.0,0,0.0,0.9217623751808725,-0.4695386237421922,0.4772989927216098,1.0,5.313066309584692e-06,0.0001370761307712,-0.0001086890677706,0.0,0.0,0.0,0.0001370761307712,0.0040949154674238,-0.0029223815449961,0.0,0.0,0.0,-0.0001086890677706,-0.0029223815449961,0.0022484767041281,0.0,0.0,0.0,0.0,0.0,0.0,0.0,0.0,0.0,0.0,0.0,0.0,0.0,0.0,0.0,0.0,0.0,0.0,0.0,0.0,0.0,0,0,0,1,4,,121
0.399592566,0,1735643777088230371,map,0.9843196392328546,-0.2241987787659356,0.0224721773805958,-0.538548622191719,0.7412380815317359,-0.3133389874271708,0.2497001541462645,0.0,0.0,0.0,1,0.0,0,1735643777088253974,map,0.980976119949066,-0.25233947086381,0.150281464032255,-0.5155183235918872,0.4722860320900589,-0.4849154494804507,0.5253986760440216,0.0,0.0,0.0,16,0.0,0,1735643777088270664,map,0.9921595161990482,0.0548282830875498,0.0248147335352349,-0.4891791391995163,0.4937899016099862,-0.4986251628805739,0.5179268768680976,0.0,0.0,0.0,17,6.384974606999856e-30,0,1735643777088284730,map,1.0100239572803316,-0.2594649148360275,0.2379917879284734,-0.5082110795828025,0.5002162659823168,-0.4755859937401851,0.5150952808890327,0.0,0.0,0.0,121,2.272971348131134e-18,0,1735643777088297367,map,1.0131969522862694,0.2096140342177918,0.2426923793431148,0.513379096551689,-0.5054975323618878,0.4932383313520811,-0.4874731751438518,0.0,0.0,0.0,122,0.0,0,1735643777088310956,map,1.0062721363639182,0.2059934732664405,0.1447906911892232,-0.4752001401622451,0.5057893905853446,-0.4929471152122251,0.5247523804281727,0.0,0.0,0.0,124,0.0,0,1735643777088322877,map,1.0042817211117556,-0.027225920068517,0.2430586521884857,-0.4641771451481707,0.5328552151150956,-0.5314959476210065,0.4670299297787965,0.0,0.0,0.0,125,1.8144214491168905e-19,0,1735643777088343858,map,1.0004535491054,-0.0227887212505563,0.1463814235691777,0.4792078461624571,-0.5226849674687132,0.5293304338304825,-0.4657999106691651,0.0,0.0,0.0,126,1.5401026808026241e-13,0,1735644242188269615,map,0.9713665855300376,0.3286701986774816,0.0275509403003446,-0.495712874278801,0.4930738820858246,-0.4869818171909486,0.523445892910113,0.0,0.0,0.0,0,0.0,0.9214803184243152,-0.4814015407616833,0.4840399721646565,1.0,4.568677103346319e-06,0.0001230449682082,-9.455660940743982e-05,0.0,0.0,0.0,0.0001230449682082,0.0038388475747844,-0.0026577759550487,0.0,0.0,0.0,-9.455660940743982e-05,-0.0026577759550487,0.0019805445787088,0.0,0.0,0.0,0.0,0.0,0.0,0.0,0.0,0.0,0.0,0.0,0.0,0.0,0.0,0.0,0.0,0.0,0.0,0.0,0.0,0.0,0,0,0,1,5,,121
0.499413888,0,1735643777088230371,map,0.9839079289668892,-0.2250336980181596,0.0234936532441141,-0.4849846047550467,0.4979136120578166,-0.5156766696291997,0.5009486405593558,0.0,0.0,0.0,1,0.0,0,1735643777088253974,map,0.9890907068074036,-0.25509938229112,0.1503026727605443,-0.4980375758727233,0.497147673624238,-0.4905346287226211,0.5139830168914049,0.0,0.0,0.0,16,2.0334203758795315e-22,0,1735643777088270664,map,0.9992212354871592,0.0562956230833129,0.0234458728150325,-0.5093269681788698,0.5030155706198847,-0.4867357940236249,0.5006492205285694,0.0,0.0,0.0,17,9.886274186273144e-26,0,1735643777088284730,map,1.0114904683838095,-0.2604331925484502,0.2386975197436985,-0.4836016361349121,0.4816758777877553,-0.5074192734943338,0.5259690933614966,0.0,0.0,0.0,121,2.6840130118443994e-09,0,1735643777088297367,map,1.0068761695420538,0.2062124055786296,0.2437131877551387,-0.4939877927130478,0.4915807588815993,-0.5046069341304953,0.509604022919074,0.0,0.0,0.0,122,0.0,0,1735643777088310956,map,1.0080822665685674,0.206598984071911,0.1454353915406967,-0.4888630735897768,0.5112381011400345,-0.4820875492076615,0.5169527000819698,0.0,0.0,0.0,124,1.759750611499105e-41,0,1735643777088322877,map,1.0102888066193143,-0.0268949350661483,0.2443475538564687,-0.6001125443511318,0.4423287560694441,-0.3843600712615291,0.5444975126539161,0.0,0.0,0.0,125,3.4203746275500283e-17,0,1735643777088343858,map,1.0094526301192996,-0.0218082885771349,0.145584853943771,-0.4901922835801413,0.490634524392315,-0.5127718217775437,0.5060181295010608,0.0,0.0,0.0,126,1.636078971851637e-15,0,1735644242188269615,map,0.9713665855300376,0.3286701986774816,0.0275509403003446,-0.495712874278801,0.4930738820858246,-0.4869818171909486,0.523445892910113,0.0,0.0,0.0,0,0.0,0.9219019372279886,-0.483406461775081,0.4781425441852405,1.0,4.6960429975101e-06,9.83109115112713e-05,-9.122950715335617e-05,0.0,0.0,0.0,9.83109115112713e-05,0.0032191381870035,-0.0021556939094693,0.0,0.0,0.0,-9.122950715335617e-05,-0.0021556939094693,0.0018243520994527,0.0,0.0,0.0,0.0,0.0,0.0,0.0,0.0,0.0,0.0,0.0,0.0,0.0,0.0,0.0,0.0,0.0,0.0,0.0,0.0,0.0,0,0,0,1,6,,121
0.599852378,0,1735643777088230371,map,0.989627571492436,-0.2264000801743413,0.0220753297850898,-0.4827946639583844,0.5027537707636348,-0.5118363179943077,0.5021668467932612,0.0,0.0,0.0,1,8.359754711183536e-31,0,1735643777088253974,map,0.9898188799820408,-0.2554694498222616,0.1508514316283436,0.5287361913958353,-0.5210154546791304,0.4588197763543731,-0.4883291397406555,0.0,0.0,0.0,16,8.748364988160617e-14,0,1735643777088270664,map,0.9841939447782386,0.0517916182840139,0.0299757908524187,-0.4700140893527131,0.4991075601041934,-0.5124735982507085,0.5170582272363046,0.0,0.0,0.0,17,2.134193759315788e-24,0,1735643777088284730,map,1.0146830054347764,-0.2612122654357051,0.2392397672534565,-0.4704951309635794,0.4765763479555875,-0.523861249626798,0.5263826625643445,0.0,0.0,0.0,121,9.902460078592412e-07,0,1735643777088297367,map,1.0068761695420538,0.2062124055786296,0.2437131877551387,-0.4939877927130478,0.4915807588815993,-0.5046069341304953,0.509604022919074,0.0,0.0,0.0,122,0.0,0,1735643777088310956,map,1.00448559938917,0.2048098473645334,0.1467513125100191,-0.4725235512166503,0.5023407491267732,-0.4999873344662451,0.523820513807637,0.0,0.0,0.0,124,2.802596928649634e-45,0,1735643777088322877,map,1.0029068024491938,-0.0281969874700742,0.2449773857593481,-0.4758965569021127,0.535529513616965,-0.5217418108633447,0.4631588172224824,0.0,0.0,0.0,125,2.5956865583368067e-19,0,1735643777088343858,map,1.0168622833675385,-0.0209157012352934,0.1448114434381369,0.5068551798437341,-0.5046815183605347,0.4944285325217572,-0.4938975783695066,0.0,0.0,0.0,126,3.496409731200393e-17,0,1735644242188269615,map,0.9713665855300376,0.3286701986774816,0.0275509403003446,-0.495712874278801,0.4930738820858246,-0.4869818171909486,0.523445892910113,0.0,0.0,0.0,0,0.0,0.9224502051743768,-0.4812899118062253,0.4694734586529844,1.0,5.828766158371064e-06,9.122911461020338e-05,-0.0001067146107481,0.0,0.0,0.0,9.122911461020338e-05,0.0027861400057698,-0.0019578289529678,0.0,0.0,0.0,-0.0001067146107481,-0.0019578289529678,0.0020146486347528,0.0,0.0,0.0,0.0,0.0,0.0,0.0,0.0,0.0,0.0,0.0,0.0,0.0,0.0,0.0,0.0,0.0,0.0,0.0,0.0,0.0,0,0,0,1,7,,121
0.699958268,0,1735643777088230371,map,0.9822773489874668,-0.2245584648283216,0.0217787703799214,-0.4867192687739548,0.4947183445779606,-0.5118231139676229,0.5063548290978122,0.0,0.0,0.0,1,1.2923345788892389e-15,0,1735643777088253974,map,0.9841036501912476,-0.2538530332046499,0.1490848482946474,-0.5126175757552084,0.4829851827995519,-0.4745361409627529,0.5279810461968448,0.0,0.0,0.0,16,4.272111482350738e-07,0,1735643777088270664,map,0.9941809163647016,0.0572013569231101,0.0223739429897044,-0.491417786520164,0.5043520615450495,-0.4994081042685366,0.5047069471463491,0.0,0.0,0.0,17,9.644448536370236e-21,0,1735643777088284730,map,1.0140740436831177,-0.2600229497666155,0.236643257084488,-0.3968431860550101,0.6322390034723159,-0.5551179031707122,0.3669242997532237,0.0,0.0,0.0,121,0.0003613654407672,0,1735643777088297367,map,1.0068761695420538,0.2062124055786296,0.2437131877551387,-0.4939877927130478,0.4915807588815993,-0.5046069341304953,0.509604022919074,0.0,0.0,0.0,122,0.0,0,1735643777088310956,map,1.0019688767974595,0.2071576845908398,0.1438647064631289,-0.4690204017374396,0.5050705329201755,-0.4955637218361971,0.5285264583061446,0.0,0.0,0.0,124,0.0,0,1735643777088322877,map,1.00682046746074,-0.0251941227602851,0.2424743304554466,-0.4782731855592667,0.5404134979487552,-0.5148182914627177,0.4627851963764512,0.0,0.0,0.0,125,5.933738522780446e-22,0,1735643777088343858,map,1.011371765571076,-0.0190979737738448,0.1423330633791182,-0.4851894956946013,0.4839371800054343,-0.5184262312036496,0.5114979979198224,0.0,0.0,0.0,126,9.487269949827126e-17,0,1735644242188269615,map,0.9713665855300376,0.3286701986774816,0.0275509403003446,-0.495712874278801,0.4930738820858246,-0.4869818171909486,0.523445892910113,0.0,0.0,0.0,0,0.0,0.9233257515569038,-0.471819739283449,0.4543400627027975,1.0,1.0466240664268866e-05,0.0001378665023434,-0.0001861252149613,0.0,0.0,0.0,0.0001378665023434,0.0030656616783266,-0.0027163114273731,0.0,0.0,0.0,-0.0001861252149613,-0.0027163114273731,0.0033659552663047,0.0,0.0,0.0,0.0,0.0,0.0,0.0,0.0,0.0,0.0,0.0,0.0,0.0,0.0,0.0,0.0,0.0,0.0,0.0,0.0,0.0,0,0,0,1,8,,121
0.799553562,0,1735643777088230371,map,0.9822773489874668,-0.2245584648283216,0.0217787703799214,-0.4867192687739548,0.4947183445779606,-0.5118231139676229,0.5063548290978122,0.0,0.0,0.0,1,2.855831509248892e-15,0,1735643777088253974,map,0.9869427882770754,-0.253737794426051,0.1496002552998494,-0.4857783692835375,0.7104694232951938,-0.4162899903098633,0.2931812041496446,0.0,0.0,0.0,16,4.649153652280802e-06,0,1735643777088270664,map,0.9964962535129868,0.0586905126930289,0.0220901224957147,-0.4894147700414296,0.4886876306534415,-0.494063568604021,0.5268384692577788,0.0,0.0,0.0,17,5.699902355660313e-13,0,1735643777088284730,map,1.0064333221456627,-0.258020304520354,0.2377818640208531,-0.4470252191035906,0.6713175466143098,-0.4767302133233492,0.3496133704505664,0.0,0.0,0.0,121,0.0085466764867305,0,1735643777088297367,map,1.0068761695420538,0.2062124055786296,0.2437131877551387,-0.4939877927130478,0.4915807588815993,-0.5046069341304953,0.509604022919074,0.0,0.0,0.0,122,0.0,0,1735643777088310956,map,1.0088106876907892,0.2126780807253726,0.1429162844902834,-0.4699945988649083,0.4919476550923723,-0.4861743547685931,0.5483858846216523,0.0,0.0,0.0,124,1.6015440148768334e-41,0,1735643777088322877,map,1.008370328597197,-0.0237619206182965,0.2426706785478728,-0.4870473036898431,0.5221905995807646,-0.5105219529771661,0.4790294742563504,0.0,0.0,0.0,125,4.850017350005028e-17,0,1735643777088343858,map,1.011371765571076,-0.0190979737738448,0.1423330633791182,-0.4851894956946013,0.4839371800054343,-0.5184262312036496,0.5114979979198224,0.0,0.0,0.0,126,5.4621862588533077e-11,0,1735644242188269615,map,0.9713665855300376,0.3286701986774816,0.0275509403003446,-0.495712874278801,0.4930738820858246,-0.4869818171909486,0.523445892910113,0.0,0.0,0.0,0,0.0,0.9240253845743508,-0.4558389782506367,0.4404659134413521,1.0,1.3219215907723454e-05,0.000211993346583,-0.0002430991388196,0.0,0.0,0.0,0.000211993346583,0.0047681103884598,-0.0041882547575997,0.0,0.0,0.0,-0.0002430991388196,-0.0041882547575997,0.0045318963785462,0.0,0.0,0.0,0.0,0.0,0.0,0.0,0.0,0.0,0.0,0.0,0.0,0.0,0.0,0.0,0.0,0.0,0.0,0.0,0.0,0.0,0,0,0,1,9,,121
0.89898778,0,1735643777088230371,map,0.9780329685847244,-0.2234458261716213,0.024321251967575,0.4831878425317385,-0.5076793540602825,0.514117357382443,-0.4944436521268646,0.0,0.0,0.0,1,1.8138846605981318e-16,0,1735643777088253974,map,0.980052136551002,-0.2525415209464422,0.1514812003627169,-0.5161568134971991,0.4929527751371313,-0.4708860445574994,0.5185036532233999,0.0,0.0,0.0,16,2.6256602723151445e-06,0,1735643777088270664,map,0.9871547431594344,0.0562698788043022,0.0260874125432382,-0.4989176516052455,0.5005192652928979,-0.4854931510943278,0.5146436070018409,0.0,0.0,0.0,17,3.7275572850603567e-08,0,1735643777088284730,map,1.0058328952806197,-0.2574732531762481,0.2376879743314706,-0.4022920826048844,0.5908709174446963,-0.5699109949167611,0.4052580623065693,0.0,0.0,0.0,121,0.0199213717132806,0,1735643777088297367,map,0.9946687545159496,0.2063382305184035,0.2435777765697305,0.4916459821815959,-0.5072877823330607,0.5089619788742776,-0.4918343604921061,0.0,0.0,0.0,122,7.921498179874261e-40,0,1735643777088310956,map,0.99787222451746,0.2079597487285192,0.1451832577045757,-0.485178364942719,0.5129872508941966,-0.4845003802082135,0.51643529719571,0.0,0.0,0.0,124,2.703189972069632e-26,0,1735643777088322877,map,0.998960343452416,-0.0244965045370275,0.2432941463460685,-0.487083565328182,0.531388907149842,-0.512771059572714,0.4663059834593155,0.0,0.0,0.0,125,9.23134832464534e-11,0,1735643777088343858,map,0.9998286941931638,-0.0193442263354543,0.1451216779009911,-0.5023794762168288,0.5246313816986694,-0.5051194207939127,0.4660806217274776,0.0,0.0,0.0,126,1.6342576145689236e-06,0,1735644242188269615,map,0.9713665855300376,0.3286701986774816,0.0275509403003446,-0.495712874278801,0.4930738820858246,-0.4869818171909486,0.523445892910113,0.0,0.0,0.0,0,2.4103770084289087e-29,0.9245689910450872,-0.4379621193815118,0.428529834088425,1.0,1.4556866272189196e-05,0.0002782557973439,-0.0002771859946809,0.0,0.0,0.0,0.0002782557973439,0.0071675380968533,-0.0056898457362263,0.0,0.0,0.0,-0.0002771859946809,-0.0056898457362263,0.0053609366535659,0.0,0.0,0.0,0.0,0.0,0.0,0.0,0.0,0.0,0.0,0.0,0.0,0.0,0.0,0.0,0.0,0.0,0.0,0.0,0.0,0.0,0,0,0,1,10,,121
0.999351659,0,1735643777088230371,map,0.974282137107205,-0.2224856394095494,0.0248549410710258,-0.4756232015909623,0.490233848893454,-0.5252726242710769,0.5074859738937121,0.0,0.0,0.0,1,8.926431072040455e-18,0,1735643777088253974,map,0.9799547204588932,-0.2517320375523287,0.1504017210207014,-0.5031886328005871,0.7150394228986008,-0.3928109191799956,0.284990184557432,0.0,0.0,0.0,16,6.329289021778095e-07,0,1735643777088270664,map,0.9913760693309136,0.0598729262538406,0.022298007561845,-0.499422002290104,0.4892911337823311,-0.4874156113459851,0.5230658389216067,0.0,0.0,0.0,17,7.611259889017674e-07,0,1735643777088284730,map,0.9973624319390966,-0.2554162697420553,0.2375360402819245,-0.4581883998508514,0.6718152484220212,-0.4657416092427054,0.3490163544159352,0.0,0.0,0.0,121,0.0208049267530441,0,1735643777088297367,map,0.9925207929988722,0.2073924802366271,0.2426329185638078,0.4885546657440197,-0.5027800815523455,0.5110946431836264,-0.4973015120457285,0.0,0.0,0.0,122,2.877958704887978e-32,0,1735643777088310956,map,1.0038165734228457,0.2147530854081127,0.1421523339841609,-0.4815686792073807,0.5021927335140723,-0.4792522391355531,0.5349872492832722,0.0,0.0,0.0,124,2.0217428312963992e-20,0,1735643777088322877,map,0.9982642188551376,-0.0233640296015043,0.2422534425707114,-0.4997476987771072,0.4956095271923815,-0.4945015326344373,0.5099918316456875,0.0,0.0,0.0,125,4.0032407611079186e-08,0,1735643777088343858,map,1.002139429339314,-0.0174121507880584,0.1434178099568674,0.7505832126319615,-0.4634456813182352,0.2545355149622586,-0.396301164527003,0.0,0.0,0.0,126,7.59032554924488e-05,0,1735644242188269615,map,0.9713665855300376,0.3286701986774816,0.0275509403003446,-0.495712874278801,0.4930738820858246,-0.4869818171909486,0.523445892910113,0.0,0.0,0.0,0,8.815148273497543e-22,0.9249785684236524,-0.4226060195180327,0.4191371556161272,1.0,1.491105108322282e-05,0.0003158549270379,-0.0002904575541556,0.0,0.0,0.0,0.0003158549270379,0.0088740417545835,-0.0066149361189945,0.0,0.0,0.0,-0.0002904575541556,-0.0066149361189945,0.0057558028648087,0.0,0.0,0.0,0.0,0.0,0.0,0.0,0.0,0.0,0.0,0.0,0.0,0.0,0.0,0.0,0.0,0.0,0.0,0.0,0.0,0.0,0,0,0,1,11,,121
1.099847137,0,1735643777088230371,map,0.96904587282742,-0.2218526128149805,0.0249575769073284,-0.4860952669509976,0.5032794635078748,-0.5096859368746072,0.5006410079201644,0.0,0.0,0.0,1,5.845426894970825e-19,0,1735643777088253974,map,0.9696317852211124,-0.2507070442926395,0.1513040365921121,-0.5119215302436058,0.486432103487026,-0.4792655564783169,0.5211762484455343,0.0,0.0,0.0,16,2.640592811076204e-07,0,1735643777088270664,map,0.9821234507488508,0.0584239145877836,0.0242172151957266,-0.5002866332069908,0.4919565758747758,-0.4898824381055354,0.5174042992899806,0.0,0.0,0.0,17,3.061057896047714e-06,0,1735643777088284730,map,0.9887526159825892,-0.2545968029473188,0.2371701258975671,-0.4823650803896726,0.481688148691936,-0.5005616884040048,0.5336088949151164,0.0,0.0,0.0,121,0.0167941227555274,0,1735643777088297367,map,0.9967247304470108,0.2140120528544732,0.2411374982802762,-0.5032071759688961,0.4974855920476758,-0.4974177318309375,0.5018627539662086,0.0,0.0,0.0,122,1.1970318087232512e-27,0,1735643777088310956,map,0.9870622648342366,0.2072771897519008,0.1446796128632876,-0.479810018658397,0.5050974612095132,-0.4876220989264883,0.5261972912446996,0.0,0.0,0.0,124,5.7667998870454735e-16,0,1735643777088322877,map,0.9892585423802082,-0.0236291099700456,0.242301246180063,-0.4930567124815467,0.5258713074565923,-0.5069369764823325,0.472619665424255,0.0,0.0,0.0,125,1.911760818984476e-06,0,1735643777088343858,map,0.9902073759614516,-0.0182229683758897,0.1442309044459578,-0.4909934819577483,0.4897901739467211,-0.510911991509772,0.5079369282812242,0.0,0.0,0.0,126,0.0006419162964448,0,1735644242188269615,map,0.9713665855300376,0.3286701986774816,0.0275509403003446,-0.495712874278801,0.4930738820858246,-0.4869818171909486,0.523445892910113,0.0,0.0,0.0,0,4.875538188008004e-17,0.9253143203804264,-0.4084432777398104,0.4111041123666958,1.0,1.4908486634206473e-05,0.0003418405340366,-0.0002959209678643,0.0,0.0,0.0,0.0003418405340366,0.0103409540764775,-0.0073151605319965,0.0,0.0,0.0,-0.0002959209678643,-0.0073151605319965,0.0059859802483942,0.0,0.0,0.0,0.0,0.0,0.0,0.0,0.0,0.0,0.0,0.0,0.0,0.0,0.0,0.0,0.0,0.0,0.0,0.0,0.0,0.0,0,0,0,1,12,,121
1.199382878,0,1735643777088230371,map,0.9692673138794818,-0.2221855642065324,0.0253570409685625,-0.4884612832365618,0.4929611557551024,-0.4994073358642704,0.518639746433338,0.0,0.0,0.0,1,2.3270640811189575e-20,0,1735643777088253974,map,0.9695455319833745,-0.2509337314416449,0.152129528974256,-0.4967706170370309,0.4897964556993307,-0.5036289950660214,0.5095843613787716,0.0,0.0,0.0,16,8.282449925900438e-08,0,1735643777088270664,map,0.9732037727591918,0.0545985975426734,0.0288058572385532,-0.4819434342665112,0.496601579896411,-0.5024154219080074,0.5183590848444627,0.0,0.0,0.0,17,7.226433808682486e-06,0,1735643777088284730,map,0.9943049343782872,-0.2558074226581349,0.2370161474360879,-0.4784491532560543,0.504277020229889,-0.5055073744828058,0.5111295226849348,0.0,0.0,0.0,121,0.0110932197421789,0,1735643777088297367,map,0.9967247304470108,0.2140120528544732,0.2411374982802762,-0.5032071759688961,0.4974855920476758,-0.4974177318309375,0.5018627539662086,0.0,0.0,0.0,122,3.039848381175552e-25,0,1735643777088310956,map,0.9870622648342366,0.2072771897519008,0.1446796128632876,-0.479810018658397,0.5050974612095132,-0.4876220989264883,0.5261972912446996,0.0,0.0,0.0,124,6.58217241562148e-14,0,1735643777088322877,map,0.9927072806897764,-0.0227283579616796,0.2423543850243802,-0.6719892851956445,0.3845894861439907,-0.3052997549665963,0.5543585368216892,0.0,0.0,0.0,125,1.3589111404144203e-05,0,1735643777088343858,map,0.9867036168222898,-0.0188377890651546,0.1455594495776898,-0.4916720161950194,0.4891816026044454,-0.5096396039469541,0.5091438522194517,0.0,0.0,0.0,126,0.0020832421723753,0,1735644242188269615,map,0.9713665855300376,0.3286701986774816,0.0275509403003446,-0.495712874278801,0.4930738820858246,-0.4869818171909486,0.523445892910113,0.0,0.0,0.0,0,1.5367259670177362e-14,0.9256238274483212,-0.3957513502489088,0.4037760074619837,1.0,1.4911215470958028e-05,0.0003626840035052,-0.0003003750196375,0.0,0.0,0.0,0.0003626840035052,0.0114785163518063,-0.007868549188845,0.0,0.0,0.0,-0.0003003750196375,-0.007868549188845,0.0061699336872205,0.0,0.0,0.0,0.0,0.0,0.0,0.0,0.0,0.0,0.0,0.0,0.0,0.0,0.0,0.0,0.0,0.0,0.0,0.0,0.0,0.0,0,0,0,1,13,,121
1.299625066,0,1735643777088230371,map,0.9692673138794818,-0.2221855642065324,0.0253570409685625,-0.4884612832365618,0.4929611557551024,-0.4994073358642704,0.518639746433338,0.0,0.0,0.0,1,1.3676614547319738e-21,0,1735643777088253974,map,0.9711178991174771,-0.2508759069220659,0.1514585122467811,-0.5120956759719009,0.7260070964873975,-0.3723711139175683,0.2683495258438336,0.0,0.0,0.0,16,2.1074299638712546e-08,0,1735643777088270664,map,0.9736618797316436,0.0559843966836669,0.0277645292660342,-0.4858562095833728,0.4952919634575837,-0.4980291325167982,0.5201890019100509,0.0,0.0,0.0,17,1.0860018846869934e-05,0,1735643777088284730,map,0.996135370997425,-0.2559196046183022,0.2362066535249885,-0.4657732335661236,0.5311639382659665,-0.5165030653544567,0.4838850576930394,0.0,0.0,0.0,121,0.006963157095015,0,1735643777088297367,map,0.9967247304470108,0.2140120528544732,0.2411374982802762,-0.5032071759688961,0.4974855920476758,-0.4974177318309375,0.5018627539662086,0.0,0.0,0.0,122,1.3847836491253597e-21,0,1735643777088310956,map,0.9870622648342366,0.2072771897519008,0.1446796128632876,-0.479810018658397,0.5050974612095132,-0.4876220989264883,0.5261972912446996,0.0,0.0,0.0,124,4.0903030962269327e-11,0,1735643777088322877,map,0.9866336440883104,-0.023109860943041,0.2422234712128628,-0.4939851053935927,0.5131639219261638,-0.5028292128568198,0.4896981596661668,0.0,0.0,0.0,125,0.0001881827192846,0,1735643777088343858,map,0.9893217281561086,-0.0172461567602263,0.1438655386290695,-0.4934239449543587,0.4782561656268693,-0.5029934871803714,0.5242150345418305,0.0,0.0,0.0,126,0.0070886239409446,0,1735644242188269615,map,0.9713665855300376,0.3286701986774816,0.0275509403003446,-0.495712874278801,0.4930738820858246,-0.4869818171909486,0.523445892910113,0.0,0.0,0.0,0,2.8270785018547076e-11,0.925982556473689,-0.3802834194914773,0.3951220923245371,1.0,1.551905332894246e-05,0.0004089123476807,-0.0003192769981493,0.0,0.0,0.0,0.0004089123476807,0.0137689617915943,-0.0090466660427176,0.0,0.0,0.0,-0.0003192769981493,-0.0090466660427176,0.006702797351813,0.0,0.0,0.0,0.0,0.0,0.0,0.0,0.0,0.0,0.0,0.0,0.0,0.0,0.0,0.0,0.0,0.0,0.0,0.0,0.0,0.0,0,0,0,1,14,,121
1.399813983,0,1735643777088230371,map,0.9692673138794818,-0.2221855642065324,0.0253570409685625,-0.4884612832365618,0.4929611557551024,-0.4994073358642704,0.518639746433338,0.0,0.0,0.0,1,9.273313638540112e-23,0,1735643777088253974,map,0.975432588828174,-0.2517198202776071,0.1482849898198812,-0.5019219468067161,0.5070929542254021,-0.4958659801693289,0.4950232568268086,0.0,0.0,0.0,16,3.645918011940808e-09,0,1735643777088270664,map,0.9736618797316436,0.0559843966836669,0.0277645292660342,-0.4858562095833728,0.4952919634575837,-0.4980291325167982,0.5201890019100509,0.0,0.0,0.0,17,2.3839254936319776e-05,0,1735643777088284730,map,0.9937648811611492,-0.2555462285117047,0.2351664842540528,-0.4762879714525744,0.515403608347759,-0.5036967826861593,0.5037841202968917,0.0,0.0,0.0,121,0.0060190339572727,0,1735643777088297367,map,0.9967247304470108,0.2140120528544732,0.2411374982802762,-0.5032071759688961,0.4974855920476758,-0.4974177318309375,0.5018627539662086,0.0,0.0,0.0,122,1.9934847027603885e-22,0,1735643777088310956,map,0.9870622648342366,0.2072771897519008,0.1446796128632876,-0.479810018658397,0.5050974612095132,-0.4876220989264883,0.5261972912446996,0.0,0.0,0.0,124,4.4171933472059166e-11,0,1735643777088322877,map,0.9845862207983213,-0.0232891857280763,0.2413004644490184,-0.5066018619058421,0.5137701829856307,-0.4880064918416101,0.491166383732529,0.0,0.0,0.0,125,0.0002411445893812,0,1735643777088343858,map,0.9856041512967284,-0.0174056414156766,0.1431340315863526,-0.5033580049173006,0.494190855457525,-0.4972999149219088,0.5050731747841057,0.0,0.0,0.0,126,0.0136458734050393,0,1735644242188269615,map,0.9713665855300376,0.3286701986774816,0.0275509403003446,-0.495712874278801,0.4930738820858246,-0.4869818171909486,0.523445892910113,0.0,0.0,0.0,0,7.933121520808939e-11,0.926362746295936,-0.3683142932148746,0.3868871781453435,1.0,1.650806998684321e-05,0.0004453590843838,-0.0003418234927514,0.0,0.0,0.0,0.0004453590843838,0.0148566707790417,-0.0098234611608317,0.0,0.0,0.0,-0.0003418234927514,-0.0098234611608317,0.007205337556567,0.0,0.0,0.0,0.0,0.0,0.0,0.0,0.0,0.0,0.0,0.0,0.0,0.0,0.0,0.0,0.0,0.0,0.0,0.0,0.0,0.0,0,0,0,1,15,,121
1.499256498,0,1735643777088230371,map,0.9692673138794818,-0.2221855642065324,0.0253570409685625,-0.4884612832365618,0.4929611557551024,-0.4994073358642704,0.518639746433338,0.0,0.0,0.0,1,9.392957332135725e-24,0,1735643777088253974,map,0.9682767334275948,-0.251468425194576,0.1498194362313334,-0.4883370243665222,0.490438484513547,-0.5085078673201887,0.5122663295731812,0.0,0.0,0.0,16,2.2010362421553964e-09,0,1735643777088270664,map,0.9736618797316436,0.0559843966836669,0.0277645292660342,-0.4858562095833728,0.4952919634575837,-0.4980291325167982,0.5201890019100509,0.0,0.0,0.0,17,1.406255796609912e-05,0,1735643777088284730,map,0.9852996498717198,-0.25511591761141,0.235924949032321,-0.4749068201271756,0.4973216480764241,-0.5119893048997988,0.5147831021114273,0.0,0.0,0.0,121,0.0050846948288381,0,1735643777088297367,map,0.9967247304470108,0.2140120528544732,0.2411374982802762,-0.5032071759688961,0.4974855920476758,-0.4974177318309375,0.5018627539662086,0.0,0.0,0.0,122,3.535958415665161e-21,0,1735643777088310956,map,0.9870622648342366,0.2072771897519008,0.1446796128632876,-0.479810018658397,0.5050974612095132,-0.4876220989264883,0.5261972912446996,0.0,0.0,0.0,124,3.616253962945848e-10,0,1735643777088322877,map,0.985575657426512,-0.0218161888518853,0.2407843876435635,-0.5108159909799176,0.5013609681229724,-0.4871573280842119,0.5003817949284848,0.0,0.0,0.0,125,0.0005438604275695,0,1735643777088343858,map,0.9789557854066332,-0.0186994737924671,0.1443289524078391,-0.4890254760063001,0.4821311387114836,-0.5111477805407704,0.5168477487131239,0.0,0.0,0.0,126,0.0170486290007829,0,1735644242188269615,map,0.9713665855300376,0.3286701986774816,0.0275509403003446,-0.495712874278801,0.4930738820858246,-0.4869818171909486,0.523445892910113,0.0,0.0,0.0,0,7.216495734319038e-10,0.926552449308078,-0.3587551101360929,0.3820187522122221,1.0,1.6016124104901086e-05,0.0004447252289647,-0.000334312850413,0.0,0.0,0.0,0.0004447252289647,0.0152987985723565,-0.0099075674602826,0.0,0.0,0.0,-0.000334312850413,-0.0099075674602826,0.0071105275252759,0.0,0.0,0.0,0.0,0.0,0.0,0.0,0.0,0.0,0.0,0.0,0.0,0.0,0.0,0.0,0.0,0.0,0.0,0.0,0.0,0.0,0,0,0,1,16,,121
1.599990347,0,1735643777088230371,map,0.9692673138794818,-0.2221855642065324,0.0253570409685625,-0.4884612832365618,0.4929611557551024,-0.4994073358642704,0.518639746433338,0.0,0.0,0.0,1,1.9374406477288132e-23,0,1735643777088253974,map,0.9669345225414124,-0.2515393747134868,0.1505404146103381,-0.5025874952742192,0.5051737356052222,-0.4930629451434936,0.4990934166817631,0.0,0.0,0.0,16,2.6249500351127612e-09,0,1735643777088270664,map,0.9736618797316436,0.0559843966836669,0.0277645292660342,-0.4858562095833728,0.4952919634575837,-0.4980291325167982,0.5201890019100509,0.0,0.0,0.0,17,6.857630978629459e-06,0,1735643777088284730,map,0.984577498035466,-0.2551770900480792,0.2362705151635821,-0.4726033789521641,0.5008569950266853,-0.5155607474758217,0.5098876664501782,0.0,0.0,0.0,121,0.004343151114881,0,1735643777088297367,map,0.9967247304470108,0.2140120528544732,0.2411374982802762,-0.5032071759688961,0.4974855920476758,-0.4974177318309375,0.5018627539662086,0.0,0.0,0.0,122,4.6979015650525474e-18,0,1735643777088310956,map,0.9870622648342366,0.2072771897519008,0.1446796128632876,-0.479810018658397,0.5050974612095132,-0.4876220989264883,0.5261972912446996,0.0,0.0,0.0,124,1.663260462692051e-08,0,1735643777088322877,map,0.9820631174371666,-0.0229659261796478,0.2411661421860154,-0.5101232062906308,0.5006962258928203,-0.4878439672753903,0.5010846908192869,0.0,0.0,0.0,125,0.0024638560134917,0,1735643777088343858,map,0.9815428558702431,-0.0175445415181272,0.143121211814267,-0.5012674648894635,0.4861567297031811,-0.4936549840052058,0.5183505759371919,0.0,0.0,0.0,126,0.0169659666717052,0,1735644242188269615,map,0.9713665855300376,0.3286701986774816,0.0275509403003446,-0.495712874278801,0.4930738820858246,-0.4869818171909486,0.523445892910113,0.0,0.0,0.0,0,2.0823943458481157e-08,0.9266914033422168,-0.3486784584160923,0.3778017148989229,1.0,1.5382930735209572e-05,0.0004409679838922,-0.0003240229781728,0.0,0.0,0.0,0.0004409679838922,0.0160234918027499,-0.0100046672351255,0.0,0.0,0.0,-0.0003240229781728,-0.0100046672351255,0.0069767956594878,0.0,0.0,0.0,0.0,0.0,0.0,0.0,0.0,0.0,0.0,0.0,0.0,0.0,0.0,0.0,0.0,0.0,0.0,0.0,0.0,0.0,0,0,0,1,17,,121
1.697697125,0,1735643777088230371,map,0.9692673138794818,-0.2221855642065324,0.0253570409685625,-0.4884612832365618,0.4929611557551024,-0.4994073358642704,0.518639746433338,0.0,0.0,0.0,1,3.393529730688801e-23,0,1735643777088253974,map,0.9675972222836668,-0.2513662427251402,0.1510019322351321,-0.5031783257224257,0.5022414298340091,-0.4831303516445682,0.5110285530195572,0.0,0.0,0.0,16,2.925313546953134e-09,0,1735643777088270664,map,0.9736618797316436,0.0559843966836669,0.0277645292660342,-0.4858562095833728,0.4952919634575837,-0.4980291325167982,0.5201890019100509,0.0,0.0,0.0,17,3.38523250320577e-06,0,1735643777088284730,map,0.9864624690325754,-0.2552869322785001,0.2364677656705033,-0.4741234697148145,0.5121635076419765,-0.510980036899409,0.5017916687189328,0.0,0.0,0.0,121,0.0036848979070782,0,1735643777088297367,map,0.9967247304470108,0.2140120528544732,0.2411374982802762,-0.5032071759688961,0.4974855920476758,-0.4974177318309375,0.5018627539662086,0.0,0.0,0.0,122,2.86602068032965e-16,0,1735643777088310956,map,0.9870622648342366,0.2072771897519008,0.1446796128632876,-0.479810018658397,0.5050974612095132,-0.4876220989264883,0.5261972912446996,0.0,0.0,0.0,124,1.1349781914304913e-07,0,1735643777088322877,map,0.9812012915462722,-0.0226223909520361,0.2418204619917536,-0.5126547857347371,0.5011236887926703,-0.4854086186459355,0.500438399943832,0.0,0.0,0.0,125,0.0048762024380266,0,1735643777088343858,map,0.9758724109809336,-0.0190148991967345,0.1456665344807101,-0.490375094145697,0.4866419903872137,-0.5121726589324032,0.5102852218864291,0.0,0.0,0.0,126,0.0162605606019496,0,1735644242188269615,map,0.9713665855300376,0.3286701986774816,0.0275509403003446,-0.495712874278801,0.4930738820858246,-0.4869818171909486,0.523445892910113,0.0,0.0,0.0,0,8.163426201690528e-08,0.9267425810188984,-0.3418203537575865,0.3755822869256561,1.0,1.4572849100180997e-05,0.0004224364542335,-0.0003079526494506,0.0,0.0,0.0,0.0004224364542335,0.0159328690053276,-0.0097076105672151,0.0,0.0,0.0,-0.0003079526494506,-0.0097076105672151,0.0066729355296122,0.0,0.0,0.0,0.0,0.0,0.0,0.0,0.0,0.0,0.0,0.0,0.0,0.0,0.0,0.0,0.0,0.0,0.0,0.0,0.0,0.0,0,0,0,1,18,,121
1.799214307,0,1735643777088230371,map,0.9692673138794818,-0.2221855642065324,0.0253570409685625,-0.4884612832365618,0.4929611557551024,-0.4994073358642704,0.518639746433338,0.0,0.0,0.0,1,1.8944171205911454e-24,0,1735643777088253974,map,0.9654772812528238,-0.2523133111419838,0.150816466287298,-0.4942989541814417,0.4950573771570358,-0.5072416261601757,0.5032818990465578,0.0,0.0,0.0,16,8.315350630283547e-10,0,1735643777088270664,map,0.9736618797316436,0.0559843966836669,0.0277645292660342,-0.4858562095833728,0.4952919634575837,-0.4980291325167982,0.5201890019100509,0.0,0.0,0.0,17,1.842489496084454e-06,0,1735643777088284730,map,0.9793034568737952,-0.2554255356134771,0.2369979085747889,-0.4671726305621704,0.4848228524738606,-0.5215697847260805,0.5240815724994733,0.0,0.0,0.0,121,0.0030042794533073,0,1735643777088297367,map,0.9967247304470108,0.2140120528544732,0.2411374982802762,-0.5032071759688961,0.4974855920476758,-0.4974177318309375,0.5018627539662086,0.0,0.0,0.0,122,8.726540395475177e-17,0,1735643777088310956,map,0.9870622648342366,0.2072771897519008,0.1446796128632876,-0.479810018658397,0.5050974612095132,-0.4876220989264883,0.5261972912446996,0.0,0.0,0.0,124,8.137521945172922e-08,0,1735643777088322877,map,0.9797950467330812,-0.023348458036686,0.241833081874197,-0.7274789882426002,0.3819391614387508,-0.2600562911978455,0.5072154611537467,0.0,0.0,0.0,125,0.0047671082429587,0,1735643777088343858,map,0.9792986707216398,-0.0174879413948133,0.1430770505696491,-0.505547565586064,0.4875975199389056,-0.4872944685122186,0.5188587654042541,0.0,0.0,0.0,126,0.0127815026789903,0,1735644242188269615,map,0.9713665855300376,0.3286701986774816,0.0275509403003446,-0.495712874278801,0.4930738820858246,-0.4869818171909486,0.523445892910113,0.0,0.0,0.0,0,6.150883535838149e-08,0.9268327421845812,-0.3375604685523634,0.3733284389340174,1.0,1.3952179686628576e-05,0.0004071163285263,-0.0002954023873885,0.0,0.0,0.0,0.0004071163285263,0.0154209361477258,-0.0093695041021157,0.0,0.0,0.0,-0.0002954023873885,-0.0093695041021157,0.0064131653503242,0.0,0.0,0.0,0.0,0.0,0.0,0.0,0.0,0.0,0.0,0.0,0.0,0.0,0.0,0.0,0.0,0.0,0.0,0.0,0.0,0.0,0,0,0,1,19,,121
1.89828621,0,1735643777088230371,map,0.9692673138794818,-0.2221855642065324,0.0253570409685625,-0.4884612832365618,0.4929611557551024,-0.4994073358642704,0.518639746433338,0.0,0.0,0.0,1,1.0537903492567227e-25,0,1735643777088253974,map,0.965969533854332,-0.2532933054624665,0.1493095643165839,0.4901217675342376,-0.4997474933707796,0.5110540982422495,-0.4988554946360102,0.0,0.0,0.0,16,1.5784291929055172e-10,0,1735643777088270664,map,0.9736618797316436,0.0559843966836669,0.0277645292660342,-0.4858562095833728,0.4952919634575837,-0.4980291325167982,0.5201890019100509,0.0,0.0,0.0,17,9.662185220804531e-07,0,1735643777088284730,map,0.9815588160055831,-0.2566662861359151,0.2352373503875732,-0.4639033089790738,0.5037228297876322,-0.5224559625692321,0.5080322803177604,0.0,0.0,0.0,121,0.0015354491770267,0,1735643777088297367,map,0.9967247304470108,0.2140120528544732,0.2411374982802762,-0.5032071759688961,0.4974855920476758,-0.4974177318309375,0.5018627539662086,0.0,0.0,0.0,122,2.1354387160189327e-17,0,1735643777088310956,map,0.9870622648342366,0.2072771897519008,0.1446796128632876,-0.479810018658397,0.5050974612095132,-0.4876220989264883,0.5261972912446996,0.0,0.0,0.0,124,4.962587851764511e-08,0,1735643777088322877,map,0.9801919402427872,-0.0224560063981543,0.2399355619300273,-0.5012321825494526,0.5018701096593924,-0.4893683276227218,0.5073572036809193,0.0,0.0,0.0,125,0.0046065957285463,0,1735643777088343858,map,0.9771448549855206,-0.0180719139372631,0.1422564471384408,-0.4910534456546975,0.4820983405051455,-0.507150128761947,0.5188896322818316,0.0,0.0,0.0,126,0.0104247741401195,0,1735644242188269615,map,0.9713665855300376,0.3286701986774816,0.0275509403003446,-0.495712874278801,0.4930738820858246,-0.4869818171909486,0.523445892910113,0.0,0.0,0.0,0,3.81788325398702e-08,0.9268940630305956,-0.3345429592109692,0.3717700795547232,1.0,1.3326015379259082e-05,0.0003902762003877,-0.0002824479064142,0.0,0.0,0.0,0.0003902762003877,0.0148228912302221,-0.008990373812711,0.0,0.0,0.0,-0.0002824479064142,-0.008990373812711,0.0061386482779536,0.0,0.0,0.0,0.0,0.0,0.0,0.0,0.0,0.0,0.0,0.0,0.0,0.0,0.0,0.0,0.0,0.0,0.0,0.0,0.0,0.0,0,0,0,1,20,,121
1.999323403,0,1735643777088230371,map,0.9692673138794818,-0.2221855642065324,0.0253570409685625,-0.4884612832365618,0.4929611557551024,-0.4994073358642704,0.518639746433338,0.0,0.0,0.0,1,6.08809181394149e-27,0,1735643777088253974,map,0.9630208109573076,-0.2532801895123174,0.1498068318825251,-0.4955079579799889,0.4957119607992384,-0.5030334571107342,0.5056667445326998,0.0,0.0,0.0,16,6.07546860043051e-11,0,1735643777088270664,map,0.9736618797316436,0.0559843966836669,0.0277645292660342,-0.4858562095833728,0.4952919634575837,-0.4980291325167982,0.5201890019100509,0.0,0.0,0.0,17,4.858948159380816e-07,0,1735643777088284730,map,0.9767334403412116,-0.2563352412893308,0.2356995099464382,-0.4766150407937217,0.4976911272180964,-0.5091420188006572,0.5156704853578207,0.0,0.0,0.0,121,0.0012520542368292,0,1735643777088297367,map,0.9967247304470108,0.2140120528544732,0.2411374982802762,-0.5032071759688961,0.4974855920476758,-0.4974177318309375,0.5018627539662086,0.0,0.0,0.0,122,5.145724740979568e-18,0,1735643777088310956,map,0.9870622648342366,0.2072771897519008,0.1446796128632876,-0.479810018658397,0.5050974612095132,-0.4876220989264883,0.5261972912446996,0.0,0.0,0.0,124,2.873260207536532e-08,0,1735643777088322877,map,0.9753877668016322,-0.023575884203467,0.2403712260659472,-0.5046838530024204,0.5048927857165195,-0.4964782145029259,0.4938490315612962,0.0,0.0,0.0,125,0.004046123009175,0,1735643777088343858,map,0.9710497670711072,-0.0194472578068796,0.1435580620334904,-0.4937659023804561,0.4884002308408178,-0.5089878690810806,0.508519220176927,0.0,0.0,0.0,126,0.009360178373754,0,1735644242188269615,map,0.9713665855300376,0.3286701986774816,0.0275509403003446,-0.495712874278801,0.4930738820858246,-0.4869818171909486,0.523445892910113,0.0,0.0,0.0,0,2.1646787473628137e-08,0.926928732113742,-0.3324131817286335,0.3707993048039604,1.0,1.2715482124866322e-05,0.0003731683680692,-0.0002696711235198,0.0,0.0,0.0,0.0003731683680692,0.0142077583093635,-0.0086036114581024,0.0,0.0,0.0,-0.0002696711235198,-0.0086036114581024,0.0058651797656235,0.0,0.0,0.0,0.0,0.0,0.0,0.0,0.0,0.0,0.0,0.0,0.0,0.0,0.0,0.0,0.0,0.0,0.0,0.0,0.0,0.0,0,0,0,1,21,,121
2.100098621,0,1735643777088230371,map,0.9692673138794818,-0.2221855642065324,0.0253570409685625,-0.4884612832365618,0.4929611557551024,-0.4994073358642704,0.518639746433338,0.0,0.0,0.0,1,4.307171394339489e-28,0,1735643777088253974,map,0.9598489806050536,-0.2530944500022227,0.1497380428018588,-0.5001330129470923,0.5061459654774578,-0.4920515722350014,0.5015660288061976,0.0,0.0,0.0,16,2.2253485512657708e-11,0,1735643777088270664,map,0.9736618797316436,0.0559843966836669,0.0277645292660342,-0.4858562095833728,0.4952919634575837,-0.4980291325167982,0.5201890019100509,0.0,0.0,0.0,17,2.374444250108354e-07,0,1735643777088284730,map,0.9744370505558086,-0.256219865970405,0.234925866031795,-0.4798397218210272,0.5016378252972433,-0.5069010091103079,0.5110427580513436,0.0,0.0,0.0,121,0.0008240158203989,0,1735643777088297367,map,0.9967247304470108,0.2140120528544732,0.2411374982802762,-0.5032071759688961,0.4974855920476758,-0.4974177318309375,0.5018627539662086,0.0,0.0,0.0,122,1.4288721003168297e-18,0,1735643777088310956,map,0.9870622648342366,0.2072771897519008,0.1446796128632876,-0.479810018658397,0.5050974612095132,-0.4876220989264883,0.5261972912446996,0.0,0.0,0.0,124,1.6673027403157903e-08,0,1735643777088322877,map,0.9685322210470056,-0.025171174406905,0.2406344456494542,-0.4985929989368604,0.5080509137923702,-0.496607708576524,0.4966589113146566,0.0,0.0,0.0,125,0.0036814608611166,0,1735643777088343858,map,0.9702728584815026,-0.0187804297396235,0.1422439936236067,-0.5050993312994527,0.4937391916749123,-0.4979338925898226,0.5031482035498065,0.0,0.0,0.0,126,0.0069683608599007,0,1735644242188269615,map,0.9713665855300376,0.3286701986774816,0.0275509403003446,-0.495712874278801,0.4930738820858246,-0.4869818171909486,0.523445892910113,0.0,0.0,0.0,0,1.15699201330699e-08,0.9269304836310333,-0.3311401095692647,0.3705034975252062,1.0,1.2137570088714384e-05,0.0003562529954865,-0.0002574242255208,0.0,0.0,0.0,0.0003562529954865,0.0135959860806655,-0.0082204464742404,0.0,0.0,0.0,-0.0002574242255208,-0.0082204464742404,0.0056004182262373,0.0,0.0,0.0,0.0,0.0,0.0,0.0,0.0,0.0,0.0,0.0,0.0,0.0,0.0,0.0,0.0,0.0,0.0,0.0,0.0,0.0,0,0,0,1,22,,121
2.200121252,0,1735643777088230371,map,0.9692673138794818,-0.2221855642065324,0.0253570409685625,-0.4884612832365618,0.4929611557551024,-0.4994073358642704,0.518639746433338,0.0,0.0,0.0,1,2.6180519903547844e-29,0,1735643777088253974,map,0.9569579418884556,-0.2525618427099605,0.1506774792848781,-0.4897499121278023,0.4924562363815549,-0.5068746058618566,0.5105977014755472,0.0,0.0,0.0,16,1.1532410443271246e-11,0,1735643777088270664,map,0.9736618797316436,0.0559843966836669,0.0277645292660342,-0.4858562095833728,0.4952919634575837,-0.4980291325167982,0.5201890019100509,0.0,0.0,0.0,17,1.23488206327238e-07,0,1735643777088284730,map,0.9746365396295512,-0.2563113798725965,0.2345743588762449,-0.4745508362266267,0.512404090244402,-0.5113549364693176,0.5007591048457101,0.0,0.0,0.0,121,0.0005698624299839,0,1735643777088297367,map,0.9967247304470108,0.2140120528544732,0.2411374982802762,-0.5032071759688961,0.4974855920476758,-0.4974177318309375,0.5018627539662086,0.0,0.0,0.0,122,2.192894836463231e-19,0,1735643777088310956,map,0.9870622648342366,0.2072771897519008,0.1446796128632876,-0.479810018658397,0.5050974612095132,-0.4876220989264883,0.5261972912446996,0.0,0.0,0.0,124,7.438935245573931e-09,0,1735643777088322877,map,0.9703495533622012,-0.0231651817326239,0.2398585129434605,-0.4962011003993183,0.5092811534936956,-0.4950074771145439,0.4993843932877064,0.0,0.0,0.0,125,0.0026637648697942,0,1735643777088343858,map,0.9681279034473854,-0.0184893370295068,0.1422615535949299,-0.4962181486985229,0.4860370517638689,-0.504593601032137,0.5127580628447669,0.0,0.0,0.0,126,0.0057720602490007,0,1735644242188269615,map,0.9713665855300376,0.3286701986774816,0.0275509403003446,-0.495712874278801,0.4930738820858246,-0.4869818171909486,0.523445892910113,0.0,0.0,0.0,0,5.143836023790982e-09,0.9269487231949782,-0.330658233417671,0.3701279796386515,1.0,1.161716864731859e-05,0.0003409570974526,-0.0002463825521046,0.0,0.0,0.0,0.0003409570974526,0.0130099647528318,-0.0078670167264777,0.0,0.0,0.0,-0.0002463825521046,-0.0078670167264777,0.005360024082647,0.0,0.0,0.0,0.0,0.0,0.0,0.0,0.0,0.0,0.0,0.0,0.0,0.0,0.0,0.0,0.0,0.0,0.0,0.0,0.0,0.0,0,0,0,1,23,,121
2.298038118,0,1735643777088230371,map,0.9692673138794818,-0.2221855642065324,0.0253570409685625,-0.4884612832365618,0.4929611557551024,-0.4994073358642704,0.518639746433338,0.0,0.0,0.0,1,4.618248080439401e-28,0,1735643777088253974,map,0.9580695244934913,-0.2532574934010236,0.1500205215329441,-0.4973637428575917,0.4942859739383317,-0.5032894049460013,0.5049856019013047,0.0,0.0,0.0,16,2.1041612896510745e-11,0,1735643777088270664,map,0.9736618797316436,0.0559843966836669,0.0277645292660342,-0.4858562095833728,0.4952919634575837,-0.4980291325167982,0.5201890019100509,0.0,0.0,0.0,17,1.0743314504679803e-07,0,1735643777088284730,map,0.9729184051794372,-0.2562527910643671,0.2350731379408809,-0.474180365913868,0.5082198455875148,-0.5100378594984569,0.5066822979057249,0.0,0.0,0.0,121,0.0007199576357379,0,1735643777088297367,map,0.9967247304470108,0.2140120528544732,0.2411374982802762,-0.5032071759688961,0.4974855920476758,-0.4974177318309375,0.5018627539662086,0.0,0.0,0.0,122,2.6397386822437776e-18,0,1735643777088310956,map,0.9870622648342366,0.2072771897519008,0.1446796128632876,-0.479810018658397,0.5050974612095132,-0.4876220989264883,0.5261972912446996,0.0,0.0,0.0,124,1.3004357590773452e-08,0,1735643777088322877,map,0.9695272009790332,-0.0229644913585979,0.2399461903482263,-0.4956525046879672,0.506056672466059,-0.498293906325974,0.4999384179751805,0.0,0.0,0.0,125,0.0032753781415522,0,1735643777088343858,map,0.9642732401017382,-0.019606619150663,0.1438992726847413,-0.4951489950201042,0.4902504783418633,-0.5064692012731807,0.5079083474189626,0.0,0.0,0.0,126,0.005151730030775,0,1735644242188269615,map,0.9713665855300376,0.3286701986774816,0.0275509403003446,-0.495712874278801,0.4930738820858246,-0.4869818171909486,0.523445892910113,0.0,0.0,0.0,0,4.386315310966893e-09,0.9268697799795668,-0.3294864404288773,0.3710635857646291,1.0,1.127645667264908e-05,0.0003246229342798,-0.0002378153868202,0.0,0.0,0.0,0.0003246229342798,0.0124994641607279,-0.0075140086188045,0.0,0.0,0.0,-0.0002378153868202,-0.0075140086188045,0.0051568229987983,0.0,0.0,0.0,0.0,0.0,0.0,0.0,0.0,0.0,0.0,0.0,0.0,0.0,0.0,0.0,0.0,0.0,0.0,0.0,0.0,0.0,0,0,0,1,24,,121
2.39720961,0,1735643777088230371,map,0.9692673138794818,-0.2221855642065324,0.0253570409685625,-0.4884612832365618,0.4929611557551024,-0.4994073358642704,0.518639746433338,0.0,0.0,0.0,1,1.4376357676333601e-25,0,1735643777088253974,map,0.9558846777087936,-0.2528638570894647,0.1513185313150374,-0.4966187415757838,0.4924068253373843,-0.5031466202973712,0.5076896910123123,0.0,0.0,0.0,16,3.5820016397458687e-10,0,1735643777088270664,map,0.9736618797316436,0.0559843966836669,0.0277645292660342,-0.4858562095833728,0.4952919634575837,-0.4980291325167982,0.5201890019100509,0.0,0.0,0.0,17,2.8660960538218205e-07,0,1735643777088284730,map,0.9719112099894528,-0.2560599829592582,0.235225897429107,-0.4697713251774355,0.5013620372377647,-0.5185730702149635,0.5089528273874326,0.0,0.0,0.0,121,0.0016992221353575,0,1735643777088297367,map,0.9967247304470108,0.2140120528544732,0.2411374982802762,-0.5032071759688961,0.4974855920476758,-0.4974177318309375,0.5018627539662086,0.0,0.0,0.0,122,7.316510952524425e-18,0,1735643777088310956,map,0.9870622648342366,0.2072771897519008,0.1446796128632876,-0.479810018658397,0.5050974612095132,-0.4876220989264883,0.5261972912446996,0.0,0.0,0.0,124,9.596500483155523e-09,0,1735643777088322877,map,0.9663174304157972,-0.0239001024622917,0.2406199635045642,0.5103238812258805,-0.5017852577919087,0.4883698291778363,-0.4992754763275204,0.0,0.0,0.0,125,0.0027735312469303,0,1735643777088343858,map,0.9651835708327932,-0.0186402080209754,0.1430757847133318,-0.4928271913951542,0.4860082793683054,-0.5052786585310057,0.5153744163616695,0.0,0.0,0.0,126,0.0055250581353902,0,1735644242188269615,map,0.9713665855300376,0.3286701986774816,0.0275509403003446,-0.495712874278801,0.4930738820858246,-0.4869818171909486,0.523445892910113,0.0,0.0,0.0,0,2.0600876560195047e-09,0.9270048955115792,-0.3289861956751909,0.3689316926753501,1.0,1.126354737352664e-05,0.0003132601969733,-0.0002352160162023,0.0,0.0,0.0,0.0003132601969733,0.012005491469825,-0.0072390435140523,0.0,0.0,0.0,-0.0002352160162023,-0.0072390435140523,0.0050596293143052,0.0,0.0,0.0,0.0,0.0,0.0,0.0,0.0,0.0,0.0,0.0,0.0,0.0,0.0,0.0,0.0,0.0,0.0,0.0,0.0,0.0,0,0,0,1,25,,121
2.499065763,0,1735643777088230371,map,0.9692673138794818,-0.2221855642065324,0.0253570409685625,-0.4884612832365618,0.4929611557551024,-0.4994073358642704,0.518639746433338,0.0,0.0,0.0,1,5.9041498522167704e-21,0,1735643777088253974,map,0.955025181143817,-0.2529833187509361,0.1498693309116512,-0.4948392700721096,0.4961739505808257,-0.5045010070534087,0.5044048388364394,0.0,0.0,0.0,16,1.8218129227420832e-08,0,1735643777088270664,map,0.9736618797316436,0.0559843966836669,0.0277645292660342,-0.4858562095833728,0.4952919634575837,-0.4980291325167982,0.5201890019100509,0.0,0.0,0.0,17,1.2721059192699613e-06,0,1735643777088284730,map,0.9696604316627422,-0.2559803333537302,0.2342226355395766,-0.4827685422094154,0.5070807605013425,-0.499803703702201,0.5099018481511303,0.0,0.0,0.0,121,0.0058617852628231,0,1735643777088297367,map,0.9967247304470108,0.2140120528544732,0.2411374982802762,-0.5032071759688961,0.4974855920476758,-0.4974177318309375,0.5018627539662086,0.0,0.0,0.0,122,3.9322731658716524e-16,0,1735643777088310956,map,0.9870622648342366,0.2072771897519008,0.1446796128632876,-0.479810018658397,0.5050974612095132,-0.4876220989264883,0.5261972912446996,0.0,0.0,0.0,124,1.6086099563494827e-08,0,1735643777088322877,map,0.9639025743605368,-0.0239847061844464,0.2395859897796201,-0.4966809927375317,0.5101249783574522,-0.4964737234058269,0.4965826616753986,0.0,0.0,0.0,125,0.0031700551044195,0,1735643777088343858,map,0.962328169188479,-0.0189966526550203,0.1425689970472601,-0.4955526728378899,0.4944883555644848,-0.5058187675405998,0.504039868520401,0.0,0.0,0.0,126,0.0061328997835516,0,1735644242188269615,map,0.9713665855300376,0.3286701986774816,0.0275509403003446,-0.495712874278801,0.4930738820858246,-0.4869818171909486,0.523445892910113,0.0,0.0,0.0,0,1.3341345805883975e-09,0.9271672231635066,-0.3294924991965425,0.3666048838225565,1.0,1.1489090677512856e-05,0.0002991570513143,-0.0002356118817873,0.0,0.0,0.0,0.0002991570513143,0.011550150379302,-0.0069311669756198,0.0,0.0,0.0,-0.0002356118817873,-0.0069311669756198,0.0050003791727679,0.0,0.0,0.0,0.0,0.0,0.0,0.0,0.0,0.0,0.0,0.0,0.0,0.0,0.0,0.0,0.0,0.0,0.0,0.0,0.0,0.0,0,0,0,1,26,,121
