%time,field.boxes0.header.seq,field.boxes0.header.stamp,field.boxes0.header.frame_id,field.boxes0.pose.position.x,field.boxes0.pose.position.y,field.boxes0.pose.position.z,field.boxes0.pose.orientation.x,field.boxes0.pose.orientation.y,field.boxes0.pose.orientation.z,field.boxes0.pose.orientation.w,field.boxes0.scale.x,field.boxes0.scale.y,field.boxes0.scale.z,field.boxes0.id,field.boxes0.pdf,field.boxes1.header.seq,field.boxes1.header.stamp,field.boxes1.header.frame_id,field.boxes1.pose.position.x,field.boxes1.pose.position.y,field.boxes1.pose.position.z,field.boxes1.pose.orientation.x,field.boxes1.pose.orientation.y,field.boxes1.pose.orientation.z,field.boxes1.pose.orientation.w,field.boxes1.scale.x,field.boxes1.scale.y,field.boxes1.scale.z,field.boxes1.id,field.boxes1.pdf,field.boxes2.header.seq,field.boxes2.header.stamp,field.boxes2.header.frame_id,field.boxes2.pose.position.x,field.boxes2.pose.position.y,field.boxes2.pose.position.z,field.boxes2.pose.orientation.x,field.boxes2.pose.orientation.y,field.boxes2.pose.orientation.z,field.boxes2.pose.orientation.w,field.boxes2.scale.x,field.boxes2.scale.y,field.boxes2.scale.z,field.boxes2.id,field.boxes2.pdf,field.boxes3.header.seq,field.boxes3.header.stamp,field.boxes3.header.frame_id,field.boxes3.pose.position.x,field.boxes3.pose.position.y,field.boxes3.pose.position.z,field.boxes3.pose.orientation.x,field.boxes3.pose.orientation.y,field.boxes3.pose.orientation.z,field.boxes3.pose.orientation.w,field.boxes3.scale.x,field.boxes3.scale.y,field.boxes3.scale.z,field.boxes3.id,field.boxes3.pdf,field.boxes4.header.seq,field.boxes4.header.stamp,field.boxes4.header.frame_id,field.boxes4.pose.position.x,field.boxes4.pose.position.y,field.boxes4.pose.position.z,field.boxes4.pose.orientation.x,field.boxes4.pose.orientation.y,field.boxes4.pose.orientation.z,field.boxes4.pose.orientation.w,field.boxes4.scale.x,field.boxes4.scale.y,field.boxes4.scale.z,field.boxes4.id,field.boxes4.pdf,field.boxes5.header.seq,field.boxes5.header.stamp,field.boxes5.header.frame_id,field.boxes5.pose.position.x,field.boxes5.pose.position.y,field.boxes5.pose.position.z,field.boxes5.pose.orientation.x,field.boxes5.pose.orientation.y,field.boxes5.pose.orientation.z,field.boxes5.pose.orientation.w,field.boxes5.scale.x,field.boxes5.scale.y,field.boxes5.scale.z,field.boxes5.id,field.boxes5.pdf,field.boxes6.header.seq,field.boxes6.header.stamp,field.boxes6.header.frame_id,field.boxes6.pose.position.x,field.boxes6.pose.position.y,field.boxes6.pose.position.z,field.boxes6.pose.orientation.x,field.boxes6.pose.orientation.y,field.boxes6.pose.orientation.z,field.boxes6.pose.orientation.w,field.boxes6.scale.x,field.boxes6.scale.y,field.boxes6.scale.z,field.boxes6.id,field.boxes6.pdf,field.boxes7.header.seq,field.boxes7.header.stamp,field.boxes7.header.frame_id,field.boxes7.pose.position.x,field.boxes7.pose.position.y,field.boxes7.pose.position.z,field.boxes7.pose.orientation.x,field.boxes7.pose.orientation.y,field.boxes7.pose.orientation.z,field.boxes7.pose.orientation.w,field.boxes7.scale.x,field.boxes7.scale.y,field.boxes7.scale.z,field.boxes7.id,field.boxes7.pdf,field.boxes8.header.seq,field.boxes8.header.stamp,field.boxes8.header.frame_id,field.boxes8.pose.position.x,field.boxes8.pose.position.y,field.boxes8.pose.position.z,field.boxes8.pose.orientation.x,field.boxes8.pose.orientation.y,field.boxes8.pose.orientation.z,field.boxes8.pose.orientation.w,field.boxes8.scale.x,field.boxes8.scale.y,field.boxes8.scale.z,field.boxes8.id,field.boxes8.pdf,field.pose.pose.position.x,field.pose.pose.position.y,field.pose.pose.position.z,field.pose.pose.orientation.w,field.pose.covariance0,field.pose.covariance1,field.pose.covariance2,field.pose.covariance3,field.pose.covariance4,field.pose.covariance5,field.pose.covariance6,field.pose.covariance7,field.pose.covariance8,field.pose.covariance9,field.pose.covariance10,field.pose.covariance11,field.pose.covariance12,field.pose.covariance13,field.pose.covariance14,field.pose.covariance15,field.pose.covariance16,field.pose.covariance17,field.pose.covariance18,field.pose.covariance19,field.pose.covariance20,field.pose.covariance21,field.pose.covariance22,field.pose.covariance23,field.pose.covariance24,field.pose.covariance25,field.pose.covariance26,field.pose.covariance27,field.pose.covariance28,field.pose.covariance29,field.pose.covariance30,field.pose.covariance31,field.pose.covariance32,field.pose.covariance33,field.pose.covariance34,field.pose.covariance35,field.buttons0,field.buttons1,field.buttons2,field.buttons3,intersection_length,vacuum,desired_box
0.0,0,1735643777088230371,map,0.9701843039018484,-0.2199752876234926,0.0262979542425378,-0.4961090114102352,0.4811287461613369,-0.4843158001998245,0.5364971426686097,0.0,0.0,0.0,1,0.1111111119389534,0,1735643777088253974,map,0.989443305006066,-0.2520772417713379,0.1482953950359168,0.5066614916114714,-0.5063398356102404,0.4906125137451025,-0.4961990176823663,0.0,0.0,0.0,16,0.1111111119389534,0,1735643777088270664,map,0.980893673816652,0.0536565599543173,0.0282327288351927,-0.4818079533933238,0.5018370136950604,-0.5062774529199875,0.5096114680787807,0.0,0.0,0.0,17,0.1111111119389534,0,1735643777088284730,map,1.014554045397328,-0.2580214437884924,0.2365382220842192,-0.4801013655225362,0.4939019727764326,-0.4991540069428756,0.5257459438396223,0.0,0.0,0.0,121,0.1111111119389534,0,1735643777088297367,map,1.0257939953141233,0.2127921524383436,0.2422134434326684,-0.5327054000094753,0.4673402899844447,-0.4777447614623465,0.5192089685794009,0.0,0.0,0.0,122,0.1111111119389534,0,1735643777088310956,map,1.0080572488530657,0.2080474274803915,0.1443924402226559,-0.4773449164293015,0.4949675178078599,-0.4920971375283036,0.533843979371013,0.0,0.0,0.0,124,0.1111111119389534,0,1735643777088322877,map,1.0007296990772447,-0.0270594925993861,0.2423655286461974,-0.4517194240697746,0.4818152353369373,-0.537646451764002,0.5241564020603592,0.0,0.0,0.0,125,0.1111111119389534,0,1735643777088343858,map,0.9979283448525388,-0.0213081164641198,0.1461652398221645,-0.4737975925306475,0.4808205175970272,-0.5304788980916492,0.5127568720644888,0.0,0.0,0.0,126,0.1111111119389534,0,1735644242188269615,map,0.9780085370089434,0.3317187301435387,0.0263078085086602,-0.5095831985172911,0.4948149979042824,-0.4795502479626768,0.5152811284306916,0.0,0.0,0.0,0,0.1111111119389534,0.9327183075586007,-0.7886008259870884,0.3805754858612761,1.0,0.0,0.0,0.0,0.0,0.0,0.0,0.0,0.0,0.0,0.0,0.0,0.0,0.0,0.0,0.0,0.0,0.0,0.0,0.0,0.0,0.0,0.0,0.0,0.0,0.0,0.0,0.0,0.0,0.0,0.0,0.0,0.0,0.0,0.0,0.0,0.0,0,0,0,1,1,,1
0.09895378,0,1735643777088230371,map,0.981639360879938,-0.2209377262702984,0.0218730404278584,-0.4756720177386154,0.5058138407143029,-0.5078764309761596,0.5098529405046499,0.0,0.0,0.0,1,0.0,0,1735643777088253974,map,0.9759872525058876,-0.2486772449863935,0.1497150418982368,-0.5243650566750847,0.4847551366973432,-0.4680954297220974,0.5205193689546624,0.0,0.0,0.0,16,0.0,0,1735643777088270664,map,0.9850730908510372,0.0556595432877346,0.0262942020022552,-0.4800852136912679,0.5028345799959727,-0.5131486001071693,0.5033429119033422,0.0,0.0,0.0,17,0.0,0,1735643777088284730,map,1.009831662154294,-0.2560809153625267,0.2362417682627358,-0.4981048091761912,0.5027849720883898,-0.4826198462548583,0.5159234002432571,0.0,0.0,0.0,121,0.0,0,1735643777088297367,map,1.0192705031989129,0.2109599738480417,0.2414932431605038,-0.5229685100081504,0.4739684164028249,-0.4913934227269083,0.5102846087167312,0.0,0.0,0.0,122,0.0,0,1735643777088310956,map,1.0052142905952708,0.2075236137547881,0.144195760816267,-0.4733824230965045,0.4994719225897382,-0.4981217228992909,0.527552489543585,0.0,0.0,0.0,124,0.0,0,1735643777088322877,map,1.0007056742488931,-0.0259145395149408,0.2418758953164124,-0.4560405203676424,0.4688442209750163,-0.5287506717039504,0.5409573619184429,0.0,0.0,0.0,125,0.0,0,1735643777088343858,map,1.0172029957168405,-0.0173001070085116,0.1422651242161753,0.5280065154536737,-0.5164766006134716,0.4788463170464021,-0.4745179083114972,0.0,0.0,0.0,126,0.0,0,1735644242188269615,map,0.9780085370089434,0.3317187301435387,0.0263078085086602,-0.5095831985172911,0.4948149979042824,-0.4795502479626768,0.5152811284306916,0.0,0.0,0.0,0,0.0,0.9411382924393522,-0.64737314719436,0.2244210137108679,1.0,7.089614539208323e-05,0.0011891349201783,-0.0013148182945681,0.0,0.0,0.0,0.0011891349201783,0.019945257257182,-0.0220533336349059,0.0,0.0,0.0,-0.0013148182945681,-0.0220533336349059,0.0243842191725726,0.0,0.0,0.0,0.0,0.0,0.0,0.0,0.0,0.0,0.0,0.0,0.0,0.0,0.0,0.0,0.0,0.0,0.0,0.0,0.0,0.0,0,0,0,1,2,,1
0.198196839,0,1735643777088230371,map,0.985188067318119,-0.2213763975170765,0.0201581086968028,-0.5617724770372869,0.712344121317084,-0.3142882467173882,0.2796434065800451,0.0,0.0,0.0,1,2.182666386297495e-18,0,1735643777088253974,map,0.9842221977862252,-0.2501906944334501,0.147256258501001,-0.4811262436726987,0.4877370768903027,-0.5105299931840571,0.5196048571129682,0.0,0.0,0.0,16,1.4372557829193919e-40,0,1735643777088270664,map,0.992124216706576,0.0568925386988908,0.0231219583186881,-0.4930363794654362,0.4865288457107093,-0.4917158244435209,0.5276555304427759,0.0,0.0,0.0,17,0.0,0,1735643777088284730,map,1.0101456924335843,-0.2561989308342192,0.2352339809632796,-0.5075756613219434,0.5186260489470984,-0.4720629140203861,0.5005502717946468,0.0,0.0,0.0,121,0.0,0,1735643777088297367,map,1.0070911754865566,0.2046945198272468,0.2407823275893427,-0.502564439728018,0.5057609283510277,-0.4993499222079761,0.4922240571784949,0.0,0.0,0.0,122,0.0,0,1735643777088310956,map,1.0073411461173123,0.20849561284466,0.1430424804433805,-0.4801175981027047,0.4966129180594191,-0.482578511331701,0.538498544110824,0.0,0.0,0.0,124,0.0,0,1735643777088322877,map,1.0063302763427928,-0.0252965315421014,0.2406460355278149,0.463293676254399,-0.5181311366283095,0.5249627859574618,-0.491236366893495,0.0,0.0,0.0,125,0.0,0,1735643777088343858,map,1.007089659613282,-0.0190967379176147,0.1429227552609147,-0.4960764258766402,0.4646567408504015,-0.4950458420622647,0.5412318423084549,0.0,0.0,0.0,126,0.0,0,1735644242188269615,map,0.9780085370089434,0.3317187301435387,0.0263078085086602,-0.5095831985172911,0.4948149979042824,-0.4795502479626768,0.5152811284306916,0.0,0.0,0.0,0,0.0,0.9459452091477498,-0.5382914325614999,0.1292485461946264,1.0,9.347699341099832e-05,0.0018414500467509,-0.0017915177782785,0.0,0.0,0.0,0.0018414500467509,0.0370944791059441,-0.0354653743082942,0.0,0.0,0.0,-0.0017915177782785,-0.0354653743082942,0.0343717432613084,0.0,0.0,0.0,0.0,0.0,0.0,0.0,0.0,0.0,0.0,0.0,0.0,0.0,0.0,0.0,0.0,0.0,0.0,0.0,0.0,0.0,0,0,0,1,3,,1
0.297945201,0,1735643777088230371,map,0.9804951825233847,-0.2202798246935632,0.0223183416068538,-0.532373662284496,0.7330575027477163,-0.3362154133773056,0.2572239825105792,0.0,0.0,0.0,1,9.297379896132039e-14,0,1735643777088253974,map,0.992041667481524,-0.2511917380833449,0.1462906147694465,0.4732543416303449,-0.5142330515767072,0.5260354576294822,-0.4846456376680568,0.0,0.0,0.0,16,2.618751973730812e-31,0,1735643777088270664,map,0.9942876809001832,0.0578201456284118,0.0227829006191474,-0.4959378534007226,0.4999409068895428,-0.4954890950152751,0.5085226562343982,0.0,0.0,0.0,17,0.0,0,1735643777088284730,map,1.0128389838946052,-0.2561844678852816,0.2352829925882457,-0.4082989366173261,0.6207744725832598,-0.5408636313969372,0.3942049781246481,0.0,0.0,0.0,121,0.0,0,1735643777088297367,map,1.0246217873256134,0.2138064034471301,0.2407113063360903,-0.5179006744083593,0.476284960913467,-0.4805476139532126,0.5234553640750066,0.0,0.0,0.0,122,0.0,0,1735643777088310956,map,1.014289331227922,0.2122993268408271,0.1421822089793734,-0.4907733341852908,0.5054609164034307,-0.4779668369513088,0.5245936515208863,0.0,0.0,0.0,124,0.0,0,1735643777088322877,map,1.0056090307045151,-0.0247609201305222,0.2411974394451088,-0.5131795412998846,0.5321597422022123,-0.4834557413515155,0.4687465342002767,0.0,0.0,0.0,125,0.0,0,1735643777088343858,map,1.0076755625010718,-0.0188836018783309,0.1428409308861027,-0.4945769272187553,0.4851201590146095,-0.5011214827572356,0.518583989243481,0.0,0.0,0.0,126,0.0,0,1735644242188269615,map,0.9780085370089434,0.3317187301435387,0.0263078085086602,-0.5095831985172911,0.4948149979042824,-0.4795502479626768,0.5152811284306916,0.0,0.0,0.0,0,0.0,0.949053342223192,-0.4630119580189847,0.0667051970838061,1.0,9.908921870222284e-05,0.0020830234092457,-0.0019268174897697,0.0,0.0,0.0,0.0020830234092457,0.0448218571916496,-0.0407237221027955,0.0,0.0,0.0,-0.0019268174897697,-0.0407237221027955,0.0375138189999751,0.0,0.0,0.0,0.0,0.0,0.0,0.0,0.0,0.0,0.0,0.0,0.0,0.0,0.0,0.0,0.0,0.0,0.0,0.0,0.0,0.0,0,0,0,1,4,,1
0.398407913,0,1735643777088230371,map,0.9826436102614984,-0.2207075550661998,0.0197719912904928,-0.4824145480428904,0.4968146872017858,-0.5147494762844654,0.505454594481081,0.0,0.0,0.0,1,1.330871668869804e-06,0,1735643777088253974,map,0.9880451293029804,-0.250443604783585,0.1460875041214953,-0.5057919536785352,0.5096077281670278,-0.4916661898249462,0.4926853161699777,0.0,0.0,0.0,16,7.546234394189793e-17,0,1735643777088270664,map,0.988421215751052,0.0567577632547976,0.0233254682443139,-0.4986487510809663,0.4871831520642397,-0.4898060640925189,0.5235379823549957,0.0,0.0,0.0,17,8.207965624936184e-41,0,1735643777088284730,map,1.013756709811844,-0.2564961899660838,0.2346980079998822,-0.4829942358419908,0.5317986790217628,-0.4876742752774224,0.4960650505395035,0.0,0.0,0.0,121,5.462938204000175e-29,0,1735643777088297367,map,1.0194022226786172,0.2127811176449955,0.2401787951611755,0.5285246069052764,-0.4917896008728711,0.4833480090594325,-0.4951559658402675,0.0,0.0,0.0,122,0.0,0,1735643777088310956,map,1.0089229216349345,0.2107025079498866,0.1421098879060829,-0.4884670747532781,0.5048776243765487,-0.4793356098835517,0.5260569117343027,0.0,0.0,0.0,124,0.0,0,1735643777088322877,map,1.002951014294756,-0.0250259325193917,0.2403742235217537,0.5631698784390112,-0.5160122046026692,0.4374943467838947,-0.4745205888601839,0.0,0.0,0.0,125,0.0,0,1735643777088343858,map,0.998856213264609,-0.0194806995549392,0.1436621279963849,-0.4768168729743425,0.4826225256955589,-0.5251196265032406,0.5137806391830138,0.0,0.0,0.0,126,0.0,0,1735644242188269615,map,0.9780085370089434,0.3317187301435387,0.0263078085086602,-0.5095831985172911,0.4948149979042824,-0.4795502479626768,0.5152811284306916,0.0,0.0,0.0,0,0.0,0.950828837787388,-0.4076769057733735,0.0283667413646001,1.0,9.188091295569976e-05,0.0020594072866231,-0.0018137330240861,0.0,0.0,0.0,0.0020594072866231,0.0481053577814178,-0.0410648194831897,0.0,0.0,0.0,-0.0018137330240861,-0.0410648194831897,0.0358904039477142,0.0,0.0,0.0,0.0,0.0,0.0,0.0,0.0,0.0,0.0,0.0,0.0,0.0,0.0,0.0,0.0,0.0,0.0,0.0,0.0,0.0,0,0,0,1,5,,1
0.498456133,0,1735643777088230371,map,0.9807100262544096,-0.2205940368990921,0.0204887121165917,0.4665697344834311,-0.5195565438824681,0.5312709650918751,-0.4797132916892266,0.0,0.0,0.0,1,0.0499497689306736,0,1735643777088253974,map,0.9766083216946656,-0.2482375428745464,0.1482139530500369,-0.4301403221625815,0.6818744971777526,-0.4992658555979826,0.3174272810935945,0.0,0.0,0.0,16,3.355205626576208e-05,0,1735643777088270664,map,0.9877348336410294,0.0564611251807082,0.0239120466114005,-0.4836321749037842,0.497043114884858,-0.5030595206918014,0.5157316937950668,0.0,0.0,0.0,17,2.4897427869374766e-11,0,1735643777088284730,map,1.0136835001098383,-0.2564296515549537,0.2349635053834793,0.3873448090754977,-0.5774081739567013,0.5872517215506943,-0.4143660399526,0.0,0.0,0.0,121,8.80330119912287e-09,0,1735643777088297367,map,1.0185999769693173,0.2120018424821215,0.2404476076303676,-0.5096640576368388,0.4944278795381033,-0.4904505465845676,0.5052146886656276,0.0,0.0,0.0,122,1.6608189399177732e-41,0,1735643777088310956,map,1.007767900730353,0.2100023112189044,0.1425367287996606,-0.4827027347200277,0.4983664393325421,-0.4817689716806062,0.5352827476825884,0.0,0.0,0.0,124,9.54016168799678e-31,0,1735643777088322877,map,1.0022417914123256,-0.0250496057410978,0.2406369768837796,-0.5083164146922893,0.4990293933283627,-0.4904325513627318,0.5020557735078288,0.0,0.0,0.0,125,4.334413283132402e-22,0,1735643777088343858,map,1.0099136111306657,-0.0176764116528685,0.1420501426686562,-0.4864119213306278,0.4880291027715598,-0.5174623091765737,0.507408904353364,0.0,0.0,0.0,126,7.242659400550407e-15,0,1735644242188269615,map,0.9780085370089434,0.3317187301435387,0.0263078085086602,-0.5095831985172911,0.4948149979042824,-0.4795502479626768,0.5152811284306916,0.0,0.0,0.0,0,1.8212115661696566e-29,0.9511951972012448,-0.3672260676126037,0.0143088459761209,1.0,7.723852356368963e-05,0.0017902704656455,-0.0015371953983113,0.0,0.0,0.0,0.0017902704656455,0.0482691496907254,-0.0370639511588601,0.0,0.0,0.0,-0.0015371953983113,-0.0370639511588601,0.0308967920701956,0.0,0.0,0.0,0.0,0.0,0.0,0.0,0.0,0.0,0.0,0.0,0.0,0.0,0.0,0.0,0.0,0.0,0.0,0.0,0.0,0.0,0,0,0,1,6,,1
0.59761901,0,1735643777088230371,map,0.980283694493698,-0.2210472409906448,0.0219400263913759,-0.4886905050280827,0.4872285992291367,-0.4977980802958672,0.5253446046571343,0.0,0.0,0.0,1,0.4682750105857849,0,1735643777088253974,map,0.9812348939304508,-0.249586802539502,0.148428633827053,-0.4967150828111318,0.4851894403673855,-0.4972737288076628,0.5201770584153409,0.0,0.0,0.0,16,0.0384684093296527,0,1735643777088270664,map,0.97964269603454,0.0538169743751055,0.0276659004545243,-0.4814677602429702,0.4937432036610927,-0.5037155454750737,0.5202663682498109,0.0,0.0,0.0,17,0.0002082336286548,0,1735643777088284730,map,1.0108960861475995,-0.2567068928159464,0.2370104425266871,-0.4949027872663671,0.5047765419865413,-0.4971604337527194,0.5030938052956914,0.0,0.0,0.0,121,0.0014223660109564,0,1735643777088297367,map,1.0091508480790496,0.2076488416804909,0.2421771502844305,-0.5066695892563545,0.4917587076769296,-0.4929339032175943,0.5084048266936311,0.0,0.0,0.0,122,1.017182278720784e-15,0,1735643777088310956,map,1.0087677686351153,0.211286536045531,0.1440112947135513,-0.4962793118888882,0.50821134609293,-0.4756805252127332,0.5188025734581918,0.0,0.0,0.0,124,1.0019989178655651e-11,0,1735643777088322877,map,0.9973419810905966,-0.025986309066795,0.2425358743251328,-0.4643748179502541,0.4697553125869361,-0.5230336255415522,0.5386295585120427,0.0,0.0,0.0,125,1.7758909010012758e-08,0,1735643777088343858,map,0.9923390046214252,-0.0206847474363848,0.1461750190128684,-0.465478313862008,0.4792622278174388,-0.5404736343808645,0.5113960371872149,0.0,0.0,0.0,126,9.838825462793466e-06,0,1735644242188269615,map,0.9780085370089434,0.3317187301435387,0.0263078085086602,-0.5095831985172911,0.4948149979042824,-0.4795502479626768,0.5152811284306916,0.0,0.0,0.0,0,3.217366303931435e-11,0.9504541951088232,-0.3417345951431272,0.0200224901417646,1.0,6.949895337471341e-05,0.0014211821353492,-0.0013429989893879,0.0,0.0,0.0,0.0014211821353492,0.0452724478897371,-0.0308952057756153,0.0,0.0,0.0,-0.0013429989893879,-0.0308952057756153,0.0266788390095058,0.0,0.0,0.0,0.0,0.0,0.0,0.0,0.0,0.0,0.0,0.0,0.0,0.0,0.0,0.0,0.0,0.0,0.0,0.0,0.0,0.0,0,0,0,1,7,,1
0.698069759,0,1735643777088230371,map,0.9771606235073148,-0.2214521519770211,0.0221166502068879,0.4792288574112606,-0.5073213278849121,0.5135482244488461,-0.4992324044599117,0.0,0.0,0.0,1,0.5481375455856323,0,1735643777088253974,map,0.9725277176287772,-0.2492026716016845,0.1495949444068727,-0.5012259291743286,0.4858664246735495,-0.4934800128533958,0.5188293189599886,0.0,0.0,0.0,16,0.0461639538407325,0,1735643777088270664,map,0.9841387419816218,0.055492945425919,0.0259728993294876,0.7911667125937708,-0.4257834099052214,0.1993816871366334,-0.3911657750463318,0.0,0.0,0.0,17,0.0003765856381505,0,1735643777088284730,map,1.005893198575256,-0.2568899348392439,0.2370582854999687,-0.5026429076288591,0.4981059464205474,-0.4823262100445745,0.5163351631013854,0.0,0.0,0.0,121,0.0018405786249786,0,1735643777088297367,map,1.0063797898997962,0.2075876010272449,0.2427128317799456,-0.4953131905945513,0.4790510166176495,-0.5055209008362626,0.5192529109387218,0.0,0.0,0.0,122,2.333650308584956e-15,0,1735643777088310956,map,1.0059485800545889,0.2111548716148367,0.1440816644545628,-0.4932700654652802,0.5024097980559901,-0.4745108529371356,0.5283071907310082,0.0,0.0,0.0,124,2.4153613137345428e-11,0,1735643777088322877,map,0.9960573011837732,-0.0260644255830805,0.2429673246330291,-0.501135832745088,0.50376744917501,-0.4967521012840338,0.4983157474538487,0.0,0.0,0.0,125,3.057477115930851e-08,0,1735643777088343858,map,0.9981975199812778,-0.0194783234396032,0.1453271596099575,0.5166574761776733,-0.4976944905156138,0.4857927396192744,-0.4993702639858733,0.0,0.0,0.0,126,1.768188303685747e-05,0,1735644242188269615,map,0.9780085370089434,0.3317187301435387,0.0263078085086602,-0.5095831985172911,0.4948149979042824,-0.4795502479626768,0.5152811284306916,0.0,0.0,0.0,0,8.597164646850786e-11,0.9503613581388278,-0.326442413788446,0.0181767511935295,1.0,6.087191512385994e-05,0.0012335966099594,-0.0011739246460349,0.0,0.0,0.0,0.0012335966099594,0.0412503475776112,-0.027230882676772,0.0,0.0,0.0,-0.0011739246460349,-0.027230882676772,0.0233678313991728,0.0,0.0,0.0,0.0,0.0,0.0,0.0,0.0,0.0,0.0,0.0,0.0,0.0,0.0,0.0,0.0,0.0,0.0,0.0,0.0,0.0,0,0,0,1,8,,1
0.798171391,0,1735643777088230371,map,0.9788377521899946,-0.2223465373459592,0.0206695270644072,-0.4834945505295839,0.4962892021220024,-0.5132563922767562,0.5064562402146418,0.0,0.0,0.0,1,0.5454763770103455,0,1735643777088253974,map,0.973659260579371,-0.249969456869268,0.1480655887023005,-0.4964485526302751,0.4774137203672415,-0.4871155932761341,0.5369668267068786,0.0,0.0,0.0,16,0.0353391356766223,0,1735643777088270664,map,0.976635931039964,0.052585328268897,0.026887608729915,-0.4861875445060103,0.4988835664839177,-0.5013839217243042,0.513177378394508,0.0,0.0,0.0,17,0.0001773334952304,0,1735643777088284730,map,0.9989429140666956,-0.2557821463982774,0.2358923969782752,0.3407109119769863,-0.5362154785939656,0.6469329285982353,-0.4217426002567985,0.0,0.0,0.0,121,0.0008672923431731,0,1735643777088297367,map,1.004937976604892,0.2066297855728182,0.2416513130925312,-0.5033100506066269,0.4925533425190805,-0.4967632333245843,0.5072440120381326,0.0,0.0,0.0,122,5.856517484469751e-17,0,1735643777088310956,map,1.0039319901260106,0.2098985738009395,0.1433369208120804,-0.493781399740325,0.5102636195811526,-0.4767806762356388,0.5181613209905901,0.0,0.0,0.0,124,1.816142830741996e-12,0,1735643777088322877,map,0.9909999173068188,-0.0275323825755484,0.2415868636981051,0.5048991308931184,-0.5045890559585345,0.4937734569026832,-0.4966432577702256,0.0,0.0,0.0,125,4.948896847878359e-09,0,1735643777088343858,map,0.993307901253614,-0.0210994031039222,0.1448537737211135,0.6829023642856895,-0.4606779671715164,0.3250304915882731,-0.4645162547786894,0.0,0.0,0.0,126,5.740207598137204e-06,0,1735644242188269615,map,0.9780085370089434,0.3317187301435387,0.0263078085086602,-0.5095831985172911,0.4948149979042824,-0.4795502479626768,0.5152811284306916,0.0,0.0,0.0,0,7.0022421021220804e-12,0.9506413328980132,-0.3162851526466622,0.0118281242269855,1.0,5.473545592523377e-05,0.0011192805339011,-0.0010577082167022,0.0,0.0,0.0,0.0011192805339011,0.0374923352557624,-0.0247211063419472,0.0,0.0,0.0,-0.0010577082167022,-0.0247211063419472,0.0210938462030362,0.0,0.0,0.0,0.0,0.0,0.0,0.0,0.0,0.0,0.0,0.0,0.0,0.0,0.0,0.0,0.0,0.0,0.0,0.0,0.0,0.0,0,0,0,1,9,,1
0.89875445,0,1735643777088230371,map,0.975997799100042,-0.2220907421412599,0.0212358994526865,-0.4929984389687653,0.5048415793175709,-0.4947399888477975,0.5072670523515035,0.0,0.0,0.0,1,0.5965614914894104,0,1735643777088253974,map,0.9775160689431543,-0.2509503281198103,0.1479571844096775,-0.5069880232968372,0.5027705262240406,-0.489333173309939,0.5007374438689329,0.0,0.0,0.0,16,0.040968045592308,0,1735643777088270664,map,0.9877267644381872,0.0568491953636153,0.0230828161603304,0.5090453687455455,-0.5035400218439549,0.4880312930450538,-0.499144984918084,0.0,0.0,0.0,17,0.0002740806958172,0,1735643777088284730,map,1.0046747999506187,-0.2572357537855433,0.2362988754855052,0.360847301393935,-0.5599298670060407,0.6191037383845382,-0.4159066364337096,0.0,0.0,0.0,121,0.0009495676495134,0,1735643777088297367,map,1.0039175843467611,0.2071564396933233,0.2417894671982895,0.5145498748131397,-0.5050156782321664,0.494942649874262,-0.4850044993656566,0.0,0.0,0.0,122,6.820665971571759e-17,0,1735643777088310956,map,1.000286110051253,0.2087288390485107,0.1439388768822467,-0.4830196353806748,0.4997720455501281,-0.4849274795231753,0.5308156685014692,0.0,0.0,0.0,124,2.7617977349514437e-12,0,1735643777088322877,map,0.99086374391403,-0.0268342765354487,0.2418509299109821,-0.438408482558997,0.4812128425099674,-0.5402640009903455,0.5332419824598391,0.0,0.0,0.0,125,5.302172922938553e-09,0,1735643777088343858,map,0.9931734595780176,-0.0204398253235806,0.1452077233745974,0.4877923143824089,-0.4996918991295725,0.515734927042584,-0.4963709792102225,0.0,0.0,0.0,126,7.1104996095527895e-06,0,1735644242188269615,map,0.9780085370089434,0.3317187301435387,0.0263078085086602,-0.5095831985172911,0.4948149979042824,-0.4795502479626768,0.5152811284306916,0.0,0.0,0.0,0,1.2907235176495836e-11,0.95068495425233,-0.302555452196884,0.008267093440368,1.0,4.927903573568245e-05,0.0010127426536629,-0.0009533354279031,0.0,0.0,0.0,0.0010127426536629,0.0354396438001519,-0.0226890226816868,0.0,0.0,0.0,-0.0009533354279031,-0.0226890226816868,0.0190985900451017,0.0,0.0,0.0,0.0,0.0,0.0,0.0,0.0,0.0,0.0,0.0,0.0,0.0,0.0,0.0,0.0,0.0,0.0,0.0,0.0,0.0,0,0,0,1,10,,1
0.996843929,0,1735643777088230371,map,0.9765584917030484,-0.2223192649611129,0.0214761252368947,-0.5451118269525275,0.7207988905200964,-0.3314591260829471,0.2709924413665538,0.0,0.0,0.0,1,0.6415229439735413,0,1735643777088253974,map,0.9725015643020376,-0.2502547507779025,0.148725666472807,-0.5209203101990622,0.4872358257682849,-0.4716282408891915,0.5184689796948102,0.0,0.0,0.0,16,0.0410619415342807,0,1735643777088270664,map,0.9788363540474634,0.0538088045090389,0.0260585233014062,-0.4958634365028568,0.5027211918069843,-0.4969612218312469,0.5044010305736271,0.0,0.0,0.0,17,0.0003131512203253,0,1735643777088284730,map,0.999068151032271,-0.2567095877285424,0.2367995063832157,-0.5078995848297472,0.5258710298616942,-0.4707377447300906,0.4938660216783491,0.0,0.0,0.0,121,0.0008640713640488,0,1735643777088297367,map,1.004515446532794,0.2078803803539329,0.2425895675747166,-0.5091277359920245,0.4952620335066403,-0.4912879075077124,0.5041236540246813,0.0,0.0,0.0,122,4.6240941415098496e-17,0,1735643777088310956,map,0.9965584990267952,0.207261125221499,0.1446381153087856,-0.4804841660132793,0.5039852671479201,-0.4898465539201785,0.5245799942057346,0.0,0.0,0.0,124,2.8580497343777544e-12,0,1735643777088322877,map,0.988194921486536,-0.0274854451033463,0.2422068586009415,-0.5062058144295263,0.5376768677622271,-0.4884974975839908,0.4647896881013169,0.0,0.0,0.0,125,4.8833763699462915e-09,0,1735643777088343858,map,0.9943809358209068,-0.020196418759538,0.1449222985716806,-0.4974390331050377,0.4838913813301532,-0.509120589816771,0.5091166511149924,0.0,0.0,0.0,126,7.935492249089293e-06,0,1735644242188269615,map,0.9780085370089434,0.3317187301435387,0.0263078085086602,-0.5095831985172911,0.4948149979042824,-0.4795502479626768,0.5152811284306916,0.0,0.0,0.0,0,1.4966451689080174e-11,0.9506552082771448,-0.2927293419398272,0.0066326595655913,1.0,4.480797162647216e-05,0.0009177522673748,-0.0008661823925262,0.0,0.0,0.0,0.0009177522673748,0.0331833824279765,-0.0207869855306931,0.0,0.0,0.0,-0.0008661823925262,-0.0207869855306931,0.0173890683273663,0.0,0.0,0.0,0.0,0.0,0.0,0.0,0.0,0.0,0.0,0.0,0.0,0.0,0.0,0.0,0.0,0.0,0.0,0.0,0.0,0.0,0,0,0,1,11,,1
1.097891097,0,1735643777088230371,map,0.9751724511504812,-0.2230730339946374,0.0224753249184424,0.4849149563212431,-0.5043167496480969,0.5117658128856722,-0.4986159382950096,0.0,0.0,0.0,1,0.6974101066589355,0,1735643777088253974,map,0.9777206741345424,-0.2524277278772844,0.1496494467924008,-0.505492587431363,0.5074745407589819,-0.4925136113177543,0.4943452004421104,0.0,0.0,0.0,16,0.0529852248728275,0,1735643777088270664,map,0.984546023992848,0.056275440433719,0.0249830600832781,-0.5090101295146388,0.4946075461407572,-0.48218763966487,0.5135826549899554,0.0,0.0,0.0,17,0.0004931613220833,0,1735643777088284730,map,0.9959844272407514,-0.2570117529964354,0.2384562796316069,-0.4567447441739248,0.4649444096315103,-0.5325079970901165,0.540042746138651,0.0,0.0,0.0,121,0.0010758904973044,0,1735643777088297367,map,1.0050514801859094,0.2101017477972848,0.2445496696712646,-0.512158550461936,0.4875805602843693,-0.4959535035657332,0.5039731527793756,0.0,0.0,0.0,122,1.0738456726929935e-16,0,1735643777088310956,map,0.9984244257682492,0.2099664114308886,0.1460313082227528,-0.4896227851590379,0.5050133655907948,-0.4800833552314589,0.5241669589524603,0.0,0.0,0.0,124,5.813116047553857e-12,0,1735643777088322877,map,0.9869980382391365,-0.0276796516621535,0.2442166853264451,0.4724928300049687,-0.5115329388505608,0.5212319218066638,-0.4933577421653948,0.0,0.0,0.0,125,8.686035002369863e-09,0,1735643777088343858,map,0.9905944395095224,-0.0217547881212497,0.1468420989079457,-0.485762352225437,0.4839433041126342,-0.5161746513065844,0.5132227049863279,0.0,0.0,0.0,126,1.332880674453918e-05,0,1735644242188269615,map,0.9780085370089434,0.3317187301435387,0.0263078085086602,-0.5095831985172911,0.4948149979042824,-0.4795502479626768,0.5152811284306916,0.0,0.0,0.0,0,4.039340389949686e-11,0.9504805424607466,-0.2854406894493443,0.0077084625026593,1.0,4.140956361253164e-05,0.0008272690489456,-0.0007960674924635,0.0,0.0,0.0,0.0008272690489456,0.0310024695653757,-0.0189684840451469,0.0,0.0,0.0,-0.0007960674924635,-0.0189684840451469,0.0159527101716392,0.0,0.0,0.0,0.0,0.0,0.0,0.0,0.0,0.0,0.0,0.0,0.0,0.0,0.0,0.0,0.0,0.0,0.0,0.0,0.0,0.0,0,0,0,1,12,,1
1.197788932,0,1735643777088230371,map,0.970257698069356,-0.2228213079848949,0.0236276967307794,-0.489928905488769,0.4932032965288772,-0.5017686807422467,0.5147313540924147,0.0,0.0,0.0,1,0.6655642986297607,0,1735643777088253974,map,0.9741939650122676,-0.2518477161094992,0.1495067532424759,-0.5047986090116251,0.5112162169713614,-0.4931812963775355,0.4905186568814603,0.0,0.0,0.0,16,0.040513627231121,0,1735643777088270664,map,0.9804470337373404,0.0550407465384863,0.0258078470262196,-0.4996339648279376,0.5021456823930732,-0.4940964082476627,0.5040678071460915,0.0,0.0,0.0,17,0.0002703584323171,0,1735643777088284730,map,0.9961413963374368,-0.2576521164587358,0.2384315014457844,-0.4840917860756907,0.4884543117907764,-0.5029807737680209,0.5235244685463802,0.0,0.0,0.0,121,0.0006197722395882,0,1735643777088297367,map,1.0036981301616172,0.2098671752943148,0.2443595214439015,-0.5023315110885057,0.4862486766812324,-0.4982200034355821,0.5128373090658845,0.0,0.0,0.0,122,5.4398879511865956e-18,0,1735643777088310956,map,0.9957081041665532,0.2087421479686943,0.1459647654532213,-0.4856727237890416,0.502026685765925,-0.4837067610451054,0.5273698715943753,0.0,0.0,0.0,124,7.751561979102428e-13,0,1735643777088322877,map,0.9939163707302092,-0.0260692101085587,0.2441187432746907,-0.481100371722661,0.4768605376298266,-0.5061823138459687,0.5337845306200353,0.0,0.0,0.0,125,1.787881842574279e-09,0,1735643777088343858,map,0.9893331864402772,-0.0212084098331627,0.1470325600795134,0.5075015235972192,-0.5017004836888154,0.4934357181597566,-0.4972524713433559,0.0,0.0,0.0,126,5.081215022073593e-06,0,1735644242188269615,map,0.9780085370089434,0.3317187301435387,0.0263078085086602,-0.5095831985172911,0.4948149979042824,-0.4795502479626768,0.5152811284306916,0.0,0.0,0.0,0,5.982154008266072e-12,0.9505959142704492,-0.281627958705086,0.0051712706741706,1.0,3.838394041910249e-05,0.0007689115480079,-0.0007383441764585,0.0,0.0,0.0,0.0007689115480079,0.0287921072029315,-0.0176254534392906,0.0,0.0,0.0,-0.0007383441764585,-0.0176254534392906,0.0148028267284692,0.0,0.0,0.0,0.0,0.0,0.0,0.0,0.0,0.0,0.0,0.0,0.0,0.0,0.0,0.0,0.0,0.0,0.0,0.0,0.0,0.0,0,0,0,1,13,,1
1.298812425,0,1735643777088230371,map,0.9721274171554486,-0.224196072205656,0.0219619262838274,-0.4873657861868891,0.5029583297967869,-0.4992403212649042,0.5101633175423117,0.0,0.0,0.0,1,0.6457825899124146,0,1735643777088253974,map,0.9701141420551858,-0.252370469928642,0.1489987348051106,-0.5069860214722659,0.4946282443505327,-0.4838580255782614,0.5139936624180684,0.0,0.0,0.0,16,0.0363227017223835,0,1735643777088270664,map,0.9770927852289883,0.052676171467439,0.0257335544623445,-0.4927081264436506,0.4973001258457614,-0.4958129593915672,0.5139073810226444,0.0,0.0,0.0,17,0.0002149230713257,0,1735643777088284730,map,0.9982760251503566,-0.2590347488841817,0.237773920758531,0.3745946155711981,-0.5876692379001125,0.5903073764402235,-0.4072602879378589,0.0,0.0,0.0,121,0.0006080791936255,0,1735643777088297367,map,0.9978863219331988,0.2062219966748191,0.2437001271626419,0.510073763024455,-0.497463996095297,0.4937683051383213,-0.4985450728909074,0.0,0.0,0.0,122,6.374526356345468e-18,0,1735643777088310956,map,0.9895926353710418,0.2048107178947746,0.1457978083188975,-0.4750310492587487,0.5019835577778657,-0.4967131961987664,0.5250085815325445,0.0,0.0,0.0,124,7.016591084194057e-13,0,1735643777088322877,map,0.9869818878925511,-0.0283173146380489,0.2431840404901554,0.5065573540257511,-0.5032304751241271,0.4920234048509002,-0.4980679723368114,0.0,0.0,0.0,125,1.879959965478406e-09,0,1735643777088343858,map,0.9854190865324576,-0.0226019649756416,0.1466002662579254,0.4927781531042635,-0.5112630876223283,0.5150389558032853,-0.4801193820948037,0.0,0.0,0.0,126,4.384043677418958e-06,0,1735644242188269615,map,0.9780085370089434,0.3317187301435387,0.0263078085086602,-0.5095831985172911,0.4948149979042824,-0.4795502479626768,0.5152811284306916,0.0,0.0,0.0,0,3.059080766476541e-12,0.9510112052127634,-0.2800994430361289,-0.0013794002752593,1.0,3.788429575715248e-05,0.0007222414178413,-0.0007209709527594,0.0,0.0,0.0,0.0007222414178413,0.026765900798961,-0.0164966589207903,0.0,0.0,0.0,-0.0007209709527594,-0.0164966589207903,0.0143033287306902,0.0,0.0,0.0,0.0,0.0,0.0,0.0,0.0,0.0,0.0,0.0,0.0,0.0,0.0,0.0,0.0,0.0,0.0,0.0,0.0,0.0,0,0,0,1,14,,1
1.397958729,0,1735643777088230371,map,0.9679182809687126,-0.2241246628789996,0.0227872712614699,-0.4881347236476477,0.4990920287701173,-0.498286333095186,0.5141423622287086,0.0,0.0,0.0,1,0.5939828157424927,0,1735643777088253974,map,0.9777031440343552,-0.254531817854348,0.1478383412937706,-0.5042906511217826,0.5087788459337703,-0.4932598178090757,0.4934873628133012,0.0,0.0,0.0,16,0.037867784500122,0,1735643777088270664,map,0.972997469831138,0.0513391024404104,0.0266055631300082,-0.4844732133243576,0.5077585549732305,-0.5070766058548352,0.5003401555116365,0.0,0.0,0.0,17,0.00017315603327,0,1735643777088284730,map,1.000476389349287,-0.2601278884832898,0.2380769289860493,0.4473788777261657,-0.521882621546344,0.5352247105195483,-0.4909431518431209,0.0,0.0,0.0,121,0.0006234167376533,0,1735643777088297367,map,0.9933131948256284,0.2039970920353493,0.2433082444274083,-0.5065624283140928,0.4968393342118812,-0.4935311021695005,0.5029634513478909,0.0,0.0,0.0,122,1.1517952362402752e-17,0,1735643777088310956,map,0.9908713510980722,0.2064450841822957,0.1454833175325078,-0.4814891396511727,0.503919889864989,-0.4861688104270238,0.5271364536478236,0.0,0.0,0.0,124,6.504112569707954e-13,0,1735643777088322877,map,0.9900173288005434,-0.0276613507749935,0.243645680387012,0.5417620328132363,-0.4992838328701921,0.4605025790034048,-0.4951231450535643,0.0,0.0,0.0,125,2.084598271778759e-09,0,1735643777088343858,map,0.9925323200300916,-0.0208267897086944,0.1455699277750365,0.5075673027850987,-0.5008977039742069,0.4935759351413044,-0.4978551190318472,0.0,0.0,0.0,126,4.255515250406461e-06,0,1735644242188269615,map,0.9780085370089434,0.3317187301435387,0.0263078085086602,-0.5095831985172911,0.4948149979042824,-0.4795502479626768,0.5152811284306916,0.0,0.0,0.0,0,2.2368528470456672e-12,0.9514220795650776,-0.2791825495813306,-0.0077343498608674,1.0,3.772212430746261e-05,0.0006793661820466,-0.0007094614237051,0.0,0.0,0.0,0.0006793661820466,0.0249932771228679,-0.0154784570229329,0.0,0.0,0.0,-0.0007094614237051,-0.0154784570229329,0.0139151688612762,0.0,0.0,0.0,0.0,0.0,0.0,0.0,0.0,0.0,0.0,0.0,0.0,0.0,0.0,0.0,0.0,0.0,0.0,0.0,0.0,0.0,0,0,0,1,15,,1
1.498119642,0,1735643777088230371,map,0.9651960682180444,-0.2238862454610977,0.023346038219655,-0.4857506291554457,0.5084622414755339,-0.5070789040428562,0.498380838660016,0.0,0.0,0.0,1,0.5492321252822876,0,1735643777088253974,map,0.9621053051641356,-0.2518199201993193,0.1497795967579422,-0.5198827714699907,0.4827823563376422,-0.4706820290626046,0.524501218163757,0.0,0.0,0.0,16,0.0245287735015153,0,1735643777088270664,map,0.972672159888854,0.05274450517919,0.0263492086203683,-0.5035256915390411,0.4922486231134836,-0.4889838717120769,0.5148280724751487,0.0,0.0,0.0,17,9.277674689656124e-05,0,1735643777088284730,map,0.987383187933192,-0.2578403598847331,0.2382524677723566,0.3352765894931354,-0.5194674988393467,0.6519814800032065,-0.4389342501107353,0.0,0.0,0.0,121,0.0003436804981902,0,1735643777088297367,map,0.9973370345446336,0.2096430874553884,0.2450179594527264,-0.5090154943018418,0.4850841230940565,-0.4929712518561912,0.5124216671122152,0.0,0.0,0.0,122,6.970147992774355e-19,0,1735643777088310956,map,0.985554726381742,0.2057779683118011,0.1466870995817914,-0.4815097657825734,0.4989520017136123,-0.4857014856101415,0.5322492952725183,0.0,0.0,0.0,124,1.2151950723893884e-13,0,1735643777088322877,map,0.982552687367464,-0.0282759433074913,0.244698684680681,0.5205665830425816,-0.5137837786387144,0.4744525066592746,-0.4898280109914362,0.0,0.0,0.0,125,6.364258009483591e-10,0,1735643777088343858,map,0.9862033076764932,-0.0210954362610245,0.1470145583912563,0.5236672303602962,-0.5038624356960227,0.4818121018876117,-0.489645153367099,0.0,0.0,0.0,126,1.8075234038406047e-06,0,1735644242188269615,map,0.9780085370089434,0.3317187301435387,0.0263078085086602,-0.5095831985172911,0.4948149979042824,-0.4795502479626768,0.5152811284306916,0.0,0.0,0.0,0,4.573329562274075e-13,0.9516606917278064,-0.2774742051715986,-0.0116739016097619,1.0,3.62185280012792e-05,0.0006430202719831,-0.0006792204591683,0.0,0.0,0.0,0.0006430202719831,0.0234749739120226,-0.0146120051271057,0.0,0.0,0.0,-0.0006792204591683,-0.0146120051271057,0.0132782718271797,0.0,0.0,0.0,0.0,0.0,0.0,0.0,0.0,0.0,0.0,0.0,0.0,0.0,0.0,0.0,0.0,0.0,0.0,0.0,0.0,0.0,0,0,0,1,16,,1
1.596866343,0,1735643777088230371,map,0.9667058196460564,-0.2243033951889886,0.022574382669283,-0.4827768748663069,0.5204992896943266,-0.5069654888967897,0.4888690740777771,0.0,0.0,0.0,1,0.5243041515350342,0,1735643777088253974,map,0.9701829537133616,-0.2536187048448731,0.1491924946557865,-0.5065345878223192,0.5025484803361893,-0.4828201921544692,0.5076932127765565,0.0,0.0,0.0,16,0.0242455024272203,0,1735643777088270664,map,0.9695155812795716,0.0522129352281499,0.0272552507628037,-0.4939428345283773,0.4993966229463263,-0.4961873274621142,0.5103152214797062,0.0,0.0,0.0,17,7.117791392374784e-05,0,1735643777088284730,map,0.989555625965462,-0.2587075444992716,0.2391480263140462,-0.4800463737904397,0.5147468872920617,-0.5013873802456287,0.5031916294655631,0.0,0.0,0.0,121,0.0003061382158193,0,1735643777088297367,map,0.9973370345446336,0.2096430874553884,0.2450179594527264,-0.5090154943018418,0.4850841230940565,-0.4929712518561912,0.5124216671122152,0.0,0.0,0.0,122,6.997759281621375e-19,0,1735643777088310956,map,0.985554726381742,0.2057779683118011,0.1466870995817914,-0.4815097657825734,0.4989520017136123,-0.4857014856101415,0.5322492952725183,0.0,0.0,0.0,124,1.025211680957469e-13,0,1735643777088322877,map,0.9782853543648248,-0.028516626822774,0.2445099581054998,-0.5057006099693729,0.5256517261323632,-0.4896324260845384,0.4777208842171755,0.0,0.0,0.0,125,6.08796679735235e-10,0,1735643777088343858,map,0.9831735507115412,-0.0212891497387315,0.1471994097702378,-0.483132922085342,0.4746969476099649,-0.5168108894774076,0.5235951604480623,0.0,0.0,0.0,126,1.5429271797984256e-06,0,1735644242188269615,map,0.9780085370089434,0.3317187301435387,0.0263078085086602,-0.5095831985172911,0.4948149979042824,-0.4795502479626768,0.5152811284306916,0.0,0.0,0.0,0,3.096666532139553e-13,0.9519520193110264,-0.2780602160913852,-0.0159181119476449,1.0,3.5445974526061834e-05,0.0006024640117817,-0.000659049603158,0.0,0.0,0.0,0.0006024640117817,0.0220995876344381,-0.0137126809560846,0.0,0.0,0.0,-0.000659049603158,-0.0137126809560846,0.0127854101560913,0.0,0.0,0.0,0.0,0.0,0.0,0.0,0.0,0.0,0.0,0.0,0.0,0.0,0.0,0.0,0.0,0.0,0.0,0.0,0.0,0.0,0,0,0,1,17,,1
1.697536499,0,1735643777088230371,map,0.9622031758520208,-0.2249836858285064,0.0234031727669457,-0.4861961979598792,0.5000895493432749,-0.5072504123210864,0.5061824956743234,0.0,0.0,0.0,1,0.5317224860191345,0,1735643777088253974,map,0.9614418288433848,-0.2531609705683555,0.1491155282052534,-0.508178159852871,0.4745314819443322,-0.4859526765616692,0.5295515335024684,0.0,0.0,0.0,16,0.0435020290315151,0,1735643777088270664,map,0.9689750903325088,0.0506792816147587,0.0267625296354878,-0.4862053453119319,0.5033950790065549,-0.5017028233820926,0.5084211183974625,0.0,0.0,0.0,17,0.0003761278057936,0,1735643777088284730,map,0.9857426442201218,-0.2590535985799186,0.2381653970830217,0.3303473177988009,-0.5055506706074928,0.6599498731045429,-0.4469399669538968,0.0,0.0,0.0,121,0.0014976243255659,0,1735643777088297367,map,0.9973370345446336,0.2096430874553884,0.2450179594527264,-0.5090154943018418,0.4850841230940565,-0.4929712518561912,0.5124216671122152,0.0,0.0,0.0,122,6.341030521164357e-15,0,1735643777088310956,map,0.985554726381742,0.2057779683118011,0.1466870995817914,-0.4815097657825734,0.4989520017136123,-0.4857014856101415,0.5322492952725183,0.0,0.0,0.0,124,4.661628721924771e-11,0,1735643777088322877,map,0.9819238044323516,-0.0289671278152839,0.2446135423347016,0.5215237946729451,-0.5148326228826956,0.4753458941378831,-0.4868332188048723,0.0,0.0,0.0,125,6.263266527639645e-08,0,1735643777088343858,map,0.9814287085415648,-0.0228828706077174,0.1470382295387522,-0.4935630267832768,0.4870896909635707,-0.5073910833098326,0.511559830447249,0.0,0.0,0.0,126,2.4633860448375344e-05,0,1735644242188269615,map,0.9780085370089434,0.3317187301435387,0.0263078085086602,-0.5095831985172911,0.4948149979042824,-0.4795502479626768,0.5152811284306916,0.0,0.0,0.0,0,5.410912690129166e-11,0.9525018561920736,-0.2819585840779711,-0.0233371995335917,1.0,3.861620384696979e-05,0.0005325548584913,-0.0006917836319499,0.0,0.0,0.0,0.0005325548584913,0.0211301864061584,-0.0124591856773228,0.0,0.0,0.0,-0.0006917836319499,-0.0124591856773228,0.0130108382221991,0.0,0.0,0.0,0.0,0.0,0.0,0.0,0.0,0.0,0.0,0.0,0.0,0.0,0.0,0.0,0.0,0.0,0.0,0.0,0.0,0.0,0,0,0,1,18,,1
1.79589248,0,1735643777088230371,map,0.9621106229493336,-0.2252230424798778,0.0234889355244422,-0.4908572845133097,0.4929791511151927,-0.4991572133833662,0.5165972891269527,0.0,0.0,0.0,1,0.5204952955245972,0,1735643777088253974,map,0.9674395013095306,-0.254561118810836,0.1491175535166985,-0.5079107833226435,0.5094013950839814,-0.4890559624805329,0.493316450600739,0.0,0.0,0.0,16,0.0552571900188922,0,1735643777088270664,map,0.9706832630556044,0.052502459270845,0.0262788995087506,-0.499984284941279,0.5017889120954809,-0.4944060469371787,0.5037720350136,0.0,0.0,0.0,17,0.0006126658990979,0,1735643777088284730,map,0.9849838609593082,-0.2589342956283937,0.2391702455865585,0.3317782271312713,-0.515026308885128,0.6551087551600148,-0.4421579220940035,0.0,0.0,0.0,121,0.0024961910676211,0,1735643777088297367,map,0.9973370345446336,0.2096430874553884,0.2450179594527264,-0.5090154943018418,0.4850841230940565,-0.4929712518561912,0.5124216671122152,0.0,0.0,0.0,122,2.3616175746747625e-13,0,1735643777088310956,map,0.985554726381742,0.2057779683118011,0.1466870995817914,-0.4815097657825734,0.4989520017136123,-0.4857014856101415,0.5322492952725183,0.0,0.0,0.0,124,4.970853173524857e-10,0,1735643777088322877,map,0.9803448415924813,-0.0280309521918716,0.2455069383787081,-0.4993347460183609,0.5217608046345623,-0.4956388046114242,0.4824651796028719,0.0,0.0,0.0,125,3.400488708393823e-07,0,1735643777088343858,map,0.9771329395427364,-0.0229357670544567,0.1477999919845546,0.4864184847462674,-0.4999990306136655,0.52011858468329,-0.4928231781781284,0.0,0.0,0.0,126,6.449586362577975e-05,0,1735644242188269615,map,0.9780085370089434,0.3317187301435387,0.0263078085086602,-0.5095831985172911,0.4948149979042824,-0.4795502479626768,0.5152811284306916,0.0,0.0,0.0,0,3.5863692571247436e-10,0.9529639916715956,-0.2852107085620061,-0.0295780839205041,1.0,4.042801769134635e-05,0.0004774730574707,-0.0007072883808886,0.0,0.0,0.0,0.0004774730574707,0.020208444978024,-0.0114381086702261,0.0,0.0,0.0,-0.0007072883808886,-0.0114381086702261,0.0130271327458905,0.0,0.0,0.0,0.0,0.0,0.0,0.0,0.0,0.0,0.0,0.0,0.0,0.0,0.0,0.0,0.0,0.0,0.0,0.0,0.0,0.0,0,0,0,1,19,,1
1.898054306,0,1735643777088230371,map,0.9625541695899372,-0.2253997983649991,0.0235934079290689,-0.4870093910443541,0.5129317835562074,-0.4999194595111002,0.4998033337769814,0.0,0.0,0.0,1,0.4905228018760681,0,1735643777088253974,map,0.9622943033388636,-0.2539046434885537,0.150091066346357,-0.5022560225815962,0.4768838136132843,-0.4916929242938176,0.527786684460265,0.0,0.0,0.0,16,0.0459397993981838,0,1735643777088270664,map,0.9655130903242736,0.0507593093059814,0.0282197252076508,-0.4882058264372782,0.4994486547522954,-0.4990528639763139,0.5129837728972086,0.0,0.0,0.0,17,0.0004615444049704,0,1735643777088284730,map,0.9839021818637248,-0.2591517824309057,0.2403576112590372,-0.4979514032293575,0.5334993934280424,-0.4789235230593434,0.4879088606433083,0.0,0.0,0.0,121,0.0019506308017298,0,1735643777088297367,map,0.9973370345446336,0.2096430874553884,0.2450179594527264,-0.5090154943018418,0.4850841230940565,-0.4929712518561912,0.5124216671122152,0.0,0.0,0.0,122,1.3827778982608565e-13,0,1735643777088310956,map,0.985554726381742,0.2057779683118011,0.1466870995817914,-0.4815097657825734,0.4989520017136123,-0.4857014856101415,0.5322492952725183,0.0,0.0,0.0,124,3.077516019800441e-10,0,1735643777088322877,map,0.9830882940741345,-0.0269082169650348,0.2470639887223143,-0.5109858448878705,0.4806636601309203,-0.4827027862044039,0.5242651355414372,0.0,0.0,0.0,125,2.139243520105083e-07,0,1735643777088343858,map,0.9799808884080312,-0.0219298495328263,0.1486334850081886,-0.663380540717561,0.3700931413633861,-0.3203967348645901,0.565953405503639,0.0,0.0,0.0,126,4.6157059841789305e-05,0,1735644242188269615,map,0.9780085370089434,0.3317187301435387,0.0263078085086602,-0.5095831985172911,0.4948149979042824,-0.4795502479626768,0.5152811284306916,0.0,0.0,0.0,0,1.9858722999366307e-10,0.9531884580956514,-0.2868158169580542,-0.0326039797906583,1.0,3.936393514181917e-05,0.0004467538387014,-0.0006848289903294,0.0,0.0,0.0,0.0004467538387014,0.019246973815421,-0.0107739223102465,0.0,0.0,0.0,-0.0006848289903294,-0.0107739223102465,0.0125497409791193,0.0,0.0,0.0,0.0,0.0,0.0,0.0,0.0,0.0,0.0,0.0,0.0,0.0,0.0,0.0,0.0,0.0,0.0,0.0,0.0,0.0,0,0,0,1,20,,1
1.997621938,0,1735643777088230371,map,0.9607155945361868,-0.2252657633904422,0.0239917208091691,-0.4926210566207473,0.5005785679896232,-0.4962569563377231,0.5103671473848367,0.0,0.0,0.0,1,0.4894768297672272,0,1735643777088253974,map,0.964115505170539,-0.2543200249676247,0.1501103760111934,-0.4726853527415898,0.4885183635731539,-0.5256175775803477,0.5115120017105501,0.0,0.0,0.0,16,0.044669535011053,0,1735643777088270664,map,0.9624266904774866,0.0499737027020313,0.0290002367595647,-0.4815824313107107,0.5018478876828427,-0.5072073004686015,0.5088888030134749,0.0,0.0,0.0,17,0.0003764251014217,0,1735643777088284730,map,0.9801638549264218,-0.2585725921234919,0.2403602975559729,-0.5086371320988385,0.5125195383783766,-0.4763151254634989,0.5017328889811551,0.0,0.0,0.0,121,0.0016784778563305,0,1735643777088297367,map,0.9973370345446336,0.2096430874553884,0.2450179594527264,-0.5090154943018418,0.4850841230940565,-0.4929712518561912,0.5124216671122152,0.0,0.0,0.0,122,5.849722697339951e-14,0,1735643777088310956,map,0.985554726381742,0.2057779683118011,0.1466870995817914,-0.4815097657825734,0.4989520017136123,-0.4857014856101415,0.5322492952725183,0.0,0.0,0.0,124,1.6327100782476123e-10,0,1735643777088322877,map,0.9775903791408276,-0.0276597341255509,0.2467080864356275,0.5190770801763499,-0.5107372735379307,0.4794500823296303,-0.4897285378745525,0.0,0.0,0.0,125,1.5024095034732454e-07,0,1735643777088343858,map,0.9763017246202964,-0.0219492474682546,0.1489586209094795,-0.4976862374815509,0.4819213843535594,-0.5031102189065576,0.5166626519848343,0.0,0.0,0.0,126,3.534607094479725e-05,0,1735644242188269615,map,0.9780085370089434,0.3317187301435387,0.0263078085086602,-0.5095831985172911,0.4948149979042824,-0.4795502479626768,0.5152811284306916,0.0,0.0,0.0,0,9.807517298288103e-11,0.9530646085615928,-0.2861029861887117,-0.0308978550600995,1.0,3.779623618155772e-05,0.0004237141712094,-0.0006564441410865,0.0,0.0,0.0,0.0004237141712094,0.0183406138068963,-0.0102365548266254,0.0,0.0,0.0,-0.0006564441410865,-0.0102365548266254,0.0120103514977524,0.0,0.0,0.0,0.0,0.0,0.0,0.0,0.0,0.0,0.0,0.0,0.0,0.0,0.0,0.0,0.0,0.0,0.0,0.0,0.0,0.0,0,0,0,1,21,,1
2.097371444,0,1735643777088230371,map,0.9585746998690224,-0.2248361106718726,0.0255515691192942,-0.4910782161512245,0.4969204798690921,-0.4960050265105826,0.5156464253581505,0.0,0.0,0.0,1,0.4929882884025574,0,1735643777088253974,map,0.9637257175396224,-0.2541129681496991,0.1513538324535895,-0.5071001375372068,0.5083784150879266,-0.4898952689167374,0.4943717862858186,0.0,0.0,0.0,16,0.0448950082063674,0,1735643777088270664,map,0.9579568133452928,0.0479268808828899,0.0313692378932608,-0.4817773371774191,0.4955003110939749,-0.5006091294783943,0.5213065687010794,0.0,0.0,0.0,17,0.0003647803969215,0,1735643777088284730,map,0.9801770684699028,-0.2584997395258699,0.2414826480721994,-0.4936391008866743,0.5038605985705066,-0.4895023355069268,0.5126718237013129,0.0,0.0,0.0,121,0.0016524252714589,0,1735643777088297367,map,0.9973370345446336,0.2096430874553884,0.2450179594527264,-0.5090154943018418,0.4850841230940565,-0.4929712518561912,0.5124216671122152,0.0,0.0,0.0,122,4.910917457195616e-14,0,1735643777088310956,map,0.985554726381742,0.2057779683118011,0.1466870995817914,-0.4815097657825734,0.4989520017136123,-0.4857014856101415,0.5322492952725183,0.0,0.0,0.0,124,1.4336214160248772e-10,0,1735643777088322877,map,0.9792077463761988,-0.0266466320049143,0.2483938033371966,-0.5017763471859304,0.4977065192272303,-0.4847700033920277,0.5152734826621223,0.0,0.0,0.0,125,1.2793339010386262e-07,0,1735643777088343858,map,0.9747777361890696,-0.0218509997539569,0.1502304118683345,-0.5070203446060544,0.4968662103197431,-0.4932471051266647,0.5027540477034665,0.0,0.0,0.0,126,3.3446005545556545e-05,0,1735644242188269615,map,0.9780085370089434,0.3317187301435387,0.0263078085086602,-0.5095831985172911,0.4948149979042824,-0.4795502479626768,0.5152811284306916,0.0,0.0,0.0,0,7.714079375276127e-11,0.9528995930153776,-0.2846877382787988,-0.0287231912916142,1.0,3.665005818638058e-05,0.0003995501401098,-0.0006341416909585,0.0,0.0,0.0,0.0003995501401098,0.0175490110025233,-0.0097066254245452,0.0,0.0,0.0,-0.0006341416909585,-0.0097066254245452,0.011563738842298,0.0,0.0,0.0,0.0,0.0,0.0,0.0,0.0,0.0,0.0,0.0,0.0,0.0,0.0,0.0,0.0,0.0,0.0,0.0,0.0,0.0,0,0,0,1,22,,1
2.196077897,0,1735643777088230371,map,0.9557047645289876,-0.2244342289937556,0.0260970303495961,-0.495562762988836,0.4942237561602013,-0.4971457121199183,0.5128416594881423,0.0,0.0,0.0,1,0.4966528415679931,0,1735643777088253974,map,0.9572470098667032,-0.253090841803099,0.1514645771372877,-0.520100925187315,0.4909527888686539,-0.4715218086582859,0.5158755379750126,0.0,0.0,0.0,16,0.0434079058468341,0,1735643777088270664,map,0.9591971021410196,0.050025422326125,0.0304715156387474,-0.4876294056444481,0.5020254149056381,-0.5060888468523738,0.504045756485757,0.0,0.0,0.0,17,0.0003240641090087,0,1735643777088284730,map,0.9802732958737504,-0.2584332204307473,0.2420647779489856,-0.4722163062298096,0.5178871430049593,-0.5111239062456464,0.497551022212825,0.0,0.0,0.0,121,0.0015399967087432,0,1735643777088297367,map,0.9973370345446336,0.2096430874553884,0.2450179594527264,-0.5090154943018418,0.4850841230940565,-0.4929712518561912,0.5124216671122152,0.0,0.0,0.0,122,3.1873246717720877e-14,0,1735643777088310956,map,0.985554726381742,0.2057779683118011,0.1466870995817914,-0.4815097657825734,0.4989520017136123,-0.4857014856101415,0.5322492952725183,0.0,0.0,0.0,124,1.0517026832745911e-10,0,1735643777088322877,map,0.9747016688657232,-0.0270098974636296,0.2482690390635679,0.509608428700325,-0.5075203184168348,0.4852314877002328,-0.4972653005548237,0.0,0.0,0.0,125,1.0901468527890756e-07,0,1735643777088343858,map,0.9740551847822618,-0.0210709537615526,0.1504314325952022,-0.5124635217189936,0.4865129317206191,-0.4903097666250681,0.5101790263506,0.0,0.0,0.0,126,2.9391525458777323e-05,0,1735644242188269615,map,0.9780085370089434,0.3317187301435387,0.0263078085086602,-0.5095831985172911,0.4948149979042824,-0.4795502479626768,0.5152811284306916,0.0,0.0,0.0,0,5.2398082400761936e-11,0.9527762263958486,-0.2832395432569524,-0.0271800043713427,1.0,3.539140249757719e-05,0.0003782478985538,-0.0006107586236712,0.0,0.0,0.0,0.0003782478985538,0.0168321504382213,-0.009235431848628,0.0,0.0,0.0,-0.0006107586236712,-0.009235431848628,0.0111133589574447,0.0,0.0,0.0,0.0,0.0,0.0,0.0,0.0,0.0,0.0,0.0,0.0,0.0,0.0,0.0,0.0,0.0,0.0,0.0,0.0,0.0,0,0,0,1,23,,1
2.297931639,0,1735643777088230371,map,0.958337388259644,-0.2253930590048069,0.0249437665058826,-0.4974677556474558,0.5083833271356545,-0.494641831371396,0.4994013250273934,0.0,0.0,0.0,1,0.4926364719867706,0,1735643777088253974,map,0.951554014047326,-0.2526967827535133,0.1515613818079204,-0.5000938992916766,0.4617520608190734,-0.4893633748368927,0.54517392966725,0.0,0.0,0.0,16,0.0363624915480613,0,1735643777088270664,map,0.9639658583161166,0.0520440162171547,0.0286645096473739,-0.5023194732505711,0.498676600186512,-0.4948628740840815,0.5040907964572773,0.0,0.0,0.0,17,0.0002246319345431,0,1735643777088284730,map,0.9762510606048532,-0.2583533581133287,0.241362060215414,-0.5028595196196235,0.5119788653500283,-0.4815209067430853,0.5031377160699994,0.0,0.0,0.0,121,0.0011599225690588,0,1735643777088297367,map,0.9973370345446336,0.2096430874553884,0.2450179594527264,-0.5090154943018418,0.4850841230940565,-0.4929712518561912,0.5124216671122152,0.0,0.0,0.0,122,8.111728756960476e-15,0,1735643777088310956,map,0.985554726381742,0.2057779683118011,0.1466870995817914,-0.4815097657825734,0.4989520017136123,-0.4857014856101415,0.5322492952725183,0.0,0.0,0.0,124,3.794170533311103e-11,0,1735643777088322877,map,0.9740310789216658,-0.0273659683749053,0.2479910131028554,-0.5065145792297758,0.496921016936498,-0.4915594028513489,0.5048582349758239,0.0,0.0,0.0,125,5.50532135434878e-08,0,1735643777088343858,map,0.9719214494596288,-0.0221257456383774,0.1503644011895015,-0.5027558235651916,0.4926451535903845,-0.497180295019455,0.5072958591981205,0.0,0.0,0.0,126,1.908905505842995e-05,0,1735644242188269615,map,0.9780085370089434,0.3317187301435387,0.0263078085086602,-0.5095831985172911,0.4948149979042824,-0.4795502479626768,0.5152811284306916,0.0,0.0,0.0,0,1.8331390225223565e-11,0.9528058876184256,-0.283594595674654,-0.0275495825333475,1.0,3.393699585371441e-05,0.0003622453498053,-0.0005855624769077,0.0,0.0,0.0,0.0003622453498053,0.016133710267673,-0.0088476041370096,0.0,0.0,0.0,-0.0005855624769077,-0.0088476041370096,0.010653443858628,0.0,0.0,0.0,0.0,0.0,0.0,0.0,0.0,0.0,0.0,0.0,0.0,0.0,0.0,0.0,0.0,0.0,0.0,0.0,0.0,0.0,0,0,0,1,24,,1
2.398940996,0,1735643777088230371,map,0.9543812398975208,-0.2250508512836299,0.0260743179229746,-0.4907868160014758,0.4926904456181081,-0.5038339169691507,0.512382484231543,0.0,0.0,0.0,1,0.4773159027099609,0,1735643777088253974,map,0.9595672533986116,-0.2541451631497758,0.1512098617333832,-0.5042247714553757,0.5073650468776506,-0.494021905018947,0.4942473534770463,0.0,0.0,0.0,16,0.035382654517889,0,1735643777088270664,map,0.9598011045907128,0.049641743096447,0.0297962236077114,-0.4884484350702073,0.495753155046267,-0.4991376241783894,0.5162446781020515,0.0,0.0,0.0,17,0.0001890336570795,0,1735643777088284730,map,0.9783393224534592,-0.2590095251199882,0.2417292974095377,-0.4915153940102009,0.5144432197648049,-0.4892236249468153,0.5044016612610591,0.0,0.0,0.0,121,0.0009496371494606,0,1735643777088297367,map,0.9973370345446336,0.2096430874553884,0.2450179594527264,-0.5090154943018418,0.4850841230940565,-0.4929712518561912,0.5124216671122152,0.0,0.0,0.0,122,2.986660618391765e-15,0,1735643777088310956,map,0.985554726381742,0.2057779683118011,0.1466870995817914,-0.4815097657825734,0.4989520017136123,-0.4857014856101415,0.5322492952725183,0.0,0.0,0.0,124,1.8610437843569194e-11,0,1735643777088322877,map,0.9687653896801764,-0.0291852896019686,0.2474506751068614,-0.4987552117564094,0.5085423872112254,-0.4961941510237698,0.4964063291751303,0.0,0.0,0.0,125,3.7152950937979774e-08,0,1735643777088343858,map,0.9709921580986788,-0.0222109774080954,0.1502801724714225,-0.4980302625215871,0.4884404302175847,-0.5043398855045991,0.5089529286984686,0.0,0.0,0.0,126,1.4131785064819267e-05,0,1735644242188269615,map,0.9780085370089434,0.3317187301435387,0.0263078085086602,-0.5095831985172911,0.4948149979042824,-0.4795502479626768,0.5152811284306916,0.0,0.0,0.0,0,8.880595911420208e-12,0.9527813377401584,-0.2820416327380972,-0.0275102764886221,1.0,3.259398073611642e-05,0.000346840534588,-0.0005621631368381,0.0,0.0,0.0,0.000346840534588,0.0155462425101417,-0.0084922349915938,0.0,0.0,0.0,-0.0005621631368381,-0.0084922349915938,0.0102273431834465,0.0,0.0,0.0,0.0,0.0,0.0,0.0,0.0,0.0,0.0,0.0,0.0,0.0,0.0,0.0,0.0,0.0,0.0,0.0,0.0,0.0,0,0,0,1,25,,1
2.497717263,0,1735643777088230371,map,0.9522008917546256,-0.2246459054850455,0.0266643887393253,-0.4938165291464021,0.495714328033422,-0.4995134306425033,0.5107826084861643,0.0,0.0,0.0,1,0.4608953297138214,0,1735643777088253974,map,0.9573729704862696,-0.25395905781798,0.151261309683278,-0.525231543322931,0.5050242172265262,-0.4637713718101918,0.5039826193457866,0.0,0.0,0.0,16,0.0313067808747291,0,1735643777088270664,map,0.9612892596586916,0.0511226410535911,0.029007745831957,-0.4969415759830814,0.4974556292660915,-0.4983946508657015,0.5071387768248297,0.0,0.0,0.0,17,0.0001374189450871,0,1735643777088284730,map,0.9779729192677314,-0.2588899573450518,0.2417691875315142,-0.4821889094770522,0.504556891899584,-0.503394442758191,0.5094214693298013,0.0,0.0,0.0,121,0.0007390655227936,0,1735643777088297367,map,0.9973370345446336,0.2096430874553884,0.2450179594527264,-0.5090154943018418,0.4850841230940565,-0.4929712518561912,0.5124216671122152,0.0,0.0,0.0,122,8.94354031039438e-16,0,1735643777088310956,map,0.985554726381742,0.2057779683118011,0.1466870995817914,-0.4815097657825734,0.4989520017136123,-0.4857014856101415,0.5322492952725183,0.0,0.0,0.0,124,7.716125481616043e-12,0,1735643777088322877,map,0.9706081600387566,-0.0279620104525892,0.2478084959164692,-0.4884212887740944,0.4967156007557515,-0.503405805589367,0.5111759496856506,0.0,0.0,0.0,125,1.8549297209347063e-08,0,1735643777088343858,map,0.967485082612564,-0.022871531479541,0.1506106071966978,-0.4876267261658212,0.4850162576336626,-0.5161398044681244,0.5104694976229696,0.0,0.0,0.0,126,9.575578587828204e-06,0,1735644242188269615,map,0.9780085370089434,0.3317187301435387,0.0263078085086602,-0.5095831985172911,0.4948149979042824,-0.4795502479626768,0.5152811284306916,0.0,0.0,0.0,0,3.5841546744408426e-12,0.952763776149518,-0.2813753897502676,-0.0273880127399071,1.0,3.134807632906507e-05,0.0003332080068614,-0.0005405951563766,0.0,0.0,0.0,0.0003332080068614,0.0149594070988763,-0.0081635741347091,0.0,0.0,0.0,-0.0005405951563766,-0.0081635741347091,0.0098343575408433,0.0,0.0,0.0,0.0,0.0,0.0,0.0,0.0,0.0,0.0,0.0,0.0,0.0,0.0,0.0,0.0,0.0,0.0,0.0,0.0,0.0,0,0,0,1,26,,1
