%time,field.boxes0.header.seq,field.boxes0.header.stamp,field.boxes0.header.frame_id,field.boxes0.pose.position.x,field.boxes0.pose.position.y,field.boxes0.pose.position.z,field.boxes0.pose.orientation.x,field.boxes0.pose.orientation.y,field.boxes0.pose.orientation.z,field.boxes0.pose.orientation.w,field.boxes0.scale.x,field.boxes0.scale.y,field.boxes0.scale.z,field.boxes0.id,field.boxes0.pdf,field.boxes1.header.seq,field.boxes1.header.stamp,field.boxes1.header.frame_id,field.boxes1.pose.position.x,field.boxes1.pose.position.y,field.boxes1.pose.position.z,field.boxes1.pose.orientation.x,field.boxes1.pose.orientation.y,field.boxes1.pose.orientation.z,field.boxes1.pose.orientation.w,field.boxes1.scale.x,field.boxes1.scale.y,field.boxes1.scale.z,field.boxes1.id,field.boxes1.pdf,field.boxes2.header.seq,field.boxes2.header.stamp,field.boxes2.header.frame_id,field.boxes2.pose.position.x,field.boxes2.pose.position.y,field.boxes2.pose.position.z,field.boxes2.pose.orientation.x,field.boxes2.pose.orientation.y,field.boxes2.pose.orientation.z,field.boxes2.pose.orientation.w,field.boxes2.scale.x,field.boxes2.scale.y,field.boxes2.scale.z,field.boxes2.id,field.boxes2.pdf,field.boxes3.header.seq,field.boxes3.header.stamp,field.boxes3.header.frame_id,field.boxes3.pose.position.x,field.boxes3.pose.position.y,field.boxes3.pose.position.z,field.boxes3.pose.orientation.x,field.boxes3.pose.orientation.y,field.boxes3.pose.orientation.z,field.boxes3.pose.orientation.w,field.boxes3.scale.x,field.boxes3.scale.y,field.boxes3.scale.z,field.boxes3.id,field.boxes3.pdf,field.boxes4.header.seq,field.boxes4.header.stamp,field.boxes4.header.frame_id,field.boxes4.pose.position.x,field.boxes4.pose.position.y,field.boxes4.pose.position.z,field.boxes4.pose.orientation.x,field.boxes4.pose.orientation.y,field.boxes4.pose.orientation.z,field.boxes4.pose.orientation.w,field.boxes4.scale.x,field.boxes4.scale.y,field.boxes4.scale.z,field.boxes4.id,field.boxes4.pdf,field.boxes5.header.seq,field.boxes5.header.stamp,field.boxes5.header.frame_id,field.boxes5.pose.position.x,field.boxes5.pose.position.y,field.boxes5.pose.position.z,field.boxes5.pose.orientation.x,field.boxes5.pose.orientation.y,field.boxes5.pose.orientation.z,field.boxes5.pose.orientation.w,field.boxes5.scale.x,field.boxes5.scale.y,field.boxes5.scale.z,field.boxes5.id,field.boxes5.pdf,field.boxes6.header.seq,field.boxes6.header.stamp,field.boxes6.header.frame_id,field.boxes6.pose.position.x,field.boxes6.pose.position.y,field.boxes6.pose.position.z,field.boxes6.pose.orientation.x,field.boxes6.pose.orientation.y,field.boxes6.pose.orientation.z,field.boxes6.pose.orientation.w,field.boxes6.scale.x,field.boxes6.scale.y,field.boxes6.scale.z,field.boxes6.id,field.boxes6.pdf,field.boxes7.header.seq,field.boxes7.header.stamp,field.boxes7.header.frame_id,field.boxes7.pose.position.x,field.boxes7.pose.position.y,field.boxes7.pose.position.z,field.boxes7.pose.orientation.x,field.boxes7.pose.orientation.y,field.boxes7.pose.orientation.z,field.boxes7.pose.orientation.w,field.boxes7.scale.x,field.boxes7.scale.y,field.boxes7.scale.z,field.boxes7.id,field.boxes7.pdf,field.boxes8.header.seq,field.boxes8.header.stamp,field.boxes8.header.frame_id,field.boxes8.pose.position.x,field.boxes8.pose.position.y,field.boxes8.pose.position.z,field.boxes8.pose.orientation.x,field.boxes8.pose.orientation.y,field.boxes8.pose.orientation.z,field.boxes8.pose.orientation.w,field.boxes8.scale.x,field.boxes8.scale.y,field.boxes8.scale.z,field.boxes8.id,field.boxes8.pdf,field.pose.pose.position.x,field.pose.pose.position.y,field.pose.pose.position.z,field.pose.pose.orientation.w,field.pose.covariance0,field.pose.covariance1,field.pose.covariance2,field.pose.covariance3,field.pose.covariance4,field.pose.covariance5,field.pose.covariance6,field.pose.covariance7,field.pose.covariance8,field.pose.covariance9,field.pose.covariance10,field.pose.covariance11,field.pose.covariance12,field.pose.covariance13,field.pose.covariance14,field.pose.covariance15,field.pose.covariance16,field.pose.covariance17,field.pose.covariance18,field.pose.covariance19,field.pose.covariance20,field.pose.covariance21,field.pose.covariance22,field.pose.covariance23,field.pose.covariance24,field.pose.covariance25,field.pose.covariance26,field.pose.covariance27,field.pose.covariance28,field.pose.covariance29,field.pose.covariance30,field.pose.covariance31,field.pose.covariance32,field.pose.covariance33,field.pose.covariance34,field.pose.covariance35,field.buttons0,field.buttons1,field.buttons2,field.buttons3,intersection_length,vacuum,desired_box
0.0,0,1735643777088230371,map,0.971402092485134,-0.2201670491358574,0.0236091100975056,-0.4916203600795005,0.4882848675783164,-0.4974215128242004,0.5219761950788672,0.0,0.0,0.0,1,0.1111111119389534,0,1735643777088253974,map,0.9740890224792748,-0.2490420701226803,0.1486598501474837,-0.5057913139919628,0.4801724747780763,-0.4917044581277931,0.5213791969507744,0.0,0.0,0.0,16,0.1111111119389534,0,1735643777088270664,map,0.9809177553848504,0.0540102792931213,0.0259943164492628,-0.4939346392422294,0.4894933890760822,-0.4862342867220112,0.5291512190512239,0.0,0.0,0.0,17,0.1111111119389534,0,1735643777088284730,map,1.013183217491144,-0.2603045877686081,0.2360438917850298,-0.3480136561339124,0.6258557591445495,-0.6044332897679595,0.3490722878003759,0.0,0.0,0.0,121,0.1111111119389534,0,1735643777088297367,map,1.0118117379677014,0.2092467115429581,0.240926576451715,0.5124415340607857,-0.4982235912749415,0.4904750798519299,-0.4986091889554094,0.0,0.0,0.0,122,0.1111111119389534,0,1735643777088310956,map,1.000376156148023,0.2035364682922455,0.1435291091019215,-0.4765390818733128,0.4984525019974331,-0.4882862109735146,0.5348197667186273,0.0,0.0,0.0,124,0.1111111119389534,0,1735643777088322877,map,0.9975851971199788,-0.0281384814254464,0.2413178183144015,0.5031651932931098,-0.5012393238849597,0.4959072732756616,-0.499659789018442,0.0,0.0,0.0,125,0.1111111119389534,0,1735643777088343858,map,0.992574780266122,-0.0237134115324951,0.1455194233738748,0.6419779173717329,-0.4936110718386766,0.3593370480159618,-0.463777262582481,0.0,0.0,0.0,126,0.1111111119389534,0,1735644242188269615,map,0.9665416797041289,0.3267570169646313,0.0268675789468917,-0.490368677965541,0.4968621372790046,-0.4894766439610134,0.522569795554173,0.0,0.0,0.0,0,0.1111111119389534,0.940498951922614,-0.0714690565026857,0.1120728467757027,1.0,0.0,0.0,0.0,0.0,0.0,0.0,0.0,0.0,0.0,0.0,0.0,0.0,0.0,0.0,0.0,0.0,0.0,0.0,0.0,0.0,0.0,0.0,0.0,0.0,0.0,0.0,0.0,0.0,0.0,0.0,0.0,0.0,0.0,0.0,0.0,0.0,0,0,0,1,1,,125
0.101018018,0,1735643777088230371,map,0.9801603359530976,-0.2221403954322287,0.0215321438267138,-0.4962216210986672,0.4964344034088462,-0.4961316705188023,0.511048286734762,0.0,0.0,0.0,1,0.0,0,1735643777088253974,map,0.9734109152663384,-0.2483961764867133,0.1490048196576563,-0.5096895088477681,0.4861036844367872,-0.4833181362471135,0.5199263329762375,0.0,0.0,0.0,16,0.0,0,1735643777088270664,map,0.9832089804463244,0.0542406462063456,0.0257886649044863,-0.4837162107754267,0.4913797426957733,-0.4933806644003718,0.530226457183292,0.0,0.0,0.0,17,0.0,0,1735643777088284730,map,1.0121788110478225,-0.2601004341744481,0.236337998020993,-0.4767185276664435,0.5089822206920641,-0.5094455672690442,0.504124744868603,0.0,0.0,0.0,121,0.0,0,1735643777088297367,map,1.0156005679953877,0.2099147623107871,0.2411335710068408,-0.5045363015466119,0.488103745785836,-0.4946563366845887,0.5123601880994308,0.0,0.0,0.0,122,0.0,0,1735643777088310956,map,1.0031014531100504,0.20428976318901,0.1435921930048413,-0.4826931612776073,0.5010401208930105,-0.4840153157158553,0.5307497371302478,0.0,0.0,0.0,124,0.0,0,1735643777088322877,map,1.000071234920474,-0.0281170920617325,0.2414542630725125,-0.4925419612462275,0.4978485321649566,-0.5055433938877169,0.503959455045151,0.0,0.0,0.0,125,0.0,0,1735643777088343858,map,0.998486394273886,-0.023477875343592,0.144975209723025,0.5034673052631164,-0.5028803826105742,0.4980831690654829,-0.4955251255085091,0.0,0.0,0.0,126,0.0,0,1735644242188269615,map,0.9732763585937848,0.3306183921769369,0.0253937222384373,-0.5007534584964789,0.4920785173970143,-0.485069231214618,0.521356449513219,0.0,0.0,0.0,0,0.0,0.940252123181438,-0.0813561734292725,0.1178672718483002,1.0,6.092442747060418e-08,2.440424624850854e-06,-1.4302306465087996e-06,0.0,0.0,0.0,2.440424624850854e-06,9.775508111999938e-05,-5.7290158215118594e-05,0.0,0.0,0.0,-1.4302306465087996e-06,-5.7290158215118594e-05,3.357536192194755e-05,0.0,0.0,0.0,0.0,0.0,0.0,0.0,0.0,0.0,0.0,0.0,0.0,0.0,0.0,0.0,0.0,0.0,0.0,0.0,0.0,0.0,0,0,0,1,2,,125
0.199257769,0,1735643777088230371,map,0.9849910947059092,-0.2228854470707455,0.0205642864965633,-0.4764546886286419,0.7549513726232973,-0.3741587850125967,0.2510867544413303,0.0,0.0,0.0,1,3.102705290178332e-32,0,1735643777088253974,map,0.9933528492020912,-0.2540979104913542,0.1468406160863183,-0.5010092501515953,0.5079162302319873,-0.4925704458547158,0.4983825741335161,0.0,0.0,0.0,16,0.0,0,1735643777088270664,map,0.9810653158095052,0.0535840873731233,0.026880467348618,-0.4954674498806797,0.4865264685723476,-0.4942851009027716,0.5229591193514023,0.0,0.0,0.0,17,0.0,0,1735643777088284730,map,1.011197188036539,-0.2594567921982562,0.2365613188547613,0.3235850711433656,-0.6031977319047449,0.6358275074943193,-0.3566070367669097,0.0,0.0,0.0,121,0.0,0,1735643777088297367,map,1.0121740803481942,0.2083343779013229,0.241292024057591,-0.50073111409632,0.484374458488027,-0.5004533870728416,0.5140001388206137,0.0,0.0,0.0,122,0.0,0,1735643777088310956,map,1.0027412827813107,0.2036650040906323,0.1438664007603371,-0.4727578324784524,0.4962581681742544,-0.4912467332622898,0.5374983808438295,0.0,0.0,0.0,124,0.0,0,1735643777088322877,map,0.989559027158073,-0.0289351514319883,0.2418965965439801,-0.5376213869311377,0.5633366847595869,-0.4512877664586537,0.4358375566229665,0.0,0.0,0.0,125,0.1810666769742965,0,1735643777088343858,map,0.9966837890509916,-0.0232408449584511,0.1454097898304029,0.6281504553112329,-0.5194997445030207,0.3723866404576941,-0.4437062214598973,0.0,0.0,0.0,126,9.739816277942737e-07,0,1735644242188269615,map,0.9651164965720572,0.3244245030877534,0.0287170941291532,-0.4866357618285796,0.4958507162262009,-0.4976774935333933,0.5192637238993321,0.0,0.0,0.0,0,0.0,0.936458839269258,-0.0650432159137984,0.1712914214485825,1.0,2.881862196178561e-05,-0.0001221324088571,-0.0004062594214989,0.0,0.0,0.0,-0.0001221324088571,0.0005973952198833,0.0017048183266494,0.0,0.0,0.0,-0.0004062594214989,0.0017048183266494,0.0057306630956413,0.0,0.0,0.0,0.0,0.0,0.0,0.0,0.0,0.0,0.0,0.0,0.0,0.0,0.0,0.0,0.0,0.0,0.0,0.0,0.0,0.0,0,0,0,1,3,,125
0.302854779,0,1735643777088230371,map,0.9747256898072,-0.2204907549698792,0.0241421265240351,-0.4828048655286263,0.4881905303574032,-0.5020197172333078,0.5258760989056572,0.0,0.0,0.0,1,1.7640946367385122e-41,0,1735643777088253974,map,0.9833591551312773,-0.2511817573672369,0.148734068030533,-0.5034606498046127,0.5026485011887256,-0.4931548894557058,0.5006696649058899,0.0,0.0,0.0,16,0.0,0,1735643777088270664,map,0.9945194732150128,0.0567880056579914,0.02301996626585,-0.5102182212479315,0.4950229464167234,-0.4801063061964851,0.5139334431401306,0.0,0.0,0.0,17,0.0,0,1735643777088284730,map,1.005088132324241,-0.2582478747081629,0.23758458855348,-0.4755677922905839,0.4730167900636129,-0.5140105094175342,0.5346808276552499,0.0,0.0,0.0,121,0.0,0,1735643777088297367,map,1.0062640578265931,0.206527672829756,0.2424923567448713,-0.5086232846518959,0.4954276038726997,-0.4909205620460312,0.5048275402464499,0.0,0.0,0.0,122,0.0,0,1735643777088310956,map,0.9970527947260832,0.2020677484681608,0.1452954524055103,-0.4678539550006429,0.4964679122236535,-0.5016597786411761,0.5319490158053023,0.0,0.0,0.0,124,0.0,0,1735643777088322877,map,0.988823299102402,-0.0287720861445336,0.2427092139720201,-0.579966552657281,0.4799512115910029,-0.4155886542545867,0.5104622441924769,0.0,0.0,0.0,125,0.1678089648485183,0,1735643777088343858,map,1.0030496042588293,-0.0224413584919563,0.146753554428391,0.6259943361038971,-0.5179262376075231,0.3734703483933256,-0.44766438593496,0.0,0.0,0.0,126,5.970511640640552e-09,0,1735644242188269615,map,0.9713598275105562,0.3295981930928935,0.0272010424912222,-0.5037549996796287,0.4974087423574369,-0.4897124526142617,0.5089176329021184,0.0,0.0,0.0,0,0.0,0.9329945439683974,-0.0506000599976845,0.2201784695699224,1.0,5.761799226603471e-05,-0.0002417053781522,-0.0008127720793633,0.0,0.0,0.0,-0.0002417053781522,0.001073860673364,0.0033968635198722,0.0,0.0,0.0,-0.0008127720793633,0.0033968635198722,0.0114678277437856,0.0,0.0,0.0,0.0,0.0,0.0,0.0,0.0,0.0,0.0,0.0,0.0,0.0,0.0,0.0,0.0,0.0,0.0,0.0,0.0,0.0,0,0,0,1,4,,125
0.400416747,0,1735643777088230371,map,0.973974726031799,-0.2199147612770265,0.0255681355435788,-0.4638398534224347,0.7856559014506167,-0.3496369881486528,0.2129586143155795,0.0,0.0,0.0,1,0.0,0,1735643777088253974,map,0.9717654152272276,-0.2476300524853726,0.1513195094078545,-0.4927763526108841,0.4616178765754998,-0.5012303387168927,0.541154829862202,0.0,0.0,0.0,16,0.0,0,1735643777088270664,map,0.9841450480263556,0.054794339493119,0.0269834992334749,-0.485931377792303,0.5008237586768968,-0.5042055854767311,0.5087464853890256,0.0,0.0,0.0,17,0.0,0,1735643777088284730,map,1.0135799653314177,-0.260722103123117,0.2377637924646495,-0.4895708191860283,0.5074311337358403,-0.5029113090561446,0.4999142653900923,0.0,0.0,0.0,121,0.0,0,1735643777088297367,map,1.0121951783354466,0.2097033198589633,0.242524374564559,-0.5087191844684542,0.4951583466595406,-0.4906641154715591,0.505244226959253,0.0,0.0,0.0,122,0.0,0,1735643777088310956,map,1.0004198160294453,0.2037458044604523,0.1452955257398803,-0.4792448391371087,0.4950846964965107,-0.4852870988616818,0.538248975042049,0.0,0.0,0.0,124,0.0,0,1735643777088322877,map,0.9976991129789088,-0.0274590393991272,0.2429663866431672,0.5054201298705081,-0.5048002279697013,0.4935267470545987,-0.4961437010636361,0.0,0.0,0.0,125,0.0808212533593177,0,1735643777088343858,map,0.9974339499313476,-0.0228542534047529,0.1460983215461262,-0.4938111338655866,0.4623780785793675,-0.5017252420195044,0.5391000445558367,0.0,0.0,0.0,126,6.218537490498832e-11,0,1735644242188269615,map,0.9752629832944614,0.3328153502831271,0.0260947054267375,-0.5061925781816307,0.4924919002738997,-0.4764819347054328,0.5236275086908672,0.0,0.0,0.0,0,0.0,0.930325723891174,-0.0391411487591592,0.2577696833442532,1.0,7.458479623118884e-05,-0.0003156913920277,-0.0010515144076831,0.0,0.0,0.0,-0.0003156913920277,0.0013843151257808,0.0044405083438517,0.0,0.0,0.0,-0.0010515144076831,0.0044405083438517,0.0148266596071382,0.0,0.0,0.0,0.0,0.0,0.0,0.0,0.0,0.0,0.0,0.0,0.0,0.0,0.0,0.0,0.0,0.0,0.0,0.0,0.0,0.0,0,0,0,1,5,,125
0.500899231,0,1735643777088230371,map,0.9902940613701176,-0.2242334945231295,0.0194538995710602,-0.474983924757482,0.5277528574281247,-0.5153062870343389,0.4799235597897979,0.0,0.0,0.0,1,6.580814281922277e-39,0,1735643777088253974,map,0.982418386362236,-0.2506484146189596,0.1498969896006576,-0.5122781885036095,0.494410961400813,-0.4800589505112198,0.5125156220684894,0.0,0.0,0.0,16,0.0,0,1735643777088270664,map,0.9886341628474794,0.0555640188412713,0.0255782940005451,-0.4818848616420434,0.5063955056695456,-0.5073241454951203,0.5039571245210849,0.0,0.0,0.0,17,0.0,0,1735643777088284730,map,1.0111322195891586,-0.2596548427866963,0.237585146065768,-0.3258325407990275,0.6353424949448312,-0.6172509675119681,0.330415363715531,0.0,0.0,0.0,121,0.0,0,1735643777088297367,map,1.0116555527520157,0.2086584558228214,0.2422771624485798,-0.6411762726897189,0.2719851046019035,-0.2723804476964827,0.6638719619980005,0.0,0.0,0.0,122,0.0,0,1735643777088310956,map,1.0007150774550466,0.2038893215690673,0.145099682813361,-0.4825308196448114,0.4997660451644118,-0.4883681849557875,0.5281045579396372,0.0,0.0,0.0,124,0.0,0,1735643777088322877,map,1.0051825420857958,-0.0272432555246176,0.2430947915928394,-0.507524740951521,0.4988653198866288,-0.4911491082748229,0.502319204667062,0.0,0.0,0.0,125,0.0964786633849144,0,1735643777088343858,map,1.0037610416665244,-0.0226942554462057,0.1451397454905523,-0.4960553282014068,0.4603000155587342,-0.4998592018159052,0.5405495216902795,0.0,0.0,0.0,126,2.3690759576311396e-08,0,1735644242188269615,map,0.9699003550694356,0.3286840764841792,0.0285759201877222,-0.4971637526034661,0.4993141127653003,-0.4915697801839203,0.5117350594795839,0.0,0.0,0.0,0,0.0,0.929201423307687,-0.0368935507654383,0.2741520279393588,1.0,6.84742558694721e-05,-0.000275711038702,-0.0009683554043384,0.0,0.0,0.0,-0.000275711038702,0.0011788544218575,0.0038845282440984,0.0,0.0,0.0,-0.0009683554043384,0.0038845282440984,0.0136974557447791,0.0,0.0,0.0,0.0,0.0,0.0,0.0,0.0,0.0,0.0,0.0,0.0,0.0,0.0,0.0,0.0,0.0,0.0,0.0,0.0,0.0,0,0,0,1,6,,125
0.600595277,0,1735643777088230371,map,0.9795010907800225,-0.2215890098906889,0.0239433599151003,-0.4798911767011007,0.4888207138131318,-0.5104627587785402,0.5197947096420416,0.0,0.0,0.0,1,3.3439185254183105e-41,0,1735643777088253974,map,0.9891026699213618,-0.2528790146837648,0.1487173860239311,-0.5032336608454189,0.5048306021865983,-0.4886739804055974,0.5030901376121217,0.0,0.0,0.0,16,0.0,0,1735643777088270664,map,0.9913490421353932,0.0555596525547135,0.0249621525678446,-0.49824910606607,0.486909714567639,-0.4915902799281965,0.5224995261664255,0.0,0.0,0.0,17,0.0,0,1735643777088284730,map,1.0095467973161298,-0.2595262233362725,0.2377424989685872,-0.3372508023109081,0.6858041582975413,-0.5692163832012175,0.3031950888417792,0.0,0.0,0.0,121,0.0,0,1735643777088297367,map,1.0119598293671346,0.2091729094896095,0.242351128576139,-0.5078353112475767,0.495566818302056,-0.4917670038960047,0.504660320539667,0.0,0.0,0.0,122,0.0,0,1735643777088310956,map,1.0028802458211,0.2044105716328303,0.1447262413851814,-0.4814911210854372,0.4968855704046119,-0.4820909745633074,0.5374563447240828,0.0,0.0,0.0,124,0.0,0,1735643777088322877,map,0.9991699049946656,-0.0279860668202985,0.2430246434970912,0.5099935496544491,-0.5038995197938189,0.489124984312331,-0.4967379620925657,0.0,0.0,0.0,125,0.1256513595581054,0,1735643777088343858,map,0.9981354053690888,-0.0234902090561391,0.1464343718133329,-0.4895966556634205,0.4677785421415772,-0.5055044264290233,0.5347369681775874,0.0,0.0,0.0,126,2.9040258198165247e-08,0,1735644242188269615,map,0.9683525897913898,0.327009604321828,0.0297616431153997,-0.4817343542188186,0.4930983483265443,-0.4943768982186962,0.5295068586436552,0.0,0.0,0.0,0,0.0,0.929078421431754,-0.0354445226959627,0.2756895693659286,1.0,5.878299608558822e-05,-0.0002373931464838,-0.0008311536408831,0.0,0.0,0.0,-0.0002373931464838,0.0010230447413832,0.0033429632819091,0.0,0.0,0.0,-0.0008311536408831,0.0033429632819091,0.0117548605544983,0.0,0.0,0.0,0.0,0.0,0.0,0.0,0.0,0.0,0.0,0.0,0.0,0.0,0.0,0.0,0.0,0.0,0.0,0.0,0.0,0.0,0,0,0,1,7,,125
0.700742278,0,1735643777088230371,map,0.9761657894546504,-0.2215714944527604,0.0233410969405796,-0.4871013797428826,0.4881836265680846,-0.5033442964358458,0.5206279975653597,0.0,0.0,0.0,1,1.0570778412906078e-22,0,1735643777088253974,map,0.9828894501722312,-0.2520736660243913,0.1482246044263114,0.5096505485538684,-0.5090459908006181,0.4813033978012976,-0.4994752615230148,0.0,0.0,0.0,16,0.0,0,1735643777088270664,map,0.9838762839872448,0.0547435518716271,0.0258353434478535,-0.4990661118050162,0.4884511564336331,-0.4909363314318041,0.5208934654099158,0.0,0.0,0.0,17,1.0815815357412023e-34,0,1735643777088284730,map,1.0023812428815386,-0.2589466703694237,0.2364591326176249,-0.4978798921618903,0.5091351643803426,-0.4765595425494842,0.5155463119616823,0.0,0.0,0.0,121,0.0,0,1735643777088297367,map,1.0032877769421216,0.2061834373830172,0.2415180765000831,-0.5078917804282221,0.4965287344433201,-0.4915062410171016,0.5039114706838932,0.0,0.0,0.0,122,0.0,0,1735643777088310956,map,0.9919952304589844,0.2008214570680251,0.1449848660451723,-0.4666258714530308,0.5018032519094685,-0.5026015493444514,0.5271104960635284,0.0,0.0,0.0,124,0.0,0,1735643777088322877,map,0.9903393390885292,-0.0288786131957716,0.242096478389529,0.5918294918137901,-0.5009576211899822,0.403624833623626,-0.4856606923289191,0.0,0.0,0.0,125,0.595792293548584,0,1735643777088343858,map,1.007801184487934,-0.0224356355280902,0.1443736523042371,-0.5384128169584989,0.4946324487389343,-0.4618102358318534,0.5021769461756155,0.0,0.0,0.0,126,0.0007508491398766,0,1735644242188269615,map,0.9683525897913898,0.327009604321828,0.0297616431153997,-0.4817343542188186,0.4930983483265443,-0.4943768982186962,0.5295068586436552,0.0,0.0,0.0,0,0.0,0.9295219968278124,-0.0337325822960335,0.2686759537000341,1.0,5.281243549880712e-05,-0.0002024033806868,-0.0007490369072003,0.0,0.0,0.0,-0.0002024033806868,0.0009156793282407,0.0028410446276143,0.0,0.0,0.0,-0.0007490369072003,0.0028410446276143,0.0106298386181481,0.0,0.0,0.0,0.0,0.0,0.0,0.0,0.0,0.0,0.0,0.0,0.0,0.0,0.0,0.0,0.0,0.0,0.0,0.0,0.0,0.0,0,0,0,1,8,,125
0.800598206,0,1735643777088230371,map,0.9817272927597132,-0.2234050966714485,0.0208646525077312,0.4895513875569356,-0.5004026213587474,0.5103837156216852,-0.4994448100707187,0.0,0.0,0.0,1,1.954276551680705e-25,0,1735643777088253974,map,0.9801644402225448,-0.2516687974160354,0.148941882356289,-0.5057280855827232,0.4951675224134711,-0.4863646940392002,0.512345208420937,0.0,0.0,0.0,16,0.0,0,1735643777088270664,map,0.9882687775851272,0.0555561439819737,0.0238948680019557,-0.4929041737120688,0.4964258690199382,-0.4889664687695603,0.5210744903793011,0.0,0.0,0.0,17,2.0622110759343668e-39,0,1735643777088284730,map,1.0059035297949204,-0.2609881093136209,0.2362752260101309,-0.5019136138337951,0.5008078439303133,-0.4844863485771189,0.5123936043205272,0.0,0.0,0.0,121,0.0,0,1735643777088297367,map,1.0070969564689554,0.2085746046899766,0.2414083594378772,0.5253820322317785,-0.4940714073904516,0.4808815611784734,-0.4986181792973246,0.0,0.0,0.0,122,0.0,0,1735643777088310956,map,0.997156941967196,0.2036015201439122,0.144024507886726,-0.4819028306614663,0.502900176898098,-0.4858101772368005,0.5280620660201565,0.0,0.0,0.0,124,0.0,0,1735643777088322877,map,0.9908975690710748,-0.0287953695250246,0.2422819298722495,0.5710587506449656,-0.5332153009561075,0.4269704335522727,-0.4552687063814982,0.0,0.0,0.0,125,0.5391926169395447,0,1735643777088343858,map,1.0007887534097009,-0.0231942532364241,0.1434874274468008,-0.5113731203433172,0.4859796233909167,-0.4881476692538365,0.5138416005358156,0.0,0.0,0.0,126,0.0003402173751965,0,1735644242188269615,map,0.9683525897913898,0.327009604321828,0.0297616431153997,-0.4817343542188186,0.4930983483265443,-0.4943768982186962,0.5295068586436552,0.0,0.0,0.0,0,0.0,0.9295783564306376,-0.0343774823540346,0.2679674178049138,1.0,4.696979834869573e-05,-0.0001802048866551,-0.0006661300465911,0.0,0.0,0.0,-0.0001802048866551,0.0008172643493368,0.0025290284810427,0.0,0.0,0.0,-0.0006661300465911,0.0025290284810427,0.0094527616232713,0.0,0.0,0.0,0.0,0.0,0.0,0.0,0.0,0.0,0.0,0.0,0.0,0.0,0.0,0.0,0.0,0.0,0.0,0.0,0.0,0.0,0,0,0,1,9,,125
0.901123393,0,1735643777088230371,map,0.9862361015435204,-0.2260323848147377,0.0182086155711329,0.4763169239445787,-0.5151131497615397,0.5240539815291714,-0.4828540725210286,0.0,0.0,0.0,1,4.497035943085298e-26,0,1735643777088253974,map,0.9878271463493918,-0.2555344592417778,0.1472199429568785,-0.4897507729746068,0.5040602165495455,-0.5050686344329522,0.5009722077868527,0.0,0.0,0.0,16,0.0,0,1735643777088270664,map,0.9856957017241728,0.0546945859919155,0.0241653712708105,-0.4958790312512192,0.4802080183708798,-0.4833297406673093,0.538420474391657,0.0,0.0,0.0,17,1.620204041539414e-37,0,1735643777088284730,map,1.001632276530044,-0.2610814846400408,0.2364646606071739,-0.4936087531564503,0.492085527113346,-0.4956148247293296,0.5182356397638347,0.0,0.0,0.0,121,0.0,0,1735643777088297367,map,1.0012747570001266,0.2058830759324802,0.2410446006745218,-0.496871465770614,0.4898254509147002,-0.5032864659101818,0.5097965352675633,0.0,0.0,0.0,122,0.0,0,1735643777088310956,map,1.0023569457968633,0.206077715317752,0.1423538553626,-0.4922111129559705,0.5004601981624562,-0.4700626779997346,0.5350783952745225,0.0,0.0,0.0,124,0.0,0,1735643777088322877,map,0.988416648096086,-0.029673833237469,0.2421621422933648,-0.4598171529582553,0.4661146966112209,-0.5319640961705387,0.5369538861334893,0.0,0.0,0.0,125,0.6506937146186829,0,1735643777088343858,map,0.9972874312018696,-0.0242961468924393,0.1437320947385568,-0.4815107487294615,0.4769825612942465,-0.5176557690529456,0.5221757748549598,0.0,0.0,0.0,126,0.0007897587493062,0,1735644242188269615,map,0.9683525897913898,0.327009604321828,0.0297616431153997,-0.4817343542188186,0.4930983483265443,-0.4943768982186962,0.5295068586436552,0.0,0.0,0.0,0,0.0,0.9294990607069245,-0.0327245973080888,0.2688064491937755,1.0,4.232940882001921e-05,-0.000163363998433,-0.0006001158263428,0.0,0.0,0.0,-0.000163363998433,0.0007601261751792,0.00228860703486,0.0,0.0,0.0,-0.0006001158263428,0.00228860703486,0.0085138212239876,0.0,0.0,0.0,0.0,0.0,0.0,0.0,0.0,0.0,0.0,0.0,0.0,0.0,0.0,0.0,0.0,0.0,0.0,0.0,0.0,0.0,0,0,0,1,10,,125
1.000224332,0,1735643777088230371,map,0.9767551260465422,-0.2221099619942981,0.0238688845416112,-0.4908184558754077,0.4956075017759626,-0.5042882049892616,0.5090813823586349,0.0,0.0,0.0,1,6.709316262287768e-13,0,1735643777088253974,map,0.9821651950726004,-0.2526301700330324,0.1494909226122369,-0.5094328332980302,0.4900924654022122,-0.4881897951970805,0.5118186080823518,0.0,0.0,0.0,16,3.94643013646608e-26,0,1735643777088270664,map,0.9773790836719324,0.0540652857074582,0.0291006116937482,-0.4832527165419871,0.4917720160650603,-0.5046968862001264,0.5195268513079885,0.0,0.0,0.0,17,1.5384316554615956e-18,0,1735643777088284730,map,0.9984583612729344,-0.2592508570079083,0.2375231979918411,-0.4913318683088244,0.4789343728129592,-0.497302437778895,0.530947405212217,0.0,0.0,0.0,121,6.721161587455648e-35,0,1735643777088297367,map,0.9957237315315384,0.2050853060744064,0.2429520054229479,-0.4948894377975141,0.4924877791079416,-0.5051359782972932,0.5073242308577672,0.0,0.0,0.0,122,2.2272237791978643e-41,0,1735643777088310956,map,0.9885231769274734,0.2013390290029449,0.146253779057901,-0.464183987455261,0.4981422908350297,-0.4987764041775215,0.5362924412179466,0.0,0.0,0.0,124,0.0,0,1735643777088322877,map,0.988894278585755,-0.0286627545909538,0.2431400743859269,-0.4696359726070743,0.4542650965633319,-0.5209973544738142,0.5492240270681914,0.0,0.0,0.0,125,0.8493239879608154,0,1735643777088343858,map,0.9862604432258328,-0.0237306385273527,0.1469915575944936,-0.4788922216554016,0.4841585014555928,-0.5245268029629893,0.5110033448810826,0.0,0.0,0.0,126,0.0255610439926385,0,1735644242188269615,map,0.9683525897913898,0.327009604321828,0.0297616431153997,-0.4817343542188186,0.4930983483265443,-0.4943768982186962,0.5295068586436552,0.0,0.0,0.0,0,0.0,0.9291647249651344,-0.0273973555994879,0.2726916927827026,1.0,3.959908462785327e-05,-0.0001663235989316,-0.0005585496001032,0.0,0.0,0.0,-0.0001663235989316,0.000974818837836,0.0022875281668228,0.0,0.0,0.0,-0.0005585496001032,0.0022875281668228,0.0078907886538054,0.0,0.0,0.0,0.0,0.0,0.0,0.0,0.0,0.0,0.0,0.0,0.0,0.0,0.0,0.0,0.0,0.0,0.0,0.0,0.0,0.0,0,0,0,1,11,,125
1.101649641,0,1735643777088230371,map,0.983116394861932,-0.2246898786476634,0.0191264142787091,-0.4820723944972265,0.5055340540218417,-0.5093968221427354,0.5025499022772115,0.0,0.0,0.0,1,9.515210841470887e-09,0,1735643777088253974,map,0.9858854547363208,-0.2547838937207315,0.1479406476180312,-0.494330263648846,0.4991423968588496,-0.496582183456054,0.5098044656266586,0.0,0.0,0.0,16,1.5243428257553778e-17,0,1735643777088270664,map,0.9760586365566184,0.0548971573902157,0.0285475595446074,-0.4743769600817314,0.4876069657342998,-0.5072878133893962,0.5290227037638462,0.0,0.0,0.0,17,2.6927140123764532e-14,0,1735643777088284730,map,1.006330251828079,-0.2634343572638536,0.2366615739921964,-0.4975616280598778,0.5090363711073307,-0.4826872000856936,0.5102229571919689,0.0,0.0,0.0,121,2.2222844760952342e-24,0,1735643777088297367,map,1.0026248904819357,0.2102297468692043,0.2419077892463256,-0.52001077786374,0.4867244916507956,-0.483776330370588,0.5085749918212562,0.0,0.0,0.0,122,4.241423034933025e-28,0,1735643777088310956,map,0.9940872426556872,0.2058845530777627,0.144003642090279,-0.4760592583900054,0.4905509090393191,-0.4838967596851039,0.5464167952288004,0.0,0.0,0.0,124,2.5557807101331934e-35,0,1735643777088322877,map,0.9882945817585655,-0.0284694266511227,0.2429258553641164,-0.4670707770242922,0.4582004151223655,-0.5243578696779521,0.5449276037588994,0.0,0.0,0.0,125,0.8702426552772522,0,1735643777088343858,map,0.9855176405992012,-0.0235963583490918,0.1466578514632041,-0.4701542865887957,0.4630153759428178,-0.5229610580822064,0.5395214918538935,0.0,0.0,0.0,126,0.0451065637171268,0,1735644242188269615,map,0.9683525897913898,0.327009604321828,0.0297616431153997,-0.4817343542188186,0.4930983483265443,-0.4943768982186962,0.5295068586436552,0.0,0.0,0.0,0,0.0,0.9285588875352192,-0.0208288016577891,0.2803851238590027,1.0,4.0336589815216e-05,-0.0001962375332419,-0.0005632744537101,0.0,0.0,0.0,-0.0001962375332419,0.0013681888444181,0.0026527827068232,0.0,0.0,0.0,-0.0005632744537101,0.0026527827068232,0.0078843006316385,0.0,0.0,0.0,0.0,0.0,0.0,0.0,0.0,0.0,0.0,0.0,0.0,0.0,0.0,0.0,0.0,0.0,0.0,0.0,0.0,0.0,0,0,0,1,12,,125
1.200018156,0,1735643777088230371,map,0.9728116681629264,-0.2235082847325809,0.0222153881044045,-0.4890944214416552,0.5004555511357085,-0.5065720170033869,0.5037019752206925,0.0,0.0,0.0,1,2.584783942438662e-09,0,1735643777088253974,map,0.9798453490864824,-0.2551334993279407,0.1483752613314635,-0.5020394788346475,0.5035807702078756,-0.4896118873526963,0.5046216100517388,0.0,0.0,0.0,16,4.758378704190254e-19,0,1735643777088270664,map,0.9725538525101431,0.0537019162314469,0.028219434663575,-0.4796437774720687,0.4892251638255701,-0.5025795145473344,0.5272707249312583,0.0,0.0,0.0,17,3.0062086565067368e-15,0,1735643777088284730,map,0.9976396207032416,-0.2632132830164407,0.2363395819560537,-0.4972446533557189,0.5011833810907799,-0.4867956531820497,0.5143860080432078,0.0,0.0,0.0,121,2.6071800532259947e-26,0,1735643777088297367,map,0.9919494696910174,0.2063680605896674,0.2417931844095259,-0.5088070238844579,0.4950185922462949,-0.489960484028613,0.5059750288964712,0.0,0.0,0.0,122,1.9517945816872488e-29,0,1735643777088310956,map,0.984797500154335,0.2024132398193132,0.1448230499824944,-0.4729794828472444,0.4980732031644954,-0.4844359395326421,0.5417889935981893,0.0,0.0,0.0,124,3.5114420752701857e-37,0,1735643777088322877,map,0.9888141185241366,-0.0293104724875023,0.2423163734646132,0.5816538796151848,-0.5214901679178883,0.4120049160878539,-0.4690188889725203,0.0,0.0,0.0,125,0.8400719165802002,0,1735643777088343858,map,0.981934102592568,-0.0242968646576315,0.1459748992389936,0.4791726300517441,-0.4918359680053019,0.529073481629933,-0.4985701778301257,0.0,0.0,0.0,126,0.0348679311573505,0,1735644242188269615,map,0.9683525897913898,0.327009604321828,0.0297616431153997,-0.4817343542188186,0.4930983483265443,-0.4943768982186962,0.5295068586436552,0.0,0.0,0.0,0,0.0,0.9281345160659998,-0.0187538168393768,0.2863089920011795,1.0,3.93948689406948e-05,-0.0001917091106491,-0.000550112697102,0.0,0.0,0.0,-0.0001917091106491,0.0013146102926533,0.0025962257361415,0.0,0.0,0.0,-0.000550112697102,0.0025962257361415,0.0076989225328571,0.0,0.0,0.0,0.0,0.0,0.0,0.0,0.0,0.0,0.0,0.0,0.0,0.0,0.0,0.0,0.0,0.0,0.0,0.0,0.0,0.0,0,0,0,1,13,,125
1.300977543,0,1735643777088230371,map,0.9728116681629264,-0.2235082847325809,0.0222153881044045,-0.4890944214416552,0.5004555511357085,-0.5065720170033869,0.5037019752206925,0.0,0.0,0.0,1,1.0829028784797854e-09,0,1735643777088253974,map,0.9745193217741476,-0.2543271638428868,0.1487677442533365,-0.4946711372696143,0.4879237984272237,-0.5022335821078221,0.5147739910716951,0.0,0.0,0.0,16,4.718419159761466e-19,0,1735643777088270664,map,0.9725538525101431,0.0537019162314469,0.028219434663575,-0.4796437774720687,0.4892251638255701,-0.5025795145473344,0.5272707249312583,0.0,0.0,0.0,17,4.4669218444862244e-15,0,1735643777088284730,map,1.0005815526670034,-0.26636694396852,0.2349896982136505,-0.4891357847160598,0.5102749370415572,-0.4929623303610786,0.5073005160478486,0.0,0.0,0.0,121,9.113357978024515e-27,0,1735643777088297367,map,0.9981178140633884,0.2093995111919313,0.2401489056156357,-0.5167832903883538,0.4834832819860121,-0.4829651765221303,0.5156777919227935,0.0,0.0,0.0,122,1.5448420109353994e-30,0,1735643777088310956,map,0.9893812724896316,0.2047887915419997,0.1421521732438955,-0.4739087416856784,0.4890888804098641,-0.4816605498936661,0.5515484441909464,0.0,0.0,0.0,124,4.916795336831373e-38,0,1735643777088322877,map,0.975335680138234,-0.0306581238655269,0.242228699003128,-0.4529849919866699,0.4454581774464826,-0.534965140383776,0.5569415658352871,0.0,0.0,0.0,125,0.818195641040802,0,1735643777088343858,map,0.981934102592568,-0.0242968646576315,0.1459748992389936,0.4791726300517441,-0.4918359680053019,0.529073481629933,-0.4985701778301257,0.0,0.0,0.0,126,0.0315531231462955,0,1735644242188269615,map,0.9683525897913898,0.327009604321828,0.0297616431153997,-0.4817343542188186,0.4930983483265443,-0.4943768982186962,0.5295068586436552,0.0,0.0,0.0,0,0.0,0.927809467686755,-0.0186991243847415,0.2911713204455842,1.0,3.7954483565690565e-05,-0.0001782467127642,-0.000531365328766,0.0,0.0,0.0,-0.0001782467127642,0.0012207484439035,0.0024142381655151,0.0,0.0,0.0,-0.000531365328766,0.0024142381655151,0.0074563485875123,0.0,0.0,0.0,0.0,0.0,0.0,0.0,0.0,0.0,0.0,0.0,0.0,0.0,0.0,0.0,0.0,0.0,0.0,0.0,0.0,0.0,0,0,0,1,14,,125
1.400705,0,1735643777088230371,map,0.9728116681629264,-0.2235082847325809,0.0222153881044045,-0.4890944214416552,0.5004555511357085,-0.5065720170033869,0.5037019752206925,0.0,0.0,0.0,1,8.198139389570257e-10,0,1735643777088253974,map,0.9748651793365336,-0.2557533334133339,0.1479477171351505,-0.4995878260570487,0.5031212857274924,-0.4969613243209127,0.5003103217331334,0.0,0.0,0.0,16,3.517048301073897e-18,0,1735643777088270664,map,0.9725538525101431,0.0537019162314469,0.028219434663575,-0.4796437774720687,0.4892251638255701,-0.5025795145473344,0.5272707249312583,0.0,0.0,0.0,17,2.6454367667815004e-13,0,1735643777088284730,map,0.993149373250138,-0.2646198307256783,0.2350619969517041,-0.4923599051090787,0.5104979161372012,-0.4849877201070404,0.5116253637242089,0.0,0.0,0.0,121,3.5507382706162235e-24,0,1735643777088297367,map,0.9887673400196376,0.2053084918966358,0.2400843706501957,-0.504409538849056,0.4948486640310403,-0.4928786056139577,0.5077070975994109,0.0,0.0,0.0,122,3.019456211219792e-27,0,1735643777088310956,map,0.9817380193319768,0.2014019399159243,0.1432950107929539,-0.4690637889364576,0.496940451432029,-0.4875192658996027,0.5434651000899855,0.0,0.0,0.0,124,1.765178704189388e-33,0,1735643777088322877,map,0.973157071722687,-0.0312946195692964,0.2421341339147947,-0.453679074545371,0.4638786111862438,-0.5369694230766867,0.5391250041356526,0.0,0.0,0.0,125,0.7831810712814331,0,1735643777088343858,map,0.9797278857149928,-0.0259075421786661,0.1441023190262018,-0.4805641698955566,0.471454984556026,-0.5163468597368007,0.5293148369258284,0.0,0.0,0.0,126,0.0427256301045417,0,1735644242188269615,map,0.9683525897913898,0.327009604321828,0.0297616431153997,-0.4817343542188186,0.4930983483265443,-0.4943768982186962,0.5295068586436552,0.0,0.0,0.0,0,0.0,0.9273537119502048,-0.0188143684207849,0.2980295086811487,1.0,3.833217074088939e-05,-0.0001656282747525,-0.0005397001943447,0.0,0.0,0.0,-0.0001656282747525,0.0011395511509397,0.0022422238403898,0.0,0.0,0.0,-0.0005397001943447,0.0022422238403898,0.0076177451239203,0.0,0.0,0.0,0.0,0.0,0.0,0.0,0.0,0.0,0.0,0.0,0.0,0.0,0.0,0.0,0.0,0.0,0.0,0.0,0.0,0.0,0,0,0,1,15,,125
1.500821842,0,1735643777088230371,map,0.9728116681629264,-0.2235082847325809,0.0222153881044045,-0.4890944214416552,0.5004555511357085,-0.5065720170033869,0.5037019752206925,0.0,0.0,0.0,1,1.9676806017887566e-10,0,1735643777088253974,map,0.9700381539001028,-0.2537440080972915,0.1504176976108624,-0.505801496966459,0.5039927015342722,-0.4894043688848534,0.5006391576605779,0.0,0.0,0.0,16,7.351799821624431e-19,0,1735643777088270664,map,0.9725538525101431,0.0537019162314469,0.028219434663575,-0.4796437774720687,0.4892251638255701,-0.5025795145473344,0.5272707249312583,0.0,0.0,0.0,17,2.487879964974821e-13,0,1735643777088284730,map,0.989873601618098,-0.2637214033266008,0.2361497675950455,-0.4883282979703872,0.5040063486029898,-0.4942639071473679,0.5130460642677654,0.0,0.0,0.0,121,4.8418428539338435e-25,0,1735643777088297367,map,0.9844011272769836,0.2042936818958486,0.2415956144594981,-0.5034419206757894,0.4935277245162807,-0.4965127528220184,0.506410608029843,0.0,0.0,0.0,122,5.252337884952052e-28,0,1735643777088310956,map,0.9769584223804242,0.2001856587749026,0.145464213887335,-0.4787264738513029,0.4997862938203556,-0.4861461507207875,0.5335696242127845,0.0,0.0,0.0,124,5.182126437981745e-34,0,1735643777088322877,map,0.97389634576531,-0.0309358609826511,0.2432674401124899,0.6036085466236358,-0.5424269520002633,0.3830007355825246,-0.4412937352034934,0.0,0.0,0.0,125,0.7517650127410889,0,1735643777088343858,map,0.9785285507771758,-0.0255159146993963,0.1451973038994465,-0.4947504674353334,0.4901229717628868,-0.5038437560526671,0.5110214447648704,0.0,0.0,0.0,126,0.0424360260367393,0,1735644242188269615,map,0.9683525897913898,0.327009604321828,0.0297616431153997,-0.4817343542188186,0.4930983483265443,-0.4943768982186962,0.5295068586436552,0.0,0.0,0.0,0,0.0,0.9268102275637836,-0.0174184889436875,0.3058831898560648,1.0,4.036703924383493e-05,-0.0001666560880973,-0.0005699942286156,0.0,0.0,0.0,-0.0001666560880973,0.0010975563967247,0.0022665267359414,0.0,0.0,0.0,-0.0005699942286156,0.0022665267359414,0.0080668406736337,0.0,0.0,0.0,0.0,0.0,0.0,0.0,0.0,0.0,0.0,0.0,0.0,0.0,0.0,0.0,0.0,0.0,0.0,0.0,0.0,0.0,0,0,0,1,16,,125
1.600639237,0,1735643777088230371,map,0.9728116681629264,-0.2235082847325809,0.0222153881044045,-0.4890944214416552,0.5004555511357085,-0.5065720170033869,0.5037019752206925,0.0,0.0,0.0,1,4.7507286299319767e-11,0,1735643777088253974,map,0.9675834907804304,-0.2542492659046272,0.1488358422602243,-0.4975683519674105,0.498369095081111,-0.4961103508558519,0.5078666163099845,0.0,0.0,0.0,16,5.1584676134123125e-20,0,1735643777088270664,map,0.9725538525101431,0.0537019162314469,0.028219434663575,-0.4796437774720687,0.4892251638255701,-0.5025795145473344,0.5272707249312583,0.0,0.0,0.0,17,4.9826106646643983e-14,0,1735643777088284730,map,0.9884510986334496,-0.2650622810849744,0.2341135165137206,-0.4877202358423244,0.5017851054694628,-0.49603780766683,0.5140886818866883,0.0,0.0,0.0,121,1.0847598574302934e-26,0,1735643777088297367,map,0.9825199882416906,0.2050882954199263,0.2397642048301548,-0.5006637438799012,0.4891696290506551,-0.4958549368166138,0.5139812946141107,0.0,0.0,0.0,122,5.2488196322408325e-30,0,1735643777088310956,map,0.97744995575446,0.2021869218521548,0.1423731437846564,-0.4815354389033229,0.4944465615135299,-0.4806362756625899,0.5409574746732189,0.0,0.0,0.0,124,8.574091955124377e-37,0,1735643777088322877,map,0.97016758135169,-0.0310203969923655,0.2415927120929984,-0.481423511418413,0.4764518453557982,-0.514244692585156,0.5260964149836209,0.0,0.0,0.0,125,0.7069882750511169,0,1735643777088343858,map,0.9750074417948896,-0.0258648365256465,0.1435352352419078,-0.4948944512336281,0.4764534203532357,-0.503310869246149,0.5241658032250434,0.0,0.0,0.0,126,0.0330976657569408,0,1735644242188269615,map,0.9683525897913898,0.327009604321828,0.0297616431153997,-0.4817343542188186,0.4930983483265443,-0.4943768982186962,0.5295068586436552,0.0,0.0,0.0,0,0.0,0.926511315391546,-0.0164509681945101,0.3101603505232706,1.0,3.942208331099894e-05,-0.0001614800484586,-0.0005569210825208,0.0,0.0,0.0,-0.0001614800484586,0.0010479717981423,0.0021994135009166,0.0,0.0,0.0,-0.0005569210825208,0.0021994135009166,0.0078850262879777,0.0,0.0,0.0,0.0,0.0,0.0,0.0,0.0,0.0,0.0,0.0,0.0,0.0,0.0,0.0,0.0,0.0,0.0,0.0,0.0,0.0,0,0,0,1,17,,125
1.701364934,0,1735643777088230371,map,0.9728116681629264,-0.2235082847325809,0.0222153881044045,-0.4890944214416552,0.5004555511357085,-0.5065720170033869,0.5037019752206925,0.0,0.0,0.0,1,1.6697447244307106e-11,0,1735643777088253974,map,0.9707133796908932,-0.2563491550510267,0.1467313917766037,-0.5001776314319072,0.5008777183959724,-0.4997489868801056,0.4991941489459991,0.0,0.0,0.0,16,4.548444449094973e-21,0,1735643777088270664,map,0.9725538525101431,0.0537019162314469,0.028219434663575,-0.4796437774720687,0.4892251638255701,-0.5025795145473344,0.5272707249312583,0.0,0.0,0.0,17,2.073854969860105e-14,0,1735643777088284730,map,0.988002558496526,-0.265717076859514,0.2329038802468412,-0.4851333710007225,0.5022554546788278,-0.4989013919723928,0.5133054370205411,0.0,0.0,0.0,121,9.984352091653863e-28,0,1735643777088297367,map,0.9811489668553643,0.2046964880734575,0.2387233442005423,-0.5010154271352918,0.4884362384355506,-0.495926163488516,0.5142672681815681,0.0,0.0,0.0,122,1.1298578045018956e-30,0,1735643777088310956,map,0.9746579515342608,0.2010356314875616,0.1422253286108158,-0.4687466839795713,0.4944982105709,-0.4856869438000606,0.5475913244587522,0.0,0.0,0.0,124,2.0947721515188654e-37,0,1735643777088322877,map,0.9726362375458748,-0.0310796542934332,0.2406486243762051,0.6049012051873404,-0.5920672843614443,0.3699976927988636,-0.3829524383984068,0.0,0.0,0.0,125,0.6867184638977051,0,1735643777088343858,map,0.9724217341363592,-0.0261839117066404,0.1431745530611988,-0.4789294594402588,0.476259957178868,-0.5232966563176527,0.5195802493888786,0.0,0.0,0.0,126,0.0302490629255771,0,1735644242188269615,map,0.9683525897913898,0.327009604321828,0.0297616431153997,-0.4817343542188186,0.4930983483265443,-0.4943768982186962,0.5295068586436552,0.0,0.0,0.0,0,0.0,0.9264651420401124,-0.015488826143281,0.3106489807632017,1.0,3.726821120400348e-05,-0.0001532641651474,-0.0005263645712092,0.0,0.0,0.0,-0.0001532641651474,0.0010054883372446,0.0020852161008996,0.0,0.0,0.0,-0.0005263645712092,0.0020852161008996,0.0074510281836723,0.0,0.0,0.0,0.0,0.0,0.0,0.0,0.0,0.0,0.0,0.0,0.0,0.0,0.0,0.0,0.0,0.0,0.0,0.0,0.0,0.0,0,0,0,1,18,,125
1.801301114,0,1735643777088230371,map,0.9728116681629264,-0.2235082847325809,0.0222153881044045,-0.4890944214416552,0.5004555511357085,-0.5065720170033869,0.5037019752206925,0.0,0.0,0.0,1,2.4299668180405295e-11,0,1735643777088253974,map,0.969003151118311,-0.2557825584090371,0.145188848989874,-0.4981224509604103,0.4972597695129548,-0.5002814365269374,0.504306682227849,0.0,0.0,0.0,16,2.629833511063533e-20,0,1735643777088270664,map,0.9725538525101431,0.0537019162314469,0.028219434663575,-0.4796437774720687,0.4892251638255701,-0.5025795145473344,0.5272707249312583,0.0,0.0,0.0,17,4.506188851964924e-14,0,1735643777088284730,map,0.9863106783196008,-0.2655628046271625,0.2311670137245465,-0.4925312255430241,0.5094700788039651,-0.4859722959295333,0.5115507386931885,0.0,0.0,0.0,121,8.645614305778987e-27,0,1735643777088297367,map,0.9781765577446336,0.2039623733330344,0.2372374202488101,-0.5032787814292577,0.4938359271353738,-0.4976882131182819,0.5051168060523814,0.0,0.0,0.0,122,3.696243545561768e-29,0,1735643777088310956,map,0.9728291408245784,0.2009250377014218,0.1404915373848539,-0.4703396900133298,0.4967766308794807,-0.481841995121274,0.547559902428718,0.0,0.0,0.0,124,5.787800131831669e-36,0,1735643777088322877,map,0.97102511532211,-0.0313134811879547,0.2384974801301414,-0.4863978581379953,0.4836131955949396,-0.5104789586972597,0.5186006492211349,0.0,0.0,0.0,125,0.6566862463951111,0,1735643777088343858,map,0.9696348580564866,-0.0261380070311992,0.1421206607192503,-0.480796339350312,0.4798187648961277,-0.521186361809586,0.5166948898378825,0.0,0.0,0.0,126,0.0285978876054286,0,1735644242188269615,map,0.9683525897913898,0.327009604321828,0.0297616431153997,-0.4817343542188186,0.4930983483265443,-0.4943768982186962,0.5295068586436552,0.0,0.0,0.0,0,0.0,0.9263593013805164,-0.0136644417027079,0.311849726648963,1.0,3.550836681782037e-05,-0.0001486733230855,-0.0005009487519825,0.0,0.0,0.0,-0.0001486733230855,0.0010124787130084,0.0020148990830619,0.0,0.0,0.0,-0.0005009487519825,0.0020148990830619,0.0070848210378634,0.0,0.0,0.0,0.0,0.0,0.0,0.0,0.0,0.0,0.0,0.0,0.0,0.0,0.0,0.0,0.0,0.0,0.0,0.0,0.0,0.0,0,0,0,1,19,,125
1.901000788,0,1735643777088230371,map,0.9728116681629264,-0.2235082847325809,0.0222153881044045,-0.4890944214416552,0.5004555511357085,-0.5065720170033869,0.5037019752206925,0.0,0.0,0.0,1,1.6874534755628723e-11,0,1735643777088253974,map,0.9674540371074756,-0.2557885262852922,0.1461663428298127,-0.5003553148936233,0.5010371989926372,-0.4939288550785426,0.5046192328916094,0.0,0.0,0.0,16,6.90679978727866e-21,0,1735643777088270664,map,0.9725538525101431,0.0537019162314469,0.028219434663575,-0.4796437774720687,0.4892251638255701,-0.5025795145473344,0.5272707249312583,0.0,0.0,0.0,17,9.992665366226424e-15,0,1735643777088284730,map,0.9855670285609062,-0.2663479243818268,0.2316781673103146,-0.4936279044542783,0.5141712462217068,-0.4857972408973653,0.5059253524378892,0.0,0.0,0.0,121,7.274187807254522e-28,0,1735643777088297367,map,0.9756354628981448,0.2033284027737079,0.2384265268939752,-0.50341175183258,0.494358520911941,-0.4932353741943354,0.5088272069789362,0.0,0.0,0.0,122,8.140960794020916e-30,0,1735643777088310956,map,0.970892675339479,0.2006166284573964,0.1414197937472558,-0.4749418945213335,0.4974119152956517,-0.479925186519873,0.5446865141475996,0.0,0.0,0.0,124,4.1459874626114304e-37,0,1735643777088322877,map,0.9718861727154942,-0.0311747300743921,0.2389165578352917,-0.4899589558914496,0.4839655181970746,-0.5070652916099401,0.5182686453785568,0.0,0.0,0.0,125,0.6290673017501831,0,1735643777088343858,map,0.9686666974431966,-0.0262040281138629,0.1427207102516572,-0.4814431658576484,0.4764727503682162,-0.5157397851160265,0.5245938145403428,0.0,0.0,0.0,126,0.0240055359899997,0,1735644242188269615,map,0.9683525897913898,0.327009604321828,0.0297616431153997,-0.4817343542188186,0.4930983483265443,-0.4943768982186962,0.5295068586436552,0.0,0.0,0.0,0,0.0,0.926068447856182,-0.0118558916043613,0.3158279836606631,1.0,3.534026815666535e-05,-0.000151234097162,-0.000497886025762,0.0,0.0,0.0,-0.000151234097162,0.0010240009930643,0.0020508567939942,0.0,0.0,0.0,-0.000497886025762,0.0020508567939942,0.0070312840341419,0.0,0.0,0.0,0.0,0.0,0.0,0.0,0.0,0.0,0.0,0.0,0.0,0.0,0.0,0.0,0.0,0.0,0.0,0.0,0.0,0.0,0,0,0,1,20,,125
2.001370249,0,1735643777088230371,map,0.9728116681629264,-0.2235082847325809,0.0222153881044045,-0.4890944214416552,0.5004555511357085,-0.5065720170033869,0.5037019752206925,0.0,0.0,0.0,1,8.18964514259779e-12,0,1735643777088253974,map,0.9616168055596068,-0.2553375212213973,0.1465518658018815,-0.4961969316200721,0.5013574285322784,-0.4963769252556181,0.5060032430529533,0.0,0.0,0.0,16,7.326223170902093e-21,0,1735643777088270664,map,0.9725538525101431,0.0537019162314469,0.028219434663575,-0.4796437774720687,0.4892251638255701,-0.5025795145473344,0.5272707249312583,0.0,0.0,0.0,17,2.0967729709073755e-14,0,1735643777088284730,map,0.9801843400557988,-0.2664850573171038,0.2307924889889887,-0.4877534762807731,0.5055479273976586,-0.4982456422499889,0.5082018491297031,0.0,0.0,0.0,121,1.3035608680336396e-27,0,1735643777088297367,map,0.9731700095651932,0.2031232622491823,0.2368066937117373,-0.4938613189450485,0.4841534009434605,-0.4982348769584231,0.5229325858913015,0.0,0.0,0.0,122,1.079462668970279e-29,0,1735643777088310956,map,0.9676936355329344,0.20007741594428,0.1401269788781639,-0.4772730711280383,0.497659413790618,-0.4789024697655583,0.5433212198083543,0.0,0.0,0.0,124,1.4096925335962031e-36,0,1735643777088322877,map,0.9634521316492222,-0.0322199714134184,0.2389075805183966,-0.4850204787030974,0.4901780866165376,-0.5118535193957666,0.5123344155156244,0.0,0.0,0.0,125,0.6079870462417603,0,1735643777088343858,map,0.9643741547044122,-0.0270875777072581,0.1420050634852731,-0.4864795186754017,0.4778358648515092,-0.5166257405318695,0.5177918581735887,0.0,0.0,0.0,126,0.0243467092514038,0,1735644242188269615,map,0.9683525897913898,0.327009604321828,0.0297616431153997,-0.4817343542188186,0.4930983483265443,-0.4943768982186962,0.5295068586436552,0.0,0.0,0.0,0,0.0,0.925839586837012,-0.0119636071216317,0.3192824257135253,1.0,3.470494556635266e-05,-0.0001435394358263,-0.00048998890997,0.0,0.0,0.0,-0.0001435394358263,0.0009754710936668,0.0019457550064091,0.0,0.0,0.0,-0.00048998890997,0.0019457550064091,0.0069351243828287,0.0,0.0,0.0,0.0,0.0,0.0,0.0,0.0,0.0,0.0,0.0,0.0,0.0,0.0,0.0,0.0,0.0,0.0,0.0,0.0,0.0,0,0,0,1,21,,125
2.101791589,0,1735643777088230371,map,0.9728116681629264,-0.2235082847325809,0.0222153881044045,-0.4890944214416552,0.5004555511357085,-0.5065720170033869,0.5037019752206925,0.0,0.0,0.0,1,1.823570634773564e-11,0,1735643777088253974,map,0.960692077729318,-0.2557302700050713,0.1462420972756744,-0.498457088015015,0.5069706078334095,-0.4960886281550457,0.4984148946569117,0.0,0.0,0.0,16,2.0957767239661169e-19,0,1735643777088270664,map,0.9725538525101431,0.0537019162314469,0.028219434663575,-0.4796437774720687,0.4892251638255701,-0.5025795145473344,0.5272707249312583,0.0,0.0,0.0,17,2.5495165874300785e-13,0,1735643777088284730,map,0.9782527915393624,-0.2666952743081268,0.2306352170568528,-0.4880836989385916,0.5119371823944243,-0.4915094372652658,0.508048321709326,0.0,0.0,0.0,121,2.9451781700161104e-25,0,1735643777088297367,map,0.9695800928069214,0.2010942649504963,0.2371531342498512,-0.4982166895389953,0.4922009174925102,-0.496843584873283,0.5125083796920796,0.0,0.0,0.0,122,6.721745876804222e-27,0,1735643777088310956,map,0.9665709303095188,0.1996962387745601,0.1395838461555378,-0.4835689301467931,0.4991285698892248,-0.4775582253824301,0.5375592077963207,0.0,0.0,0.0,124,1.914578709720124e-33,0,1735643777088322877,map,0.9661228034350036,-0.0327774383470482,0.2376154075414603,-0.5075528286469521,0.4934049293907555,-0.4845266954552748,0.513980138893103,0.0,0.0,0.0,125,0.5702115893363953,0,1735643777088343858,map,0.9600385029621464,-0.027906090325242,0.1435040176966948,-0.4894267306709551,0.478742488472586,-0.5088022000374596,0.5219074882322136,0.0,0.0,0.0,126,0.0286997631192207,0,1735644242188269615,map,0.9683525897913898,0.327009604321828,0.0297616431153997,-0.4817343542188186,0.4930983483265443,-0.4943768982186962,0.5295068586436552,0.0,0.0,0.0,0,0.0,0.925700026344378,-0.0130194957582623,0.3215986134184413,1.0,3.353646779379938e-05,-0.0001339203489118,-0.0004745049010293,0.0,0.0,0.0,-0.0001339203489118,0.0009545444155724,0.0018059532351904,0.0,0.0,0.0,-0.0004745049010293,0.0018059532351904,0.0067325506915089,0.0,0.0,0.0,0.0,0.0,0.0,0.0,0.0,0.0,0.0,0.0,0.0,0.0,0.0,0.0,0.0,0.0,0.0,0.0,0.0,0.0,0,0,0,1,22,,125
2.20087246,0,1735643777088230371,map,0.9728116681629264,-0.2235082847325809,0.0222153881044045,-0.4890944214416552,0.5004555511357085,-0.5065720170033869,0.5037019752206925,0.0,0.0,0.0,1,1.750923711574259e-10,0,1735643777088253974,map,0.960692077729318,-0.2557302700050713,0.1462420972756744,-0.498457088015015,0.5069706078334095,-0.4960886281550457,0.4984148946569117,0.0,0.0,0.0,16,5.040141505077891e-17,0,1735643777088270664,map,0.9725538525101431,0.0537019162314469,0.028219434663575,-0.4796437774720687,0.4892251638255701,-0.5025795145473344,0.5272707249312583,0.0,0.0,0.0,17,1.8981398484246848e-12,0,1735643777088284730,map,0.973468633379649,-0.2650506901201565,0.2313123365724956,-0.4856516175757525,0.5027807386213449,-0.4982736270703689,0.5129107405617175,0.0,0.0,0.0,121,1.0582123999771584e-21,0,1735643777088297367,map,0.9685079142771902,0.200447682360997,0.2367269834860663,-0.5001800649242594,0.4948942358058623,-0.4976572359017465,0.5071852458156973,0.0,0.0,0.0,122,5.217733497549845e-24,0,1735643777088310956,map,0.9665709303095188,0.1996962387745601,0.1395838461555378,-0.4835689301467931,0.4991285698892248,-0.4775582253824301,0.5375592077963207,0.0,0.0,0.0,124,5.179551605768345e-30,0,1735643777088322877,map,0.961403174641602,-0.0333829063988588,0.2384292649806162,-0.4882700017520488,0.4982706281163551,-0.5073517253029939,0.5058784571195568,0.0,0.0,0.0,125,0.5600084066390991,0,1735643777088343858,map,0.9600385029621464,-0.027906090325242,0.1435040176966948,-0.4894267306709551,0.478742488472586,-0.5088022000374596,0.5219074882322136,0.0,0.0,0.0,126,0.026412358507514,0,1735644242188269615,map,0.9683525897913898,0.327009604321828,0.0297616431153997,-0.4817343542188186,0.4930983483265443,-0.4943768982186962,0.5295068586436552,0.0,0.0,0.0,0,0.0,0.9257143578643546,-0.0149415078625293,0.3217906634534252,1.0,3.2082879132643374e-05,-0.0001287037228532,-0.0004538137010424,0.0,0.0,0.0,-0.0001287037228532,0.0009943133560975,0.0017193128344916,0.0,0.0,0.0,-0.0004538137010424,0.0017193128344916,0.0064406425269766,0.0,0.0,0.0,0.0,0.0,0.0,0.0,0.0,0.0,0.0,0.0,0.0,0.0,0.0,0.0,0.0,0.0,0.0,0.0,0.0,0.0,0,0,0,1,23,,125
2.300179982,0,1735643777088230371,map,0.9728116681629264,-0.2235082847325809,0.0222153881044045,-0.4890944214416552,0.5004555511357085,-0.5065720170033869,0.5037019752206925,0.0,0.0,0.0,1,4.604716608014313e-10,0,1735643777088253974,map,0.960692077729318,-0.2557302700050713,0.1462420972756744,-0.498457088015015,0.5069706078334095,-0.4960886281550457,0.4984148946569117,0.0,0.0,0.0,16,3.022863918288157e-16,0,1735643777088270664,map,0.9725538525101431,0.0537019162314469,0.028219434663575,-0.4796437774720687,0.4892251638255701,-0.5025795145473344,0.5272707249312583,0.0,0.0,0.0,17,1.2243160044805856e-12,0,1735643777088284730,map,0.9686373086120014,-0.2638298586477057,0.230094430977051,-0.4895423378259389,0.5028779847951401,-0.495556904988668,0.5117473847537909,0.0,0.0,0.0,121,1.6388654826700376e-20,0,1735643777088297367,map,0.9628893967533428,0.1985476939019855,0.2355503032905007,-0.4990272187257247,0.4980220930231971,-0.4991080817207756,0.503822342292071,0.0,0.0,0.0,122,2.1749832323698698e-23,0,1735643777088310956,map,0.9665709303095188,0.1996962387745601,0.1395838461555378,-0.4835689301467931,0.4991285698892248,-0.4775582253824301,0.5375592077963207,0.0,0.0,0.0,124,1.0042883570261536e-29,0,1735643777088322877,map,0.9604396384200516,-0.0335895136537174,0.2360343373841377,-0.4979874769871997,0.5017471685093591,-0.4978809570258186,0.5023672006489065,0.0,0.0,0.0,125,0.529673159122467,0,1735643777088343858,map,0.9600385029621464,-0.027906090325242,0.1435040176966948,-0.4894267306709551,0.478742488472586,-0.5088022000374596,0.5219074882322136,0.0,0.0,0.0,126,0.022078787907958,0,1735644242188269615,map,0.9683525897913898,0.327009604321828,0.0297616431153997,-0.4817343542188186,0.4930983483265443,-0.4943768982186962,0.5295068586436552,0.0,0.0,0.0,0,0.0,0.925822385669816,-0.0165759520413136,0.3205169070422385,1.0,3.101450265743102e-05,-0.0001274020723433,-0.0004380696223575,0.0,0.0,0.0,-0.0001274020723433,0.0010143260117187,0.0016955581260045,0.0,0.0,0.0,-0.0004380696223575,0.0016955581260045,0.0062095988957718,0.0,0.0,0.0,0.0,0.0,0.0,0.0,0.0,0.0,0.0,0.0,0.0,0.0,0.0,0.0,0.0,0.0,0.0,0.0,0.0,0.0,0,0,0,1,24,,125
2.400834372,0,1735643777088230371,map,0.9728116681629264,-0.2235082847325809,0.0222153881044045,-0.4890944214416552,0.5004555511357085,-0.5065720170033869,0.5037019752206925,0.0,0.0,0.0,1,1.9415709040515594e-09,0,1735643777088253974,map,0.960692077729318,-0.2557302700050713,0.1462420972756744,-0.498457088015015,0.5069706078334095,-0.4960886281550457,0.4984148946569117,0.0,0.0,0.0,16,1.6046060015645694e-14,0,1735643777088270664,map,0.9725538525101431,0.0537019162314469,0.028219434663575,-0.4796437774720687,0.4892251638255701,-0.5025795145473344,0.5272707249312583,0.0,0.0,0.0,17,6.927358426472852e-12,0,1735643777088284730,map,0.9685518964557278,-0.2647949861576712,0.2312890132341901,-0.4891396209183378,0.5078083858295288,-0.4915743146417368,0.5111044587103308,0.0,0.0,0.0,121,2.5920469636415734e-18,0,1735643777088297367,map,0.9628893967533428,0.1985476939019855,0.2355503032905007,-0.4990272187257247,0.4980220930231971,-0.4991080817207756,0.503822342292071,0.0,0.0,0.0,122,3.3545497909553256e-21,0,1735643777088310956,map,0.9665709303095188,0.1996962387745601,0.1395838461555378,-0.4835689301467931,0.4991285698892248,-0.4775582253824301,0.5375592077963207,0.0,0.0,0.0,124,6.0471338321861846e-27,0,1735643777088322877,map,0.9611045426586322,-0.0338523345614162,0.2371690491056362,0.5103881857887103,-0.505686479599391,0.4858114925535861,-0.4977672928794545,0.0,0.0,0.0,125,0.5175661444664001,0,1735643777088343858,map,0.9600385029621464,-0.027906090325242,0.1435040176966948,-0.4894267306709551,0.478742488472586,-0.5088022000374596,0.5219074882322136,0.0,0.0,0.0,126,0.0207822956144809,0,1735644242188269615,map,0.9683525897913898,0.327009604321828,0.0297616431153997,-0.4817343542188186,0.4930983483265443,-0.4943768982186962,0.5295068586436552,0.0,0.0,0.0,0,0.0,0.9258183834577336,-0.0183979312450264,0.3209626808437373,1.0,2.9774306975971e-05,-0.0001221309827172,-0.0004205896554143,0.0,0.0,0.0,-0.0001221309827172,0.0010534235685002,0.001608243226663,0.0,0.0,0.0,-0.0004205896554143,0.001608243226663,0.0059659840827114,0.0,0.0,0.0,0.0,0.0,0.0,0.0,0.0,0.0,0.0,0.0,0.0,0.0,0.0,0.0,0.0,0.0,0.0,0.0,0.0,0.0,0,0,0,1,25,,125
2.501594103,0,1735643777088230371,map,0.9728116681629264,-0.2235082847325809,0.0222153881044045,-0.4890944214416552,0.5004555511357085,-0.5065720170033869,0.5037019752206925,0.0,0.0,0.0,1,1.4459210717632232e-08,0,1735643777088253974,map,0.960692077729318,-0.2557302700050713,0.1462420972756744,-0.498457088015015,0.5069706078334095,-0.4960886281550457,0.4984148946569117,0.0,0.0,0.0,16,1.654703284115211e-12,0,1735643777088270664,map,0.9725538525101431,0.0537019162314469,0.028219434663575,-0.4796437774720687,0.4892251638255701,-0.5025795145473344,0.5272707249312583,0.0,0.0,0.0,17,3.14062942319282e-11,0,1735643777088284730,map,0.9661739362144446,-0.2645864733052685,0.2305358871568353,-0.4870482493320634,0.507841237468223,-0.4938853121343765,0.5108410504327605,0.0,0.0,0.0,121,1.3892386420660385e-15,0,1735643777088297367,map,0.9628893967533428,0.1985476939019855,0.2355503032905007,-0.4990272187257247,0.4980220930231971,-0.4991080817207756,0.503822342292071,0.0,0.0,0.0,122,7.647943405615486e-19,0,1735643777088310956,map,0.9665709303095188,0.1996962387745601,0.1395838461555378,-0.4835689301467931,0.4991285698892248,-0.4775582253824301,0.5375592077963207,0.0,0.0,0.0,124,4.4770179566658296e-24,0,1735643777088322877,map,0.9571740438474864,-0.0339873675910207,0.2368912041293927,-0.5000711850948417,0.501542301447823,-0.4921400147679756,0.5061445797007401,0.0,0.0,0.0,125,0.496488869190216,0,1735643777088343858,map,0.9600385029621464,-0.027906090325242,0.1435040176966948,-0.4894267306709551,0.478742488472586,-0.5088022000374596,0.5219074882322136,0.0,0.0,0.0,126,0.0189309772104024,0,1735644242188269615,map,0.9683525897913898,0.327009604321828,0.0297616431153997,-0.4817343542188186,0.4930983483265443,-0.4943768982186962,0.5295068586436552,0.0,0.0,0.0,0,0.0,0.9258794112011568,-0.0207145970106282,0.3205381076166684,1.0,2.8722250959731705e-05,-0.0001209681593266,-0.0004050608988552,0.0,0.0,0.0,-0.0001209681593266,0.0011470807841418,0.0015709775744487,0.0,0.0,0.0,-0.0004050608988552,0.0015709775744487,0.0057410297170818,0.0,0.0,0.0,0.0,0.0,0.0,0.0,0.0,0.0,0.0,0.0,0.0,0.0,0.0,0.0,0.0,0.0,0.0,0.0,0.0,0.0,0,0,0,1,26,,125
