%time,field.boxes0.header.seq,field.boxes0.header.stamp,field.boxes0.header.frame_id,field.boxes0.pose.position.x,field.boxes0.pose.position.y,field.boxes0.pose.position.z,field.boxes0.pose.orientation.x,field.boxes0.pose.orientation.y,field.boxes0.pose.orientation.z,field.boxes0.pose.orientation.w,field.boxes0.scale.x,field.boxes0.scale.y,field.boxes0.scale.z,field.boxes0.id,field.boxes0.pdf,field.boxes1.header.seq,field.boxes1.header.stamp,field.boxes1.header.frame_id,field.boxes1.pose.position.x,field.boxes1.pose.position.y,field.boxes1.pose.position.z,field.boxes1.pose.orientation.x,field.boxes1.pose.orientation.y,field.boxes1.pose.orientation.z,field.boxes1.pose.orientation.w,field.boxes1.scale.x,field.boxes1.scale.y,field.boxes1.scale.z,field.boxes1.id,field.boxes1.pdf,field.boxes2.header.seq,field.boxes2.header.stamp,field.boxes2.header.frame_id,field.boxes2.pose.position.x,field.boxes2.pose.position.y,field.boxes2.pose.position.z,field.boxes2.pose.orientation.x,field.boxes2.pose.orientation.y,field.boxes2.pose.orientation.z,field.boxes2.pose.orientation.w,field.boxes2.scale.x,field.boxes2.scale.y,field.boxes2.scale.z,field.boxes2.id,field.boxes2.pdf,field.boxes3.header.seq,field.boxes3.header.stamp,field.boxes3.header.frame_id,field.boxes3.pose.position.x,field.boxes3.pose.position.y,field.boxes3.pose.position.z,field.boxes3.pose.orientation.x,field.boxes3.pose.orientation.y,field.boxes3.pose.orientation.z,field.boxes3.pose.orientation.w,field.boxes3.scale.x,field.boxes3.scale.y,field.boxes3.scale.z,field.boxes3.id,field.boxes3.pdf,field.boxes4.header.seq,field.boxes4.header.stamp,field.boxes4.header.frame_id,field.boxes4.pose.position.x,field.boxes4.pose.position.y,field.boxes4.pose.position.z,field.boxes4.pose.orientation.x,field.boxes4.pose.orientation.y,field.boxes4.pose.orientation.z,field.boxes4.pose.orientation.w,field.boxes4.scale.x,field.boxes4.scale.y,field.boxes4.scale.z,field.boxes4.id,field.boxes4.pdf,field.boxes5.header.seq,field.boxes5.header.stamp,field.boxes5.header.frame_id,field.boxes5.pose.position.x,field.boxes5.pose.position.y,field.boxes5.pose.position.z,field.boxes5.pose.orientation.x,field.boxes5.pose.orientation.y,field.boxes5.pose.orientation.z,field.boxes5.pose.orientation.w,field.boxes5.scale.x,field.boxes5.scale.y,field.boxes5.scale.z,field.boxes5.id,field.boxes5.pdf,field.boxes6.header.seq,field.boxes6.header.stamp,field.boxes6.header.frame_id,field.boxes6.pose.position.x,field.boxes6.pose.position.y,field.boxes6.pose.position.z,field.boxes6.pose.orientation.x,field.boxes6.pose.orientation.y,field.boxes6.pose.orientation.z,field.boxes6.pose.orientation.w,field.boxes6.scale.x,field.boxes6.scale.y,field.boxes6.scale.z,field.boxes6.id,field.boxes6.pdf,field.boxes7.header.seq,field.boxes7.header.stamp,field.boxes7.header.frame_id,field.boxes7.pose.position.x,field.boxes7.pose.position.y,field.boxes7.pose.position.z,field.boxes7.pose.orientation.x,field.boxes7.pose.orientation.y,field.boxes7.pose.orientation.z,field.boxes7.pose.orientation.w,field.boxes7.scale.x,field.boxes7.scale.y,field.boxes7.scale.z,field.boxes7.id,field.boxes7.pdf,field.boxes8.header.seq,field.boxes8.header.stamp,field.boxes8.header.frame_id,field.boxes8.pose.position.x,field.boxes8.pose.position.y,field.boxes8.pose.position.z,field.boxes8.pose.orientation.x,field.boxes8.pose.orientation.y,field.boxes8.pose.orientation.z,field.boxes8.pose.orientation.w,field.boxes8.scale.x,field.boxes8.scale.y,field.boxes8.scale.z,field.boxes8.id,field.boxes8.pdf,field.pose.pose.position.x,field.pose.pose.position.y,field.pose.pose.position.z,field.pose.pose.orientation.w,field.pose.covariance0,field.pose.covariance1,field.pose.covariance2,field.pose.covariance3,field.pose.covariance4,field.pose.covariance5,field.pose.covariance6,field.pose.covariance7,field.pose.covariance8,field.pose.covariance9,field.pose.covariance10,field.pose.covariance11,field.pose.covariance12,field.pose.covariance13,field.pose.covariance14,field.pose.covariance15,field.pose.covariance16,field.pose.covariance17,field.pose.covariance18,field.pose.covariance19,field.pose.covariance20,field.pose.covariance21,field.pose.covariance22,field.pose.covariance23,field.pose.covariance24,field.pose.covariance25,field.pose.covariance26,field.pose.covariance27,field.pose.covariance28,field.pose.covariance29,field.pose.covariance30,field.pose.covariance31,field.pose.covariance32,field.pose.covariance33,field.pose.covariance34,field.pose.covariance35,field.buttons0,field.buttons1,field.buttons2,field.buttons3,intersection_length,vacuum,desired_box
0.0,0,1735643777088230371,map,0.982640105545209,-0.2203868377147469,0.0207782742221224,0.4822674794616706,-0.5043263568022498,0.5187245454221021,-0.4939613851961412,0.0,0.0,0.0,1,0.1111111119389534,0,1735643777088253974,map,0.979220754123924,-0.2485021522708387,0.148425599132332,-0.5127988948443121,0.5011191911977926,-0.4832460635101566,0.5023844063679324,0.0,0.0,0.0,16,0.1111111119389534,0,1735643777088270664,map,0.9845788840486168,0.0565182970269956,0.0258009493423182,-0.5004821003850756,0.483768596351007,-0.4885720816584975,0.5261016379014627,0.0,0.0,0.0,17,0.1111111119389534,0,1735643777088284730,map,1.0076812188388893,-0.2560802739015905,0.2365874506950242,-0.4877733838489852,0.512695470684811,-0.4835427359668336,0.5151765744300681,0.0,0.0,0.0,121,0.1111111119389534,0,1735643777088297367,map,1.0134596512371616,0.2091599624888624,0.2421682245766846,0.5353353060252409,-0.4948237152375605,0.4780453328198947,-0.4899369966949582,0.0,0.0,0.0,122,0.1111111119389534,0,1735643777088310956,map,1.0050486491930104,0.2084055456030077,0.1442448805889363,-0.4864632205219003,0.5044138346879568,-0.4815987345994477,0.5262916276049453,0.0,0.0,0.0,124,0.1111111119389534,0,1735643777088322877,map,1.0065590726514289,-0.0251642461395282,0.242153588720971,0.5068731094331338,-0.5058542122033352,0.4922087283403231,-0.4948956805987818,0.0,0.0,0.0,125,0.1111111119389534,0,1735643777088343858,map,1.0066346501213452,-0.0187480820146793,0.1438875874839791,-0.5105903276650714,0.4938791441874416,-0.4895658481397782,0.5056739943547964,0.0,0.0,0.0,126,0.1111111119389534,0,1735644242188269615,map,0.9708124003819224,0.3295956066367816,0.0272177870956658,-0.4905066254582314,0.4858601030363839,-0.4851112738757441,0.5366658761442783,0.0,0.0,0.0,0,0.1111111119389534,0.945140234702088,0.203763691306982,-0.0157947711560331,1.0,0.0,0.0,0.0,0.0,0.0,0.0,0.0,0.0,0.0,0.0,0.0,0.0,0.0,0.0,0.0,0.0,0.0,0.0,0.0,0.0,0.0,0.0,0.0,0.0,0.0,0.0,0.0,0.0,0.0,0.0,0.0,0.0,0.0,0.0,0.0,0.0,0,0,0,1,1,,17
0.099679376,0,1735643777088230371,map,0.9783711050896576,-0.2194714396815048,0.0222493931600242,-0.4799979470242778,0.4926458420924591,-0.5160666576261952,0.5104676777309389,0.0,0.0,0.0,1,0.0,0,1735643777088253974,map,0.9841254075679192,-0.2492624289305154,0.1482500477929033,-0.5061390543908643,0.5093680427054341,-0.4908996895606478,0.493340601896921,0.0,0.0,0.0,16,0.0,0,1735643777088270664,map,0.9982734021507408,0.0596701973796907,0.021481374998889,-0.5189800177943175,0.4893516543490716,-0.4642044270302843,0.5250799457620926,0.0,0.0,0.0,17,0.0,0,1735643777088284730,map,1.008862565094586,-0.2564318193373421,0.2366227826253459,-0.4814252274719847,0.4682629825666753,-0.5117825229034996,0.5357594411317813,0.0,0.0,0.0,121,0.0,0,1735643777088297367,map,1.010900612609644,0.2078764456809927,0.2418601678166644,-0.4918876093182058,0.4830586396489645,-0.5063635252227072,0.5179738514478747,0.0,0.0,0.0,122,0.0,0,1735643777088310956,map,1.0028565212792968,0.2072220144245209,0.1446249401019732,-0.4691422194106472,0.4935078172097803,-0.4965987624656821,0.5382799285101046,0.0,0.0,0.0,124,0.0,0,1735643777088322877,map,1.0020707280353418,-0.0259095431059136,0.2424987968209807,-0.4937241069995884,0.5195442471041806,-0.4991990395094057,0.486940037808862,0.0,0.0,0.0,125,0.0,0,1735643777088343858,map,0.9976558789061728,-0.0200807650345793,0.1456737392941935,0.4844234650305913,-0.495632463152233,0.5209257668320728,-0.4983158771781434,0.0,0.0,0.0,126,0.0,0,1735644242188269615,map,0.9759457019833522,0.3328284095814963,0.0257132441749909,-0.4962839190943445,0.4840530315801681,-0.4807184026383459,0.5369401750951813,0.0,0.0,0.0,0,0.0,0.9444713806072632,0.1869636040299196,-0.0022086597983786,1.0,4.473658001638433e-07,1.1236807168676396e-05,-9.087126214312306e-06,0.0,0.0,0.0,1.1236807168676396e-05,0.0002822429325169,-0.0002282478565644,0.0,0.0,0.0,-9.087126214312306e-06,-0.0002282478565644,0.0001845824218225,0.0,0.0,0.0,0.0,0.0,0.0,0.0,0.0,0.0,0.0,0.0,0.0,0.0,0.0,0.0,0.0,0.0,0.0,0.0,0.0,0.0,0,0,0,1,2,,17
0.19726082,0,1735643777088230371,map,0.9742133576255448,-0.218223945783694,0.0236129559466985,-0.5018670663933251,0.4850070108193134,-0.4806175024119462,0.5309467614565273,0.0,0.0,0.0,1,0.0,0,1735643777088253974,map,0.9834390100995242,-0.2486919547834657,0.1479725045208785,-0.5032621856235505,0.4807049681994628,-0.489344231279387,0.5255398456666688,0.0,0.0,0.0,16,0.0,0,1735643777088270664,map,0.9889940756711916,0.057515300024374,0.0241361294870696,-0.4933955962772358,0.4996758028853659,-0.4909478272311106,0.5156113929328433,0.0,0.0,0.0,17,0.0,0,1735643777088284730,map,1.0079430991988332,-0.2554775491538963,0.2362342503203184,-0.5143847345871284,0.5100832980504302,-0.4613350935629856,0.5122434043703799,0.0,0.0,0.0,121,0.0,0,1735643777088297367,map,1.0138805611592954,0.2088583782608123,0.2419551340932351,-0.5176109613282975,0.4861493296452446,-0.4888281561434093,0.5067393370952258,0.0,0.0,0.0,122,0.0,0,1735643777088310956,map,1.0057458657027183,0.2088236380061197,0.1439016782458799,-0.4786000121139404,0.4935623798365919,-0.4891944658657187,0.5366814513106726,0.0,0.0,0.0,124,0.0,0,1735643777088322877,map,0.9986924163037496,-0.0258138336233886,0.2420140707923005,-0.5890952677717773,0.412733099609419,-0.3933405975630141,0.5726266919071011,0.0,0.0,0.0,125,0.0,0,1735643777088343858,map,0.9916744297489898,-0.0207398693706216,0.1460968840496359,0.6549693240444086,-0.474915559201313,0.348363766788468,-0.4734058324294964,0.0,0.0,0.0,126,0.0,0,1735644242188269615,map,0.9797656487098746,0.335132419761194,0.0243861030320672,-0.5126231624981745,0.49646908977735,-0.4763582724790925,0.5136328770695603,0.0,0.0,0.0,0,0.0,0.9443948217628196,0.1856310888492006,-0.0007785751424434,1.0,3.0996638010094384e-07,7.695236423996144e-06,-6.277055400304432e-06,0.0,0.0,0.0,7.695236423996144e-06,0.0001917131484249,-0.0001559764567371,0.0,0.0,0.0,-6.277055400304432e-06,-0.0001559764567371,0.000127145232128,0.0,0.0,0.0,0.0,0.0,0.0,0.0,0.0,0.0,0.0,0.0,0.0,0.0,0.0,0.0,0.0,0.0,0.0,0.0,0.0,0.0,0,0,0,1,3,,17
0.300472993,0,1735643777088230371,map,0.9926518331098524,-0.2211127855736307,0.0173604188332445,-0.4792791978767915,0.5258367261595669,-0.5098829648196412,0.4835354693206081,0.0,0.0,0.0,1,0.0,0,1735643777088253974,map,0.9726856084555452,-0.2452174019162262,0.1490944048480927,-0.5045815930404763,0.4721251280414022,-0.4849365121509251,0.5360334491610772,0.0,0.0,0.0,16,0.0,0,1735643777088270664,map,0.9851279499697436,0.0571644720754094,0.0252074508612925,-0.4787170230065792,0.5022393214406842,-0.5106290649355044,0.5077830579347962,0.0,0.0,0.0,17,3.804016657227294e-09,0,1735643777088284730,map,1.010322836890914,-0.2554488755885286,0.2360229916703448,0.3269260849570432,-0.5768513732293717,0.6475435320265573,-0.3755651771778363,0.0,0.0,0.0,121,0.0,0,1735643777088297367,map,1.0179079860995015,0.2110687144601242,0.2416068292732696,-0.5086446388842701,0.4834946435280704,-0.4918181081950605,0.5153916078724866,0.0,0.0,0.0,122,0.0,0,1735643777088310956,map,1.008072995116667,0.209890274699706,0.1434917395745821,-0.4883035815313042,0.5003693582845669,-0.4771029571646126,0.5325062307789216,0.0,0.0,0.0,124,0.0,0,1735643777088322877,map,1.0011470110166103,-0.0254774805453667,0.2416523733208481,-0.5059180007725815,0.5003678356813318,-0.4927251548620987,0.5009001170652443,0.0,0.0,0.0,125,0.0,0,1735643777088343858,map,1.0039994707847513,-0.0189687483001622,0.143973582865724,-0.5079828156393573,0.460621753413632,-0.4876454634150756,0.5403544774571215,0.0,0.0,0.0,126,1.401298464324817e-45,0,1735644242188269615,map,0.9686665737127098,0.3275287593655281,0.0275676636276203,-0.4795393780657844,0.4947150647652487,-0.4929716300411187,0.5312983733771443,0.0,0.0,0.0,0,3.7516601625632045e-32,0.9445156568903532,0.1763869312516894,-0.000633184620106,1.0,2.762781692138444e-07,2.4203704312910474e-06,-4.655086703301894e-06,0.0,0.0,0.0,2.4203704312910474e-06,0.0004001482103815,-0.0001210143812578,0.0,0.0,0.0,-4.655086703301894e-06,-0.0001210143812578,9.542233930796236e-05,0.0,0.0,0.0,0.0,0.0,0.0,0.0,0.0,0.0,0.0,0.0,0.0,0.0,0.0,0.0,0.0,0.0,0.0,0.0,0.0,0.0,0,0,0,1,4,,17
0.399050979,0,1735643777088230371,map,0.9819576635538076,-0.2204862062518097,0.0207919056369397,-0.4927214423252895,0.4953554469256697,-0.4946326553878789,0.5169014390557373,0.0,0.0,0.0,1,4.295710883598045e-22,0,1735643777088253974,map,0.979237903040456,-0.2483558149288662,0.1486073639214485,-0.5026662530866184,0.4803614536140291,-0.4901304989743194,0.5256915501174253,0.0,0.0,0.0,16,0.0,0,1735643777088270664,map,0.9963112589697672,0.0586719331427672,0.0217238592698416,-0.5087556404861182,0.5032663944596225,-0.4876217132664195,0.5001156858490773,0.0,0.0,0.0,17,0.000917165831197,0,1735643777088284730,map,1.0080741876050985,-0.2570535486818907,0.2365560805406423,-0.4950853767811237,0.4710615941640803,-0.49628579943813,0.535436130156664,0.0,0.0,0.0,121,0.0,0,1735643777088297367,map,1.0191881087062058,0.2104702082625528,0.2422548082758162,-0.622290452994611,0.2595484131582578,-0.2770627728012033,0.6845622201571607,0.0,0.0,0.0,122,0.0,0,1735643777088310956,map,1.0102626971842783,0.210238695439165,0.1435561402235325,-0.4947007883013219,0.5038810989966772,-0.4706855332379258,0.5289896945390152,0.0,0.0,0.0,124,8.792066061223767e-39,0,1735643777088322877,map,0.9952016594111012,-0.0267322414034037,0.2416859133632829,-0.5411210102797772,0.5477436214382769,-0.452458451657697,0.4499403593044245,0.0,0.0,0.0,125,0.0,0,1735643777088343858,map,0.9981230741225692,-0.0200944997679939,0.1451438062004117,-0.4762300191999453,0.478624834130949,-0.5353451528566827,0.5074729591601864,0.0,0.0,0.0,126,0.0,0,1735644242188269615,map,0.9816773886779476,0.3361045358213836,0.0235088518939418,-0.5022711528353272,0.4931804728703908,-0.4816985479455004,0.521980094559175,0.0,0.0,0.0,0,0.0005086418241262,0.9450710681338104,0.1546108099025182,-0.0043506454826092,1.0,1.4549491328056155e-06,-4.644251419983633e-05,-1.1982947603226474e-05,0.0,0.0,0.0,-4.644251419983633e-05,0.0022169164123605,0.0002269960104043,0.0,0.0,0.0,-1.1982947603226474e-05,0.0002269960104043,0.0001316159325033,0.0,0.0,0.0,0.0,0.0,0.0,0.0,0.0,0.0,0.0,0.0,0.0,0.0,0.0,0.0,0.0,0.0,0.0,0.0,0.0,0.0,0,0,0,1,5,,17
0.500192379,0,1735643777088230371,map,0.9821978787003682,-0.2212416465185555,0.020001385087788,-0.4991225433380215,0.4989247906026894,-0.4940874088169817,0.5077680302090399,0.0,0.0,0.0,1,2.1411629183543636e-14,0,1735643777088253974,map,0.9796475689311006,-0.2490326997213753,0.1473332007179272,-0.5170969446380432,0.4817207010258679,-0.4828226400027348,0.5171442877475653,0.0,0.0,0.0,16,0.0,0,1735643777088270664,map,0.9878457817077216,0.0561287084198608,0.0237415816491638,-0.516827381639495,0.4894823731428526,-0.4670241139490256,0.5245807287350848,0.0,0.0,0.0,17,0.0008586227195337,0,1735643777088284730,map,1.0149343349368074,-0.2597190748552382,0.2356536604617471,-0.4678301929169401,0.4673271221202215,-0.5253302334083865,0.5355076258964204,0.0,0.0,0.0,121,0.0,0,1735643777088297367,map,1.0152405263818216,0.2084319348263159,0.2410074428773396,0.5288463663248608,-0.4967566130218434,0.4831454959760696,-0.4900253237967356,0.0,0.0,0.0,122,0.0,0,1735643777088310956,map,1.009061869062381,0.2089082570898688,0.1426257428657133,-0.4964878801991307,0.5022538958634843,-0.4706281204168653,0.5289139638714547,0.0,0.0,0.0,124,0.0,0,1735643777088322877,map,0.9997497992365898,-0.0273757594169054,0.2413860684385751,-0.5859462396627229,0.4771658950834159,-0.4113707440756162,0.5096604984821088,0.0,0.0,0.0,125,0.0,0,1735643777088343858,map,0.9972218682455832,-0.0214738104360848,0.1443595623371104,-0.5064283522573594,0.498313729492225,-0.493807761721675,0.501365780137491,0.0,0.0,0.0,126,0.0,0,1735644242188269615,map,0.9802383004697292,0.3340977185301976,0.0232002106554008,-0.5094714364932381,0.4936834153472117,-0.4802772218918561,0.5157997004075029,0.0,0.0,0.0,0,0.007126878015697,0.9455223842388976,0.1317021651528992,-0.0062674749842555,1.0,2.230888744225946e-06,-9.0397296772632e-05,-1.4311269793349991e-05,0.0,0.0,0.0,-9.0397296772632e-05,0.004471460364955,0.0004087231724976,0.0,0.0,0.0,-1.4311269793349991e-05,0.0004087231724976,0.0001280511204446,0.0,0.0,0.0,0.0,0.0,0.0,0.0,0.0,0.0,0.0,0.0,0.0,0.0,0.0,0.0,0.0,0.0,0.0,0.0,0.0,0.0,0,0,0,1,6,,17
0.599003857,0,1735643777088230371,map,0.978108743685692,-0.2210906627303874,0.0208279747673612,-0.4943897432809314,0.4949182991817841,-0.4878856316518399,0.5221132724814704,0.0,0.0,0.0,1,1.2864682409630124e-11,0,1735643777088253974,map,0.9837520017456792,-0.2509678375708626,0.1466365113685215,-0.5011963069061062,0.4873795282137796,-0.4938597505779998,0.5170744667655036,0.0,0.0,0.0,16,0.0,0,1735643777088270664,map,0.9806484763534268,0.0535788112022413,0.0253705359401526,-0.4855580647055506,0.4987351192707681,-0.5038402935426842,0.5115091447942994,0.0,0.0,0.0,17,0.0007210168405435,0,1735643777088284730,map,1.0156764931648636,-0.261163393061546,0.2357788622663027,-0.4989791015811923,0.5012008141341615,-0.485236586341269,0.5141624795454769,0.0,0.0,0.0,121,0.0,0,1735643777088297367,map,1.009838536390554,0.2055990756803175,0.2406465420967771,-0.5083563784868208,0.4906731024819732,-0.4913667425564679,0.5092861899383541,0.0,0.0,0.0,122,0.0,0,1735643777088310956,map,1.0096841187926726,0.2087266838555515,0.142288946821156,-0.5039324083208042,0.5041620405858138,-0.4656155535422839,0.5244758535679747,0.0,0.0,0.0,124,0.0,0,1735643777088322877,map,0.9963995154554282,-0.0285513680960477,0.2410914448791094,-0.5385147331227513,0.5514523986536695,-0.4536845459686332,0.4472946087067019,0.0,0.0,0.0,125,0.0,0,1735643777088343858,map,0.9944644724746848,-0.0226990129112457,0.1445728625913366,-0.5005421414647173,0.4601596663214791,-0.4935433458110702,0.5423334877309665,0.0,0.0,0.0,126,0.0,0,1735644242188269615,map,0.9802383004697292,0.3340977185301976,0.0232002106554008,-0.5094714364932381,0.4936834153472117,-0.4802772218918561,0.5157997004075029,0.0,0.0,0.0,0,0.0051342668011784,0.9457630645596106,0.1158881354230657,-0.0065280700804932,1.0,2.259752452865269e-06,-0.0001003201517165,-1.2643123348046945e-05,0.0,0.0,0.0,-0.0001003201517165,0.0053331815305949,0.0003750604994512,0.0,0.0,0.0,-1.2643123348046945e-05,0.0003750604994512,0.0001101655620634,0.0,0.0,0.0,0.0,0.0,0.0,0.0,0.0,0.0,0.0,0.0,0.0,0.0,0.0,0.0,0.0,0.0,0.0,0.0,0.0,0.0,0,0,0,1,7,,17
0.700181817,0,1735643777088230371,map,0.9843716607264308,-0.2216754870136427,0.0195544761793636,-0.4983361889495837,0.5076939632333648,-0.4858447750323884,0.5078018679104388,0.0,0.0,0.0,1,1.54450873424139e-07,0,1735643777088253974,map,0.9821347107023276,-0.2497273205246914,0.1473642303244876,-0.5222319832943936,0.4936852324157249,-0.4686084830915011,0.5137652542686374,0.0,0.0,0.0,16,1.5274153261140506e-42,0,1735643777088270664,map,0.9768360989233876,0.0539862485147494,0.0276199181653843,-0.4748886943332642,0.5004485354039279,-0.5107269894051616,0.513020402810308,0.0,0.0,0.0,17,0.0354078076779842,0,1735643777088284730,map,1.0077089432777528,-0.2584032660446543,0.2366464474914608,-0.4815208604186238,0.4655177986795616,-0.5081434798653574,0.5414988863927314,0.0,0.0,0.0,121,0.0,0,1735643777088297367,map,1.016676500499062,0.2097868743469257,0.2425067289886288,-0.5251243241564001,0.4774660137866727,-0.4805701303537069,0.5150951365231182,0.0,0.0,0.0,122,0.0,0,1735643777088310956,map,0.9995374156842268,0.2053517538430982,0.1447399908098904,-0.4804107025860383,0.5010174006799474,-0.4899296398667845,0.5274050331924228,0.0,0.0,0.0,124,1.623492691128353e-26,0,1735643777088322877,map,0.998737764874402,-0.0275601435522041,0.2423946462561682,-0.5533554318276419,0.4944502692087542,-0.4364277819267426,0.50877056568628,0.0,0.0,0.0,125,0.0,0,1735643777088343858,map,0.9909446003151728,-0.02208148281365,0.145934128649232,0.6435921058124787,-0.5060344544966644,0.3611364269963668,-0.4464289566038701,0.0,0.0,0.0,126,6.640831320316502e-32,0,1735644242188269615,map,0.9802383004697292,0.3340977185301976,0.0232002106554008,-0.5094714364932381,0.4936834153472117,-0.4802772218918561,0.5157997004075029,0.0,0.0,0.0,0,0.0035167965106666,0.94559512363986,0.1117987527002807,-0.0031440607002108,1.0,2.1747124639439e-06,-8.297270988224299e-05,-1.5040928463926598e-05,0.0,0.0,0.0,-8.297270988224299e-05,0.0047835951966444,0.0002313083705655,0.0,0.0,0.0,-1.5040928463926598e-05,0.0002313083705655,0.0001765555032063,0.0,0.0,0.0,0.0,0.0,0.0,0.0,0.0,0.0,0.0,0.0,0.0,0.0,0.0,0.0,0.0,0.0,0.0,0.0,0.0,0.0,0,0,0,1,8,,17
0.79877486,0,1735643777088230371,map,0.9824566830374932,-0.2227388954794792,0.0195613420271259,-0.5008877911099493,0.5040919853171498,-0.4893028193972399,0.505554588532161,0.0,0.0,0.0,1,1.8271522961299524e-08,0,1735643777088253974,map,0.9737983393374032,-0.2487367730141175,0.1487561172942718,-0.5073071404288696,0.468748221986759,-0.480800912435205,0.5401342909458813,0.0,0.0,0.0,16,0.0,0,1735643777088270664,map,0.9781100104108532,0.0544564367516412,0.0266096277908801,-0.4836532023882769,0.5019162738808423,-0.5021395495495268,0.511874502794713,0.0,0.0,0.0,17,0.0278480164706707,0,1735643777088284730,map,1.007920101376932,-0.2605396775643536,0.237659746939249,-0.5009477269755686,0.4908997631518682,-0.4824018532519247,0.5247449374263268,0.0,0.0,0.0,121,0.0,0,1735643777088297367,map,1.0092085700663835,0.2078247498111278,0.2433056830256197,-0.5149955725450093,0.4878285759787585,-0.4908454524158222,0.505839482998591,0.0,0.0,0.0,122,0.0,0,1735643777088310956,map,0.9973745745502592,0.20545138309439,0.1451484386416832,-0.4800309302454854,0.4958731592422426,-0.4876008410714099,0.5347200536142489,0.0,0.0,0.0,124,1.7323184640271406e-29,0,1735643777088322877,map,0.9888423036787408,-0.0287512999199204,0.2426399070474373,-0.5201901568509578,0.5501679828759413,-0.4710860576872397,0.4525431665446829,0.0,0.0,0.0,125,0.0,0,1735643777088343858,map,0.9972322290830252,-0.0217352088768537,0.1456577959370594,-0.5743189629326939,0.4783260215692038,-0.423920294842397,0.511520800678162,0.0,0.0,0.0,126,4.864174386744138e-35,0,1735644242188269615,map,0.9802383004697292,0.3340977185301976,0.0232002106554008,-0.5094714364932381,0.4936834153472117,-0.4802772218918561,0.5157997004075029,0.0,0.0,0.0,0,0.0016305384924635,0.9456638419937008,0.1104337529327889,-0.0038854438929107,1.0,1.970855442964829e-06,-7.450392419144993e-05,-1.3777287250698653e-05,0.0,0.0,0.0,-7.450392419144993e-05,0.0042669904141615,0.0002137033435879,0.0,0.0,0.0,-1.3777287250698653e-05,0.0002137033435879,0.0001613354173796,0.0,0.0,0.0,0.0,0.0,0.0,0.0,0.0,0.0,0.0,0.0,0.0,0.0,0.0,0.0,0.0,0.0,0.0,0.0,0.0,0.0,0,0,0,1,9,,17
0.899831811,0,1735643777088230371,map,0.9840402186974884,-0.2232833723900871,0.0191062189023723,-0.5039478680648735,0.5172696498487185,-0.4720428053396801,0.5056127426650738,0.0,0.0,0.0,1,5.457454044233145e-09,0,1735643777088253974,map,0.9755359172039652,-0.2493258406183219,0.1484719119470312,-0.5215362132835474,0.4858768186811157,-0.4682833324964766,0.5221440565669312,0.0,0.0,0.0,16,0.0,0,1735643777088270664,map,0.9816320855076396,0.0552626281884625,0.0256101368145761,-0.4902805678721343,0.495420492520004,-0.4986406510247423,0.5153067062476827,0.0,0.0,0.0,17,0.0398168116807937,0,1735643777088284730,map,1.003117619687666,-0.2598004788130398,0.2378764208531259,-0.5095809629444895,0.4854275914948151,-0.4753582830128523,0.5279410936754051,0.0,0.0,0.0,121,0.0,0,1735643777088297367,map,0.9989175262390916,0.2031313828186489,0.2430317005906187,-0.500420905407121,0.4866963234364206,-0.5033049017773358,0.5093032319079615,0.0,0.0,0.0,122,0.0,0,1735643777088310956,map,0.9980359134076324,0.2062413810241384,0.1453368499611283,-0.4908392980283295,0.4993381458280564,-0.4757156657642697,0.5323840765636336,0.0,0.0,0.0,124,5.2647973276154006e-30,0,1735643777088322877,map,0.9967704597249472,-0.028379166041179,0.2437240374226725,-0.498182492137274,0.5028138743276794,-0.5002262152311785,0.498764619742594,0.0,0.0,0.0,125,0.0,0,1735643777088343858,map,0.9946634904389328,-0.0220554846794874,0.1458424455401646,-0.5044202501930612,0.5088838177069094,-0.4971876544845822,0.4892871421765857,0.0,0.0,0.0,126,8.094575064329867e-36,0,1735644242188269615,map,0.9802383004697292,0.3340977185301976,0.0232002106554008,-0.5094714364932381,0.4936834153472117,-0.4802772218918561,0.5157997004075029,0.0,0.0,0.0,0,0.0009132989216595,0.945592769634332,0.110352290803831,-0.0028025081008797,1.0,1.8192314210645664e-06,-6.700142442096675e-05,-1.3092259741689734e-05,0.0,0.0,0.0,-6.700142442096675e-05,0.0038403510974515,0.0001915390449328,0.0,0.0,0.0,-1.3092259741689734e-05,0.0001915390449328,0.0001557566250086,0.0,0.0,0.0,0.0,0.0,0.0,0.0,0.0,0.0,0.0,0.0,0.0,0.0,0.0,0.0,0.0,0.0,0.0,0.0,0.0,0.0,0,0,0,1,10,,17
1.000007757,0,1735643777088230371,map,0.9761315029755416,-0.2223391534071059,0.0216509257499095,-0.4967684708094564,0.5067492220817302,-0.4912211331705337,0.505102079441228,0.0,0.0,0.0,1,1.826975726260116e-08,0,1735643777088253974,map,0.9742007536917916,-0.2501307886444363,0.1491743946736728,-0.5194190425337438,0.4935441215031214,-0.4750853449577811,0.5107954320365317,0.0,0.0,0.0,16,3.558219898315561e-27,0,1735643777088270664,map,0.9765772277098088,0.0537360949618164,0.0272221539314954,-0.4815853407452418,0.5075051026830424,-0.5071212169782952,0.5033311053575142,0.0,0.0,0.0,17,0.2075076848268509,0,1735643777088284730,map,0.9974759213534472,-0.2596741147505155,0.2383914112283434,-0.5001051606007478,0.4716231200579837,-0.4866196618856316,0.5391361290375434,0.0,0.0,0.0,121,0.0,0,1735643777088297367,map,0.9978351804783732,0.2026586322213497,0.2437892335543286,-0.5191024950025057,0.4879731875324684,-0.4901139945202319,0.5021982081877617,0.0,0.0,0.0,122,1.4417828177382394e-38,0,1735643777088310956,map,0.9952488514610506,0.2049226724972067,0.1461773415835809,-0.4944268099453655,0.4995222606427452,-0.4763847762623603,0.5282775649931312,0.0,0.0,0.0,124,5.665426962742256e-14,0,1735643777088322877,map,0.9929129699733312,-0.029436006238379,0.2443093558788356,-0.4940444819685646,0.4974368232081249,-0.5040851899362745,0.50435580500271,0.0,0.0,0.0,125,1.9898438193412402e-43,0,1735643777088343858,map,0.990797985070726,-0.0232376352715172,0.1469814395502215,-0.5035262928561203,0.5067832182825879,-0.4981553277883695,0.4913993401153261,0.0,0.0,0.0,126,5.022679722346897e-17,0,1735644242188269615,map,0.9802383004697292,0.3340977185301976,0.0232002106554008,-0.5094714364932381,0.4936834153472117,-0.4802772218918561,0.5157997004075029,0.0,0.0,0.0,0,0.0007207153830677,0.9453073732040672,0.1103461327705076,0.0014781465216932,1.0,2.4683579705028023e-06,-6.089281102996304e-05,-2.411888979542728e-05,0.0,0.0,0.0,-6.089281102996304e-05,0.0034912286496242,0.0001738628003463,0.0,0.0,0.0,-2.411888979542728e-05,0.0001738628003463,0.0003248369718036,0.0,0.0,0.0,0.0,0.0,0.0,0.0,0.0,0.0,0.0,0.0,0.0,0.0,0.0,0.0,0.0,0.0,0.0,0.0,0.0,0.0,0,0,0,1,11,,17
1.097830336,0,1735643777088230371,map,0.9775473306616316,-0.2250780008603379,0.0204642442121905,-0.4918174852864254,0.5176924102946339,-0.4874506870305524,0.5024957285423537,0.0,0.0,0.0,1,6.782162387253265e-09,0,1735643777088253974,map,0.9673752381773212,-0.2499715928515934,0.1500274966848978,-0.5126699093294312,0.4785810700334097,-0.4782155302007515,0.5286204972838668,0.0,0.0,0.0,16,2.176006134800371e-19,0,1735643777088270664,map,0.9674823299634632,0.0514989998975656,0.0295557533283892,-0.4841996013321988,0.4880338781291582,-0.5027039569664711,0.5240824472525342,0.0,0.0,0.0,17,0.3368628919124603,0,1735643777088284730,map,0.9937422793483968,-0.2613034466612627,0.2389917394884575,-0.5031401491563235,0.4856935818311517,-0.4839245122261635,0.5260882068072307,0.0,0.0,0.0,121,1.0814943287540508e-32,0,1735643777088297367,map,0.99358041779719,0.2013635591349039,0.244321038391846,0.5146230473226018,-0.4936361260117057,0.4936917357355804,-0.4977499013831588,0.0,0.0,0.0,122,2.080419831550734e-18,0,1735643777088310956,map,0.9916411274090776,0.2036447095096795,0.1466394426021837,-0.4898080404792598,0.4950973492687044,-0.4806260207830027,0.5328839708372428,0.0,0.0,0.0,124,8.019247275115049e-07,0,1735643777088322877,map,0.98976347004607,-0.0300153890118601,0.2444967253128954,-0.4969815579546341,0.5026100002523836,-0.501505799043618,0.4988832049938202,0.0,0.0,0.0,125,2.2731490203067e-22,0,1735643777088343858,map,0.9855860213211348,-0.0240400449564158,0.147678316036148,-0.4888981568136223,0.4960487601175438,-0.513482083989773,0.5012488097458292,0.0,0.0,0.0,126,2.020979161798664e-09,0,1735644242188269615,map,0.9802383004697292,0.3340977185301976,0.0232002106554008,-0.5094714364932381,0.4936834153472117,-0.4802772218918561,0.5157997004075029,0.0,0.0,0.0,0,0.0004935872275382,0.944898541543078,0.112008146012918,0.0072564418392569,1.0,4.101238070259036e-06,-6.329273009008513e-05,-4.809483310849088e-05,0.0,0.0,0.0,-6.329273009008513e-05,0.0032306780970196,0.0002650138703506,0.0,0.0,0.0,-4.809483310849088e-05,0.0002650138703506,0.0006650428887,0.0,0.0,0.0,0.0,0.0,0.0,0.0,0.0,0.0,0.0,0.0,0.0,0.0,0.0,0.0,0.0,0.0,0.0,0.0,0.0,0.0,0,0,0,1,12,,17
1.199938323,0,1735643777088230371,map,0.9667026702332296,-0.2219388052515785,0.0242198724997361,-0.4990056289344038,0.4918704561003585,-0.4884903856559338,0.5200326718862215,0.0,0.0,0.0,1,7.410414060160518e-09,0,1735643777088253974,map,0.965679766076402,-0.2497660978310601,0.1501854723660914,-0.5139571606026317,0.4868760263568329,-0.4783919213934149,0.5195584101617237,0.0,0.0,0.0,16,6.244413178640205e-16,0,1735643777088270664,map,0.9733215513994996,0.0527056621660118,0.0274201220431486,-0.4878511129237893,0.4996956314447976,-0.503406233642963,0.5088101133658921,0.0,0.0,0.0,17,0.4927765727043152,0,1735643777088284730,map,0.995263079432236,-0.2627503667325906,0.2393036581651236,-0.4898118472977731,0.4721524071443328,-0.5031562256102002,0.5329073759146636,0.0,0.0,0.0,121,3.3578596592260026e-25,0,1735643777088297367,map,0.9884598335197146,0.198890743752633,0.2442299466472983,-0.5095033162387833,0.4899576374499825,-0.4980902410863715,0.5022489382573488,0.0,0.0,0.0,122,1.0328305051487965e-13,0,1735643777088310956,map,0.9886178238928324,0.2026271127728882,0.1470640655973071,-0.4945959043459515,0.499997245453923,-0.4757620877497977,0.5282310875011558,0.0,0.0,0.0,124,2.489878170308657e-05,0,1735643777088322877,map,0.9831338125804364,-0.0316197091691286,0.2446613256459918,-0.5202014401036584,0.4594614336965935,-0.4758779479828582,0.5402090625703857,0.0,0.0,0.0,125,5.370065007023728e-16,0,1735643777088343858,map,0.9825844709187486,-0.0255036074784603,0.1480102236575038,-0.5072106236125206,0.5089566100601773,-0.4941531271300141,0.4894008983627621,0.0,0.0,0.0,126,6.842986977062537e-07,0,1735644242188269615,map,0.9802383004697292,0.3340977185301976,0.0232002106554008,-0.5094714364932381,0.4936834153472117,-0.4802772218918561,0.5157997004075029,0.0,0.0,0.0,0,0.0002587135822977,0.9446072321829408,0.1102567147879482,0.0119952795795815,1.0,4.804091938343866e-06,-5.230155883104886e-05,-6.096084404082521e-05,0.0,0.0,0.0,-5.230155883104886e-05,0.0030189745332784,0.0001450312073543,0.0,0.0,0.0,-6.096084404082521e-05,0.0001450312073543,0.0008833647409649,0.0,0.0,0.0,0.0,0.0,0.0,0.0,0.0,0.0,0.0,0.0,0.0,0.0,0.0,0.0,0.0,0.0,0.0,0.0,0.0,0.0,0,0,0,1,13,,17
1.298484391,0,1735643777088230371,map,0.973814386730018,-0.2253470251527357,0.0211746232460466,-0.4903027749958838,0.5089562535199615,-0.5021790820647803,0.49838026683531,0.0,0.0,0.0,1,1.906977686871869e-09,0,1735643777088253974,map,0.965173514130092,-0.2503196509824461,0.1499436140819703,-0.514518283056332,0.4842241997022098,-0.4805916440327862,0.5194511839522387,0.0,0.0,0.0,16,1.1235525703578608e-15,0,1735643777088270664,map,0.9689996658785064,0.0510435282347903,0.0285218264649292,-0.4826673006337589,0.5015196178025386,-0.505562491646323,0.5098204751659913,0.0,0.0,0.0,17,0.4893813729286194,0,1735643777088284730,map,0.994051752978698,-0.2631568914609672,0.239098015175995,0.2360951824087508,-0.6204060039364604,0.6962898843821379,-0.2730125492172113,0.0,0.0,0.0,121,3.923746022054094e-24,0,1735643777088297367,map,0.994393619999383,0.2015269594605973,0.2449186615032187,-0.5097108956664563,0.4825718505325851,-0.5000886288966857,0.5071790365942659,0.0,0.0,0.0,122,7.144875511545802e-13,0,1735643777088310956,map,0.9868826093689772,0.2011768356606509,0.1469347893564161,-0.4954968758606861,0.5002875063385804,-0.4753712351436132,0.5274632174965949,0.0,0.0,0.0,124,5.090686317998916e-05,0,1735643777088322877,map,0.982293780763748,-0.0327470255085856,0.2444559905258023,0.5204830091389576,-0.5014742551583522,0.477719057618342,-0.4994051567607956,0.0,0.0,0.0,125,1.007388735553864e-14,0,1735643777088343858,map,0.9780689207998516,-0.0261872113981133,0.1480982566327958,0.47868516128058,-0.5075222500006583,0.5263960180830265,-0.4859927101000472,0.0,0.0,0.0,126,2.088990186166484e-06,0,1735644242188269615,map,0.9802383004697292,0.3340977185301976,0.0232002106554008,-0.5094714364932381,0.4936834153472117,-0.4802772218918561,0.5157997004075029,0.0,0.0,0.0,0,0.0001319054426858,0.9444210674297792,0.109317919725096,0.0149854787043514,1.0,4.911487613332455e-06,-4.629371603537265e-05,-6.384320390347515e-05,0.0,0.0,0.0,-4.629371603537265e-05,0.0028147908653976,9.817844112182324e-05,0.0,0.0,0.0,-6.384320390347515e-05,9.817844112182324e-05,0.0009365040399425,0.0,0.0,0.0,0.0,0.0,0.0,0.0,0.0,0.0,0.0,0.0,0.0,0.0,0.0,0.0,0.0,0.0,0.0,0.0,0.0,0.0,0,0,0,1,14,,17
1.399179728,0,1735643777088230371,map,0.9637796002684512,-0.2222176172401048,0.0237151966053725,-0.5002723931140536,0.4977159394225084,-0.4884725653479325,0.5132260021034764,0.0,0.0,0.0,1,1.6222067023008435e-09,0,1735643777088253974,map,0.9684330093209064,-0.2522736492679805,0.1488651315203141,-0.4985769672718834,0.4835392258636758,-0.4957933317864822,0.5213442211372324,0.0,0.0,0.0,16,3.859379628013315e-16,0,1735643777088270664,map,0.9705268215530732,0.0515651492634607,0.0267480871216617,-0.4964788302631826,0.4942610377354484,-0.4952629858589957,0.513740569271312,0.0,0.0,0.0,17,0.5227928757667542,0,1735643777088284730,map,0.9931386344602116,-0.2642754819454604,0.238508230540669,-0.4868083187293421,0.4913366039142224,-0.501127122432625,0.5200746192926033,0.0,0.0,0.0,121,5.209073875570395e-25,0,1735643777088297367,map,0.9905570871503722,0.1998698479122374,0.2439386316227368,0.5251992840577326,-0.4907254250597962,0.4839734274193298,-0.4991232220375182,0.0,0.0,0.0,122,1.2734918100523046e-13,0,1735643777088310956,map,0.9846300605168044,0.2007353166085496,0.1462436380739377,-0.4903911330843418,0.5013565655627277,-0.4767886342612941,0.5299346459693416,0.0,0.0,0.0,124,2.7130681701237336e-05,0,1735643777088322877,map,0.9780058103375908,-0.033091873440297,0.2437796478865398,-0.5480138323729501,0.4886953517786653,-0.4491779434522696,0.5090155869851416,0.0,0.0,0.0,125,2.143006909080536e-15,0,1735643777088343858,map,0.9759856337505152,-0.0264843722875322,0.1473019995498121,0.4895946621558683,-0.5064115967514142,0.514074079386276,-0.4894611346851936,0.0,0.0,0.0,126,1.387854013046308e-06,0,1735644242188269615,map,0.9802383004697292,0.3340977185301976,0.0232002106554008,-0.5094714364932381,0.4936834153472117,-0.4802772218918561,0.5157997004075029,0.0,0.0,0.0,0,7.517741323681548e-05,0.944427998383596,0.1069920922851628,0.0153739946432211,1.0,4.58472763946836e-06,-4.3433151135698346e-05,-5.954929130549711e-05,0.0,0.0,0.0,-4.3433151135698346e-05,0.0027028707669626,7.898251727305854e-05,0.0,0.0,0.0,-5.954929130549711e-05,7.898251727305854e-05,0.0008761836621662,0.0,0.0,0.0,0.0,0.0,0.0,0.0,0.0,0.0,0.0,0.0,0.0,0.0,0.0,0.0,0.0,0.0,0.0,0.0,0.0,0.0,0,0,0,1,15,,17
1.499526747,0,1735643777088230371,map,0.9639691844647617,-0.2244109175037622,0.0221874672765333,-0.4906091184025797,0.4951837904635791,-0.5014317425268903,0.5125055260080733,0.0,0.0,0.0,1,2.809364962885752e-09,0,1735643777088253974,map,0.9656618348942556,-0.2533118532931224,0.1481553180839744,-0.5007792611210496,0.4846199788067893,-0.4934441965108305,0.5204579067534119,0.0,0.0,0.0,16,5.3140772541758514e-17,0,1735643777088270664,map,0.9627788381771764,0.0493379878960269,0.0280810398983365,-0.4779834492762614,0.5045444819899418,-0.5121161906796124,0.5046817761275632,0.0,0.0,0.0,17,0.4968161880970001,0,1735643777088284730,map,0.9910681423357286,-0.2662296183150479,0.2380563622528029,-0.4907998494434381,0.4945577450946853,-0.4972675168560357,0.5169653385218306,0.0,0.0,0.0,121,9.911406339452232e-27,0,1735643777088297367,map,0.9849768597109352,0.197043058412386,0.2430011809720781,-0.5067433678915599,0.4865848684407974,-0.4934301779675505,0.5128089160430833,0.0,0.0,0.0,122,5.99016821388465e-13,0,1735643777088310956,map,0.9823042982909748,0.1994269015726847,0.1456415336788909,-0.4892945718485521,0.5002961101211701,-0.4765553079942757,0.5321556751361849,0.0,0.0,0.0,124,5.23910166521091e-05,0,1735643777088322877,map,0.9751761544006958,-0.0343117310095506,0.2432023846855078,0.5194296619506155,-0.5060264421823415,0.4779498918838715,-0.495675263601429,0.0,0.0,0.0,125,4.956401644155514e-16,0,1735643777088343858,map,0.9755149024609392,-0.0280040820177225,0.1464658498765683,-0.491667461033162,0.4881090222823425,-0.5150591791603156,0.504704598840234,0.0,0.0,0.0,126,5.965121658846329e-07,0,1735644242188269615,map,0.9802383004697292,0.3340977185301976,0.0232002106554008,-0.5094714364932381,0.4936834153472117,-0.4802772218918561,0.5157997004075029,0.0,0.0,0.0,0,7.311101944651455e-05,0.9446587118245882,0.1025954412885852,0.0128454746210349,1.0,5.096612539816929e-06,-5.593407639363549e-05,-6.45779139229388e-05,0.0,0.0,0.0,-5.593407639363549e-05,0.002823899443813,0.0002408014110746,0.0,0.0,0.0,-6.45779139229388e-05,0.0002408014110746,0.0009173233858198,0.0,0.0,0.0,0.0,0.0,0.0,0.0,0.0,0.0,0.0,0.0,0.0,0.0,0.0,0.0,0.0,0.0,0.0,0.0,0.0,0.0,0,0,0,1,16,,17
1.6003146,0,1735643777088230371,map,0.9636514032471764,-0.2246195395775842,0.0215258699606134,-0.4914353587731396,0.5001682950342337,-0.4980070124807659,0.5102077815067567,0.0,0.0,0.0,1,1.3083242045297538e-08,0,1735643777088253974,map,0.965925923242225,-0.2538631581660222,0.1472264108560182,-0.4981940243802856,0.4855365332672532,-0.4971619114649432,0.5185431734418241,0.0,0.0,0.0,16,5.4049509853986826e-17,0,1735643777088270664,map,0.9639008484839864,0.0492305613273658,0.0269082798136099,-0.4800574960295762,0.5033863145819589,-0.5101549446334764,0.5058546740551298,0.0,0.0,0.0,17,0.5470985174179077,0,1735643777088284730,map,0.9922870945506874,-0.2676771922005024,0.2378090461190486,-0.4895195345909736,0.5064720576749923,-0.49292197191613,0.5107686459157519,0.0,0.0,0.0,121,1.2902010771954142e-27,0,1735643777088297367,map,0.9892458833071204,0.1991133827580983,0.2430693301013555,-0.520136353143322,0.4888224041426915,-0.4884194120567117,0.5019534931376622,0.0,0.0,0.0,122,2.0089286408443013e-13,0,1735643777088310956,map,0.9819353724170315,0.1990636648078674,0.1450836336687144,-0.4870848714461743,0.5000952932372377,-0.4802761842276788,0.5310252466257387,0.0,0.0,0.0,124,4.219503898639232e-05,0,1735643777088322877,map,0.9737311051222166,-0.0346093615770569,0.2424747978046971,0.5552186898647234,-0.5126806418195524,0.4407422917787376,-0.4843934332399831,0.0,0.0,0.0,125,6.677750337546276e-17,0,1735643777088343858,map,0.9704136872058706,-0.0286756968870194,0.146347582622992,-0.443555053815264,0.4807100448291013,-0.5673657383635475,0.5002728115403922,0.0,0.0,0.0,126,2.7228975341131445e-07,0,1735644242188269615,map,0.9802383004697292,0.3340977185301976,0.0232002106554008,-0.5094714364932381,0.4936834153472117,-0.4802772218918561,0.5157997004075029,0.0,0.0,0.0,0,9.29502202779986e-05,0.9448068282299512,0.0976789212443344,0.0116655188757099,1.0,5.147827314783309e-06,-6.429531301937026e-05,-6.357554595970239e-05,0.0,0.0,0.0,-6.429531301937026e-05,0.0030445424213523,0.0003194570393594,0.0,0.0,0.0,-6.357554595970239e-05,0.0003194570393594,0.0008856399156287,0.0,0.0,0.0,0.0,0.0,0.0,0.0,0.0,0.0,0.0,0.0,0.0,0.0,0.0,0.0,0.0,0.0,0.0,0.0,0.0,0.0,0,0,0,1,17,,17
1.699085,0,1735643777088230371,map,0.9604886339116788,-0.2238611474958947,0.023842521182594,-0.4965409515711398,0.4952733142850682,-0.4927746549115653,0.5150966579649869,0.0,0.0,0.0,1,2.107396710471221e-07,0,1735643777088253974,map,0.9685844371439332,-0.2558079529505945,0.1485288400082811,-0.5036335403316543,0.4947738856562843,-0.492958829313563,0.5084718789937035,0.0,0.0,0.0,16,5.690454160531483e-16,0,1735643777088270664,map,0.9597394022234498,0.0479166358407902,0.029590341573207,-0.4814905653778196,0.4915900389040188,-0.5063111156456915,0.5197644882791708,0.0,0.0,0.0,17,0.568378746509552,0,1735643777088284730,map,0.9908379321044952,-0.2682698042926428,0.2392138987511066,-0.4908974450532727,0.5029955519990877,-0.4939235852429292,0.5119127514040583,0.0,0.0,0.0,121,6.0030600809668494e-27,0,1735643777088297367,map,0.9873016581357434,0.1982387400447652,0.2444809182626137,-0.5053093106749601,0.485965908197126,-0.4962858170876955,0.5120547083788389,0.0,0.0,0.0,122,2.4368560216036196e-14,0,1735643777088310956,map,0.9803234678755256,0.198101494327416,0.1466526201010838,-0.4858665666550118,0.5011860959701463,-0.4845643875711667,0.5272035004728767,0.0,0.0,0.0,124,1.966045965673402e-05,0,1735643777088322877,map,0.9766692173438604,-0.0352498124219243,0.2444219273838169,-0.5096979623737027,0.5461209272389705,-0.4798128772875659,0.4601516301967972,0.0,0.0,0.0,125,1.3468590657771212e-17,0,1735643777088343858,map,0.9684235794414572,-0.0292725295134967,0.1477970458025465,0.4486150741322069,-0.4998574875502051,0.563036270294719,-0.4815362558873038,0.0,0.0,0.0,126,2.0657562060932838e-07,0,1735644242188269615,map,0.9802383004697292,0.3340977185301976,0.0232002106554008,-0.5094714364932381,0.4936834153472117,-0.4802772218918561,0.5157997004075029,0.0,0.0,0.0,0,0.0002046166337095,0.944918108500553,0.0916312285029336,0.0112773995023291,1.0,5.07235298503491e-06,-7.216416222621127e-05,-6.077780167538873e-05,0.0,0.0,0.0,-7.216416222621127e-05,0.0034971691631263,0.0003416122802539,0.0,0.0,0.0,-6.077780167538873e-05,0.0003416122802539,0.0008389985211097,0.0,0.0,0.0,0.0,0.0,0.0,0.0,0.0,0.0,0.0,0.0,0.0,0.0,0.0,0.0,0.0,0.0,0.0,0.0,0.0,0.0,0,0,0,1,18,,17
1.79950049,0,1735643777088230371,map,0.96704183750643,-0.2270261532447757,0.0208574868601634,-0.49448358848747,0.5073214534877802,-0.4958801282144218,0.5022089425624051,0.0,0.0,0.0,1,2.499292008906196e-07,0,1735643777088253974,map,0.9638680844664342,-0.2538433511540527,0.148673847510831,-0.5097369756596564,0.4898862367293461,-0.4851853334194419,0.5145628075785997,0.0,0.0,0.0,16,3.150297642922402e-16,0,1735643777088270664,map,0.962396461259931,0.0486096453041309,0.028384668013911,-0.4837372632998934,0.5001724807775827,-0.5051692068443872,0.5105191691054717,0.0,0.0,0.0,17,0.608208179473877,0,1735643777088284730,map,0.990354188874312,-0.2690463955914159,0.2395220633266599,-0.4931801362769355,0.506167194768148,-0.4895837170696457,0.5107601277534064,0.0,0.0,0.0,121,5.597914235628259e-28,0,1735643777088297367,map,0.9889825840324896,0.1996664434243973,0.2450447908469466,-0.5011351837830323,0.4744916878038848,-0.4994320001095341,0.5237259235958798,0.0,0.0,0.0,122,3.902689057881138e-15,0,1735643777088310956,map,0.9779853050726665,0.1975026550863826,0.14695593774711,-0.4837390783837612,0.5040226290154588,-0.4890355308649299,0.5223044543524694,0.0,0.0,0.0,124,1.0283313713443931e-05,0,1735643777088322877,map,0.9698187520174528,-0.0355220104054683,0.2438725848384889,0.547091171220001,-0.5175383253669871,0.4495192304319574,-0.4803933738316164,0.0,0.0,0.0,125,1.8389126643921488e-18,0,1735643777088343858,map,0.9694951788778902,-0.0294900466267085,0.1478269485358018,-0.4769016423254774,0.4704500970882299,-0.521822668955825,0.5281501982019481,0.0,0.0,0.0,126,1.0422770202467293e-07,0,1735644242188269615,map,0.9802383004697292,0.3340977185301976,0.0232002106554008,-0.5094714364932381,0.4936834153472117,-0.4802772218918561,0.5157997004075029,0.0,0.0,0.0,0,0.0001687100739218,0.944997073325924,0.08822942532794,0.0108136237007728,1.0,4.917625024079761e-06,-7.32012587107082e-05,-5.82381655615242e-05,0.0,0.0,0.0,-7.32012587107082e-05,0.00352140839537,0.0003520308184523,0.0,0.0,0.0,-5.82381655615242e-05,0.0003520308184523,0.0007987122881031,0.0,0.0,0.0,0.0,0.0,0.0,0.0,0.0,0.0,0.0,0.0,0.0,0.0,0.0,0.0,0.0,0.0,0.0,0.0,0.0,0.0,0,0,0,1,19,,17
1.899685974,0,1735643777088230371,map,0.9623469634074728,-0.2263541417231567,0.0221415868916597,-0.5006101873273451,0.5046965345673365,-0.4810903804435816,0.5130525257558453,0.0,0.0,0.0,1,1.3254562247766446e-07,0,1735643777088253974,map,0.961622024777864,-0.2543597052733636,0.1493743912061422,-0.5038149817123871,0.4801574125330737,-0.4898719437360311,0.525018858834589,0.0,0.0,0.0,16,5.806605406308301e-17,0,1735643777088270664,map,0.965548396710045,0.0501461154428859,0.0266914514702995,-0.5053393107604567,0.4872256615837911,-0.4748610109468539,0.5308016164038276,0.0,0.0,0.0,17,0.6507313251495361,0,1735643777088284730,map,0.9812164014961112,-0.2663083097772559,0.2397580599111229,-0.4987296930124218,0.4816502941455873,-0.4882316065287423,0.5300109299284013,0.0,0.0,0.0,121,4.5562025620922643e-29,0,1735643777088297367,map,0.9774899158952316,0.1962077893783102,0.2450558630892823,-0.5035890462727928,0.4891099914922298,-0.49628977540595,0.5107503769201177,0.0,0.0,0.0,122,6.433273467911535e-16,0,1735643777088310956,map,0.9724817969606846,0.1970882580289934,0.1479252308575274,-0.4868792593523595,0.5033882238682692,-0.4806834823697229,0.5277236707408186,0.0,0.0,0.0,124,4.763336619362235e-06,0,1735643777088322877,map,0.9705349282610716,-0.0355644945094319,0.2453828042791782,-0.4995505136301431,0.4976055410827243,-0.498993993302667,0.5038283482134446,0.0,0.0,0.0,125,1.947923230104121e-19,0,1735643777088343858,map,0.9686359200063572,-0.0290084391349382,0.1482370612070412,-0.5026111191477353,0.5128218459374576,-0.4985639409910351,0.4856231192826877,0.0,0.0,0.0,126,5.164904948173898e-08,0,1735644242188269615,map,0.9802383004697292,0.3340977185301976,0.0232002106554008,-0.5094714364932381,0.4936834153472117,-0.4802772218918561,0.5157997004075029,0.0,0.0,0.0,0,0.0001041859068209,0.944987626737175,0.0874446825206015,0.0111214213034268,1.0,4.673439295616652e-06,-6.940034606625357e-05,-5.538150239348206e-05,0.0,0.0,0.0,-6.940034606625357e-05,0.0033570385798013,0.0003298399803885,0.0,0.0,0.0,-5.538150239348206e-05,0.0003298399803885,0.0007605767216178,0.0,0.0,0.0,0.0,0.0,0.0,0.0,0.0,0.0,0.0,0.0,0.0,0.0,0.0,0.0,0.0,0.0,0.0,0.0,0.0,0.0,0,0,0,1,20,,17
1.999921553,0,1735643777088230371,map,0.9634260753325032,-0.2270188534943291,0.0211556532068676,-0.4934703771140811,0.5083806510197397,-0.4911527247963919,0.5067594118560719,0.0,0.0,0.0,1,5.82143826477477e-08,0,1735643777088253974,map,0.9582563303375884,-0.2524086601858613,0.1491747997191723,-0.507358377043233,0.4919946681357979,-0.4837126392048905,0.5162855861279124,0.0,0.0,0.0,16,1.4016128802180275e-17,0,1735643777088270664,map,0.9572298356291896,0.0489846934943587,0.0292695408391028,-0.4810079786181583,0.494150605735645,-0.507472386514129,0.5166413458894119,0.0,0.0,0.0,17,0.5640632510185242,0,1735643777088284730,map,0.9786687695195888,-0.2654708989212487,0.2396132237868937,-0.4966222025302128,0.4907299766135239,-0.4883671647018309,0.5234959316441966,0.0,0.0,0.0,121,3.3516902398442226e-30,0,1735643777088297367,map,0.9736114041539842,0.1948908809287373,0.2448782238630124,0.5117422537454189,-0.4979960437762772,0.4945148142783547,-0.4955551478634645,0.0,0.0,0.0,122,1.3578161814124071e-16,0,1735643777088310956,map,0.9705548348894798,0.1968565663675713,0.1479126581521407,-0.482666228500982,0.4992296774818878,-0.4830572474297844,0.533346732146667,0.0,0.0,0.0,124,2.5682986688480014e-06,0,1735643777088322877,map,0.9698869928093632,-0.0354284715471399,0.2453667752383536,-0.5088442998158554,0.4677186069006607,-0.4890686402595754,0.5320983446868321,0.0,0.0,0.0,125,3.282170921901439e-20,0,1735643777088343858,map,0.9655073569811984,-0.0288697534048714,0.1486380953940281,-0.4892790538692526,0.5589197089372174,-0.512733526780543,0.4304870461715791,0.0,0.0,0.0,126,2.1574708242155797e-08,0,1735644242188269615,map,0.9802383004697292,0.3340977185301976,0.0232002106554008,-0.5094714364932381,0.4936834153472117,-0.4802772218918561,0.5157997004075029,0.0,0.0,0.0,0,6.922639295225963e-05,0.9450269755030456,0.0877377006069125,0.0104693698449917,1.0,4.481861074765108e-06,-6.586496968066282e-05,-5.325743639726635e-05,0.0,0.0,0.0,-6.586496968066282e-05,0.0031988967917888,0.0003103120572452,0.0,0.0,0.0,-5.325743639726635e-05,0.0003103120572452,0.000732862204582,0.0,0.0,0.0,0.0,0.0,0.0,0.0,0.0,0.0,0.0,0.0,0.0,0.0,0.0,0.0,0.0,0.0,0.0,0.0,0.0,0.0,0,0,0,1,21,,17
2.098421673,0,1735643777088230371,map,0.9610073229971172,-0.2265093608529693,0.0212794991233528,-0.4997535262106828,0.5113464002995248,-0.4871922076862329,0.5014130280622169,0.0,0.0,0.0,1,2.7367454080717838e-08,0,1735643777088253974,map,0.9591621245890538,-0.2536369720071456,0.1486244303015529,-0.4977386975505599,0.4853132172785645,-0.4979811431565024,0.5184033672305234,0.0,0.0,0.0,16,2.3764470932681493e-18,0,1735643777088270664,map,0.9608854951491874,0.0496503164986085,0.0270257349694663,-0.4966482955705178,0.4962471838589568,-0.4962685196193758,0.5106826406426481,0.0,0.0,0.0,17,0.6016483902931213,0,1735643777088284730,map,0.9783319829639848,-0.2665887375389191,0.2393760383688303,-0.4978553119402141,0.4867286468882814,-0.4910182635795495,0.5235803448397763,0.0,0.0,0.0,121,1.4760582646255644e-31,0,1735643777088297367,map,0.9767217112980155,0.1969776146327048,0.2450485596440726,-0.5138192945999545,0.4870402942496493,-0.4932011692910849,0.5055037990796188,0.0,0.0,0.0,122,3.0651713611189375e-17,0,1735643777088310956,map,0.969185335557612,0.1964514441309338,0.1474912251056668,-0.486927940769192,0.5007182277666199,-0.4816106206205589,0.5293709918252135,0.0,0.0,0.0,124,1.667309788899729e-06,0,1735643777088322877,map,0.9669951602934664,-0.0357984129719606,0.2446520634260862,-0.5200621708972947,0.5008416405292321,-0.4761163745227422,0.502002178705333,0.0,0.0,0.0,125,5.721966553476233e-21,0,1735643777088343858,map,0.9623396683528994,-0.0295795006526215,0.1482577077770695,-0.5198841985822439,0.4525946390129698,-0.4799393497515298,0.5427123854872824,0.0,0.0,0.0,126,1.0266929528768289e-08,0,1735644242188269615,map,0.9802383004697292,0.3340977185301976,0.0232002106554008,-0.5094714364932381,0.4936834153472117,-0.4802772218918561,0.5157997004075029,0.0,0.0,0.0,0,4.442844874574803e-05,0.9450011537850774,0.0879599860822393,0.010809487309726,1.0,4.292142100316732e-06,-6.29916430723499e-05,-5.102107459601375e-05,0.0,0.0,0.0,-6.29916430723499e-05,0.0030545300196454,0.0002977946303526,0.0,0.0,0.0,-5.102107459601375e-05,0.0002977946303526,0.0007019795638781,0.0,0.0,0.0,0.0,0.0,0.0,0.0,0.0,0.0,0.0,0.0,0.0,0.0,0.0,0.0,0.0,0.0,0.0,0.0,0.0,0.0,0,0,0,1,22,,17
2.199301791,0,1735643777088230371,map,0.9591043018463138,-0.2267544532102904,0.0214557400318559,-0.4955498244483211,0.509093996320322,-0.4940977865363294,0.5011197977926456,0.0,0.0,0.0,1,1.2803068827338393e-08,0,1735643777088253974,map,0.9561428637755612,-0.2531023703519101,0.1490773624262705,-0.5047037740537134,0.4926324932164418,-0.4895354392097554,0.5127790760561537,0.0,0.0,0.0,16,3.8429224106413334e-19,0,1735643777088270664,map,0.9586591580764164,0.0488512186022598,0.0273797735148491,-0.4895703206446477,0.499880867875671,-0.4958270361232954,0.5143885392628331,0.0,0.0,0.0,17,0.5766868591308594,0,1735643777088284730,map,0.9753480967139728,-0.266708513753283,0.2393970368136242,-0.4962714228679883,0.4897424007117537,-0.4901409765485151,0.5230954778027989,0.0,0.0,0.0,121,6.0871953746614875e-33,0,1735643777088297367,map,0.9749826638694844,0.1961629671789718,0.2452828590321065,-0.5093843261067238,0.4845804075882505,-0.4925793984452411,0.5129083476857526,0.0,0.0,0.0,122,4.871233126509972e-18,0,1735643777088310956,map,0.9670509584387832,0.1954482274040943,0.147708483621519,-0.4885578016764521,0.4999474367199472,-0.4788921952072799,0.5310612961869652,0.0,0.0,0.0,124,8.619454661129566e-07,0,1735643777088322877,map,0.9651082446911914,-0.036644405037954,0.2448356827149434,-0.5095606519506877,0.5007575866082927,-0.4843724434415073,0.5049486285478283,0.0,0.0,0.0,125,6.087444977828012e-22,0,1735643777088343858,map,0.9618093964167048,-0.0303201563411455,0.1483052151205368,0.5372969539858956,-0.5156322860244902,0.4623928051562391,-0.4812776979939765,0.0,0.0,0.0,126,4.347466830978419e-09,0,1735644242188269615,map,0.9802383004697292,0.3340977185301976,0.0232002106554008,-0.5094714364932381,0.4936834153472117,-0.4802772218918561,0.5157997004075029,0.0,0.0,0.0,0,2.7562684408621863e-05,0.9450057096956764,0.0875393534796968,0.0108302335879889,1.0,4.105983865460403e-06,-6.029503600195596e-05,-4.880068760472412e-05,0.0,0.0,0.0,-6.029503600195596e-05,0.0029256168659164,0.0002846550533862,0.0,0.0,0.0,-4.880068760472412e-05,0.0002846550533862,0.0006714681822521,0.0,0.0,0.0,0.0,0.0,0.0,0.0,0.0,0.0,0.0,0.0,0.0,0.0,0.0,0.0,0.0,0.0,0.0,0.0,0.0,0.0,0,0,0,1,23,,17
2.30005082,0,1735643777088230371,map,0.9557318178611584,-0.2272524358769101,0.0219774967090805,-0.4990165986543904,0.5076058061742263,-0.4917569853825864,0.501491622196271,0.0,0.0,0.0,1,5.1337760709202485e-09,0,1735643777088253974,map,0.9546377299200616,-0.2546296260297189,0.1489395916654022,-0.5010722902609908,0.4931586774030318,-0.4902234264876478,0.5151718848669902,0.0,0.0,0.0,16,4.8695175926936284e-20,0,1735643777088270664,map,0.9546512736631536,0.0477778653188539,0.0281104851443481,-0.487866314056905,0.5018237298315213,-0.4995566567737722,0.5104924587685119,0.0,0.0,0.0,17,0.5352725982666016,0,1735643777088284730,map,0.9750125746951844,-0.2696936138625476,0.240093185755958,-0.4937629122401582,0.4898954459373965,-0.4939515823456769,0.5217398516925067,0.0,0.0,0.0,121,1.0928278253950803e-34,0,1735643777088297367,map,0.971850052294052,0.1949224338512993,0.24560035160169,-0.5042457881819234,0.4771267822115992,-0.4973517225159097,0.5203147921284319,0.0,0.0,0.0,122,8.021078893071447e-19,0,1735643777088310956,map,0.9640868544483006,0.1943457465117035,0.1479162622268048,-0.4862474942365354,0.5024750725189169,-0.4811593446874059,0.5287417714402615,0.0,0.0,0.0,124,4.707461869202234e-07,0,1735643777088322877,map,0.9647789501295988,-0.0376793259429429,0.2456351960624695,-0.5081035365695059,0.513476119665977,-0.4857538657329056,0.4921547039131807,0.0,0.0,0.0,125,5.099692295997099e-23,0,1735643777088343858,map,0.9585843122268488,-0.0314725135020888,0.1485137508807249,-0.5258717895485698,0.467470788450385,-0.4743221061178728,0.529101561659447,0.0,0.0,0.0,126,1.6139920511193395e-09,0,1735644242188269615,map,0.9802383004697292,0.3340977185301976,0.0232002106554008,-0.5094714364932381,0.4936834153472117,-0.4802772218918561,0.5157997004075029,0.0,0.0,0.0,0,1.8211716451332904e-05,0.9449883288001938,0.0879303558161948,0.0110080639187268,1.0,3.941849401538423e-06,-5.793905016232264e-05,-4.683841518021436e-05,0.0,0.0,0.0,-5.793905016232264e-05,0.0028072324681943,0.0002743936638826,0.0,0.0,0.0,-4.683841518021436e-05,0.0002743936638826,0.0006442176847351,0.0,0.0,0.0,0.0,0.0,0.0,0.0,0.0,0.0,0.0,0.0,0.0,0.0,0.0,0.0,0.0,0.0,0.0,0.0,0.0,0.0,0,0,0,1,24,,17
2.400390296,0,1735643777088230371,map,0.9540803257334975,-0.2270569287961192,0.0227014630674059,-0.5005386387514554,0.5045551758264095,-0.4835168456346226,0.5109761302166336,0.0,0.0,0.0,1,2.205491789197822e-09,0,1735643777088253974,map,0.9546377299200616,-0.2546296260297189,0.1489395916654022,-0.5010722902609908,0.4931586774030318,-0.4902234264876478,0.5151718848669902,0.0,0.0,0.0,16,2.0981113119980768e-20,0,1735643777088270664,map,0.9542793972742036,0.0482496015479168,0.0283805655954419,-0.4920777700356141,0.4973373429252267,-0.4995725513583205,0.5108251183117285,0.0,0.0,0.0,17,0.5417270660400391,0,1735643777088284730,map,0.9750125746951844,-0.2696936138625476,0.240093185755958,-0.4937629122401582,0.4898954459373965,-0.4939515823456769,0.5217398516925067,0.0,0.0,0.0,121,9.758707292630706e-35,0,1735643777088297367,map,0.9705539991097144,0.1954906748126179,0.2465038802193625,-0.5120034867865649,0.484207402621724,-0.4916127048764619,0.5115785073366284,0.0,0.0,0.0,122,1.5605500100919264e-17,0,1735643777088310956,map,0.962245324455045,0.194580678952182,0.1486483995835425,-0.4873434597361715,0.5011291296213625,-0.4808107361063276,0.5293269157545327,0.0,0.0,0.0,124,1.5437985894095618e-06,0,1735643777088322877,map,0.9632523264608102,-0.03782362755928,0.2464857833780236,-0.4947568679033811,0.5036684140559391,-0.4998404592690891,0.5016904280753994,0.0,0.0,0.0,125,2.63786150489572e-22,0,1735643777088343858,map,0.9599052457516128,-0.031457900597704,0.148968025770728,-0.5359731310725051,0.4900172632765234,-0.4638269509098094,0.5074253088574031,0.0,0.0,0.0,126,2.711677105082799e-09,0,1735644242188269615,map,0.9802383004697292,0.3340977185301976,0.0232002106554008,-0.5094714364932381,0.4936834153472117,-0.4802772218918561,0.5157997004075029,0.0,0.0,0.0,0,1.3778202628600413e-05,0.9448534365672268,0.0893795833020257,0.0127238519997162,1.0,4.22087737383211e-06,-6.0313236915208016e-05,-5.051959422602999e-05,0.0,0.0,0.0,-6.0313236915208016e-05,0.002745349416803,0.0003230955312512,0.0,0.0,0.0,-5.051959422602999e-05,0.0003230955312512,0.0006891032670785,0.0,0.0,0.0,0.0,0.0,0.0,0.0,0.0,0.0,0.0,0.0,0.0,0.0,0.0,0.0,0.0,0.0,0.0,0.0,0.0,0.0,0,0,0,1,25,,17
2.498965828,0,1735643777088230371,map,0.9546425060242169,-0.2285442033138908,0.0226370154913363,-0.4982324650363061,0.5041680592200808,-0.4894355767639156,0.5079683012195505,0.0,0.0,0.0,1,8.117915228922357e-10,0,1735643777088253974,map,0.9546377299200616,-0.2546296260297189,0.1489395916654022,-0.5010722902609908,0.4931586774030318,-0.4902234264876478,0.5151718848669902,0.0,0.0,0.0,16,2.943352896238317e-20,0,1735643777088270664,map,0.9545210577069476,0.0481802977704503,0.0285354443827111,-0.4905582027226636,0.5002312947455696,-0.4986850486123714,0.510327859115253,0.0,0.0,0.0,17,0.5561875104904175,0,1735643777088284730,map,0.9750125746951844,-0.2696936138625476,0.240093185755958,-0.4937629122401582,0.4898954459373965,-0.4939515823456769,0.5217398516925067,0.0,0.0,0.0,121,1.9822600010206245e-33,0,1735643777088297367,map,0.9659259850015516,0.1932726137469664,0.2467938997857726,-0.5091705759314802,0.4862772972578099,-0.4937359305690403,0.5103964592768724,0.0,0.0,0.0,122,7.589848888267525e-15,0,1735643777088310956,map,0.9611051045415336,0.19428191586353,0.1495107598125519,-0.4931558587894544,0.5024348503770775,-0.4757479574134179,0.5272763991353681,0.0,0.0,0.0,124,1.4501762962026987e-05,0,1735643777088322877,map,0.9607827804659324,-0.038405469087543,0.2472367689686941,-0.5052546206691312,0.486847627498328,-0.4936182330923341,0.5138464710889269,0.0,0.0,0.0,125,3.4948209628129227e-20,0,1735643777088343858,map,0.95666014152062,-0.0319358843287502,0.1499277391515838,-0.5249959667011238,0.4682310762192258,-0.4752120192818437,0.5285001711827636,0.0,0.0,0.0,126,1.1682344869257122e-08,0,1735644242188269615,map,0.9802383004697292,0.3340977185301976,0.0232002106554008,-0.5094714364932381,0.4936834153472117,-0.4802772218918561,0.5157997004075029,0.0,0.0,0.0,0,9.794462130230386e-06,0.9446702626149988,0.090952615037594,0.0151373831686115,1.0,4.8973533557489976e-06,-6.519695803346237e-05,-5.962893398545343e-05,0.0,0.0,0.0,-6.519695803346237e-05,0.0027016197756459,0.0004055828081356,0.0,0.0,0.0,-5.962893398545343e-05,0.0004055828081356,0.0008082276128485,0.0,0.0,0.0,0.0,0.0,0.0,0.0,0.0,0.0,0.0,0.0,0.0,0.0,0.0,0.0,0.0,0.0,0.0,0.0,0.0,0.0,0,0,0,1,26,,17
