%time,field.boxes0.header.seq,field.boxes0.header.stamp,field.boxes0.header.frame_id,field.boxes0.pose.position.x,field.boxes0.pose.position.y,field.boxes0.pose.position.z,field.boxes0.pose.orientation.x,field.boxes0.pose.orientation.y,field.boxes0.pose.orientation.z,field.boxes0.pose.orientation.w,field.boxes0.scale.x,field.boxes0.scale.y,field.boxes0.scale.z,field.boxes0.id,field.boxes0.pdf,field.boxes1.header.seq,field.boxes1.header.stamp,field.boxes1.header.frame_id,field.boxes1.pose.position.x,field.boxes1.pose.position.y,field.boxes1.pose.position.z,field.boxes1.pose.orientation.x,field.boxes1.pose.orientation.y,field.boxes1.pose.orientation.z,field.boxes1.pose.orientation.w,field.boxes1.scale.x,field.boxes1.scale.y,field.boxes1.scale.z,field.boxes1.id,field.boxes1.pdf,field.boxes2.header.seq,field.boxes2.header.stamp,field.boxes2.header.frame_id,field.boxes2.pose.position.x,field.boxes2.pose.position.y,field.boxes2.pose.position.z,field.boxes2.pose.orientation.x,field.boxes2.pose.orientation.y,field.boxes2.pose.orientation.z,field.boxes2.pose.orientation.w,field.boxes2.scale.x,field.boxes2.scale.y,field.boxes2.scale.z,field.boxes2.id,field.boxes2.pdf,field.boxes3.header.seq,field.boxes3.header.stamp,field.boxes3.header.frame_id,field.boxes3.pose.position.x,field.boxes3.pose.position.y,field.boxes3.pose.position.z,field.boxes3.pose.orientation.x,field.boxes3.pose.orientation.y,field.boxes3.pose.orientation.z,field.boxes3.pose.orientation.w,field.boxes3.scale.x,field.boxes3.scale.y,field.boxes3.scale.z,field.boxes3.id,field.boxes3.pdf,field.boxes4.header.seq,field.boxes4.header.stamp,field.boxes4.header.frame_id,field.boxes4.pose.position.x,field.boxes4.pose.position.y,field.boxes4.pose.position.z,field.boxes4.pose.orientation.x,field.boxes4.pose.orientation.y,field.boxes4.pose.orientation.z,field.boxes4.pose.orientation.w,field.boxes4.scale.x,field.boxes4.scale.y,field.boxes4.scale.z,field.boxes4.id,field.boxes4.pdf,field.boxes5.header.seq,field.boxes5.header.stamp,field.boxes5.header.frame_id,field.boxes5.pose.position.x,field.boxes5.pose.position.y,field.boxes5.pose.position.z,field.boxes5.pose.orientation.x,field.boxes5.pose.orientation.y,field.boxes5.pose.orientation.z,field.boxes5.pose.orientation.w,field.boxes5.scale.x,field.boxes5.scale.y,field.boxes5.scale.z,field.boxes5.id,field.boxes5.pdf,field.boxes6.header.seq,field.boxes6.header.stamp,field.boxes6.header.frame_id,field.boxes6.pose.position.x,field.boxes6.pose.position.y,field.boxes6.pose.position.z,field.boxes6.pose.orientation.x,field.boxes6.pose.orientation.y,field.boxes6.pose.orientation.z,field.boxes6.pose.orientation.w,field.boxes6.scale.x,field.boxes6.scale.y,field.boxes6.scale.z,field.boxes6.id,field.boxes6.pdf,field.boxes7.header.seq,field.boxes7.header.stamp,field.boxes7.header.frame_id,field.boxes7.pose.position.x,field.boxes7.pose.position.y,field.boxes7.pose.position.z,field.boxes7.pose.orientation.x,field.boxes7.pose.orientation.y,field.boxes7.pose.orientation.z,field.boxes7.pose.orientation.w,field.boxes7.scale.x,field.boxes7.scale.y,field.boxes7.scale.z,field.boxes7.id,field.boxes7.pdf,field.boxes8.header.seq,field.boxes8.header.stamp,field.boxes8.header.frame_id,field.boxes8.pose.position.x,field.boxes8.pose.position.y,field.boxes8.pose.position.z,field.boxes8.pose.orientation.x,field.boxes8.pose.orientation.y,field.boxes8.pose.orientation.z,field.boxes8.pose.orientation.w,field.boxes8.scale.x,field.boxes8.scale.y,field.boxes8.scale.z,field.boxes8.id,field.boxes8.pdf,field.pose.pose.position.x,field.pose.pose.position.y,field.pose.pose.position.z,field.pose.pose.orientation.w,field.pose.covariance0,field.pose.covariance1,field.pose.covariance2,field.pose.covariance3,field.pose.covariance4,field.pose.covariance5,field.pose.covariance6,field.pose.covariance7,field.pose.covariance8,field.pose.covariance9,field.pose.covariance10,field.pose.covariance11,field.pose.covariance12,field.pose.covariance13,field.pose.covariance14,field.pose.covariance15,field.pose.covariance16,field.pose.covariance17,field.pose.covariance18,field.pose.covariance19,field.pose.covariance20,field.pose.covariance21,field.pose.covariance22,field.pose.covariance23,field.pose.covariance24,field.pose.covariance25,field.pose.covariance26,field.pose.covariance27,field.pose.covariance28,field.pose.covariance29,field.pose.covariance30,field.pose.covariance31,field.pose.covariance32,field.pose.covariance33,field.pose.covariance34,field.pose.covariance35,field.buttons0,field.buttons1,field.buttons2,field.buttons3,intersection_length,vacuum,desired_box
0.0,0,1735643777088230371,map,0.9826332303527094,-0.2189487195324148,0.0221542868174128,-0.4985123051822298,0.4952629228827691,-0.4942358335834442,0.5117920081454909,0.0,0.0,0.0,1,0.1111111119389534,0,1735643777088253974,map,0.9852232638029574,-0.248272746580079,0.1486781001895572,-0.4941042256365296,0.4705858681510242,-0.4975958485462374,0.5355448873943458,0.0,0.0,0.0,16,0.1111111119389534,0,1735643777088270664,map,0.9980036481606518,0.0598038305706388,0.0230566121741476,-0.4874549567453241,0.5059567617667049,-0.5045239336068259,0.5018476071327425,0.0,0.0,0.0,17,0.1111111119389534,0,1735643777088284730,map,1.0210736554490254,-0.2560689323951075,0.2369204488671112,-0.4907124148114805,0.4978586609157617,-0.5033632164225516,0.5079011242887674,0.0,0.0,0.0,121,0.1111111119389534,0,1735643777088297367,map,1.0220907479952803,0.2119226205870548,0.242313421624767,-0.4980054827886471,0.4672223589650049,-0.4999181548349763,0.5327059647329054,0.0,0.0,0.0,122,0.1111111119389534,0,1735643777088310956,map,1.0162220704280531,0.2125074341073838,0.1440443779986263,-0.4951177441377417,0.4980072378199949,-0.4848187173721134,0.5213425187000499,0.0,0.0,0.0,124,0.1111111119389534,0,1735643777088322877,map,1.0133285140244197,-0.0234551680509171,0.2429793496969227,-0.4871359307797101,0.5173862831095342,-0.5042742353863122,0.4906297122260704,0.0,0.0,0.0,125,0.1111111119389534,0,1735643777088343858,map,1.0068393050150493,-0.0182247973989019,0.1456237266815776,0.6600663928749743,-0.4798146825336993,0.346917514493432,-0.4623185758325152,0.0,0.0,0.0,126,0.1111111119389534,0,1735644242188269615,map,0.9782589145020222,0.33280669764824,0.0262220690344387,-0.5081697236761515,0.4881585385593822,-0.4799486851134945,0.5226031312844387,0.0,0.0,0.0,0,0.1111111119389534,0.9450156283261448,0.0728035786630581,0.0138014774981876,1.0,0.0,0.0,0.0,0.0,0.0,0.0,0.0,0.0,0.0,0.0,0.0,0.0,0.0,0.0,0.0,0.0,0.0,0.0,0.0,0.0,0.0,0.0,0.0,0.0,0.0,0.0,0.0,0.0,0.0,0.0,0.0,0.0,0.0,0.0,0.0,0.0,0,0,0,1,1,,17
0.099805486,0,1735643777088230371,map,0.984364114641857,-0.2191392773307408,0.0219085328847907,-0.5183438278572117,0.7163232145811322,-0.376395608352026,0.2766352732169106,0.0,0.0,0.0,1,0.0,0,1735643777088253974,map,0.9876249657060768,-0.2480629346895968,0.1479898540468132,-0.4828019279134076,0.4833167502655833,-0.5144651875485831,0.5182979723251998,0.0,0.0,0.0,16,0.0,0,1735643777088270664,map,0.9979107425900996,0.059336100545744,0.0230030643839462,-0.4942729101555139,0.493394391173643,-0.4885482050751435,0.5230458071360914,0.0,0.0,0.0,17,0.0,0,1735643777088284730,map,1.0127478065628457,-0.2543403435324151,0.2367064634192609,-0.5125900748872986,0.5341914641999271,-0.4596647377828812,0.4905091472561611,0.0,0.0,0.0,121,0.0,0,1735643777088297367,map,1.0241374677811936,0.212564751684759,0.2424942400260989,0.5351486068408565,-0.480087935672037,0.4842458636305263,-0.4986356246550966,0.0,0.0,0.0,122,0.0,0,1735643777088310956,map,1.0149615046498326,0.2116810779276585,0.1440169792379118,-0.4837859989693851,0.4973762770763529,-0.4849824658832657,0.5323156525865533,0.0,0.0,0.0,124,0.0,0,1735643777088322877,map,1.0218108977954286,-0.0221356959367564,0.242635462063197,-0.4996550979088047,0.5036700793181584,-0.4978379560561026,0.4988172048388716,0.0,0.0,0.0,125,0.0,0,1735643777088343858,map,1.0067272833200285,-0.0181515022732387,0.144998924849991,-0.4866353233904091,0.4544737085616205,-0.5028188549456362,0.5511922617073997,0.0,0.0,0.0,126,0.0,0,1735644242188269615,map,0.982962441221816,0.3353534649619571,0.0247595174816519,-0.5112768327983074,0.4920992200545047,-0.4768010942585192,0.5187437463520488,0.0,0.0,0.0,0,0.0,0.9450720633993828,0.0743473645310855,0.0126284050957535,1.0,3.184917491358789e-09,8.712366852564868e-08,-6.620242694464277e-08,0.0,0.0,0.0,8.712366852564868e-08,2.383274806321195e-06,-1.810972597050795e-06,0.0,0.0,0.0,-6.620242694464277e-08,-1.810972597050795e-06,1.3760988613525858e-06,0.0,0.0,0.0,0.0,0.0,0.0,0.0,0.0,0.0,0.0,0.0,0.0,0.0,0.0,0.0,0.0,0.0,0.0,0.0,0.0,0.0,0,0,0,1,2,,17
0.199675734,0,1735643777088230371,map,0.9808264903534216,-0.2182687875053651,0.0230742174564763,-0.4861999073617925,0.4956779760553158,-0.5041907035091805,0.513521887196649,0.0,0.0,0.0,1,0.0,0,1735643777088253974,map,0.99256557478257,-0.2489571503673789,0.1475365469389898,0.5324861446291959,-0.5170879139306485,0.4555084500823364,-0.4915187147488621,0.0,0.0,0.0,16,0.0,0,1735643777088270664,map,0.9914255786862796,0.0579757942081488,0.0250059450879573,-0.4790708537790203,0.4989397635272467,-0.5093340522268777,0.5119854027928571,0.0,0.0,0.0,17,2.6866901835686768e-27,0,1735643777088284730,map,1.016529713683083,-0.2548355352486591,0.2367622770444575,-0.4907281496413402,0.4995274039989421,-0.4865484063403933,0.5224259795332615,0.0,0.0,0.0,121,0.0,0,1735643777088297367,map,1.0264688010177818,0.2135684886264747,0.2421625934911699,-0.5107966519483762,0.4938325730902707,-0.4899021853344326,0.5051851333104719,0.0,0.0,0.0,122,0.0,0,1735643777088310956,map,1.016495723677675,0.2123058253294085,0.1438295778755368,-0.4860171911183199,0.4966157946579288,-0.4766624293562789,0.5384728134956329,0.0,0.0,0.0,124,0.0,0,1735643777088322877,map,1.006537385926557,-0.0238569870241079,0.2421375184496439,-0.5064285040123911,0.5009108413964486,-0.4919813754777269,0.5005724977246727,0.0,0.0,0.0,125,0.0,0,1735643777088343858,map,1.0118126383971366,-0.0175806526177333,0.1445669764866973,0.646385857866043,-0.4947068290619851,0.3654274551696067,-0.451567548699506,0.0,0.0,0.0,126,0.0,0,1735644242188269615,map,0.971602113763443,0.3274273705488861,0.028310937791095,-0.4790062323404354,0.4930014084020833,-0.4928716387074442,0.533460578159644,0.0,0.0,0.0,0,0.0,0.9449686202343192,0.0769712202877491,0.0136239319510188,1.0,2.3524255124265922e-08,-4.84757442594766e-07,-2.500958489250791e-07,0.0,0.0,0.0,-4.84757442594766e-07,1.5358087934433966e-05,4.016922675501931e-06,0.0,0.0,0.0,-2.500958489250791e-07,4.016922675501931e-06,2.899546680010843e-06,0.0,0.0,0.0,0.0,0.0,0.0,0.0,0.0,0.0,0.0,0.0,0.0,0.0,0.0,0.0,0.0,0.0,0.0,0.0,0.0,0.0,0,0,0,1,3,,17
0.298594934,0,1735643777088230371,map,0.9832195942899074,-0.218430655947543,0.0218888975685307,-0.4907658340716587,0.4927347826660544,-0.4913497023134549,0.5243441618779257,0.0,0.0,0.0,1,0.0,0,1735643777088253974,map,0.9833857844738808,-0.2467630698981035,0.1481762474644571,-0.5090567939963384,0.4920604637424112,-0.4859029388327132,0.5124802577090217,0.0,0.0,0.0,16,0.0,0,1735643777088270664,map,0.9892327434799084,0.0574243358015177,0.0257222461748478,-0.4996684423626149,0.4804230249276039,-0.4882962803511465,0.5301810138259985,0.0,0.0,0.0,17,9.95203200990051e-14,0,1735643777088284730,map,1.0201153215291987,-0.2556180498578009,0.2368269064333935,-0.4998241792483302,0.4906009368733542,-0.4835355308370251,0.5250522840592888,0.0,0.0,0.0,121,0.0,0,1735643777088297367,map,1.0283801873061589,0.2143546196934316,0.2420608065454227,-0.5207401502506357,0.4775290063272264,-0.4846307410158766,0.5156828375033236,0.0,0.0,0.0,122,0.0,0,1735643777088310956,map,1.0128625497213934,0.2103606853652303,0.1441522066895559,-0.4851295234360443,0.5020309404482027,-0.4847505827724392,0.5269071576902234,0.0,0.0,0.0,124,0.0,0,1735643777088322877,map,1.0013118522088342,-0.0248968385450262,0.2418585453096947,-0.5819170688715904,0.4812157662438236,-0.4206109535250009,0.502882030946678,0.0,0.0,0.0,125,0.0,0,1735643777088343858,map,1.011536025175675,-0.0176164054205418,0.1442958221150951,0.5069619673914497,-0.4996783180159495,0.4938617573864406,-0.4994113602177251,0.0,0.0,0.0,126,0.0,0,1735644242188269615,map,0.9829552933839328,0.3346726240622505,0.024714532817936,-0.4971851496923785,0.4977066144021096,-0.4850757952639233,0.5194194121852101,0.0,0.0,0.0,0,0.0,0.9450079515666032,0.0779641733492944,0.0128239464568421,1.0,2.2284052440915844e-08,-2.4640558152775177e-07,-2.819653725754764e-07,0.0,0.0,0.0,-2.4640558152775177e-07,1.4476433298121878e-05,6.296478697227014e-07,0.0,0.0,0.0,-2.819653725754764e-07,6.296478697227014e-07,4.094590382687639e-06,0.0,0.0,0.0,0.0,0.0,0.0,0.0,0.0,0.0,0.0,0.0,0.0,0.0,0.0,0.0,0.0,0.0,0.0,0.0,0.0,0.0,0,0,0,1,4,,17
0.398478157,0,1735643777088230371,map,0.9920634303682364,-0.2202041748044776,0.0188241415585614,-0.4990297217902731,0.5151762399397593,-0.4967483019360989,0.4886756624746686,0.0,0.0,0.0,1,0.0,0,1735643777088253974,map,0.9809832196080442,-0.2464223892851592,0.147855546768275,-0.5404466401613719,0.5071055363884175,-0.4464911275119689,0.5014051028415955,0.0,0.0,0.0,16,0.0,0,1735643777088270664,map,0.9915536889536996,0.0575117361164329,0.0243529885206126,-0.4892100797073387,0.4883317447454716,-0.4983102785186283,0.5233473715509326,0.0,0.0,0.0,17,6.263318212869091e-15,0,1735643777088284730,map,1.0149856272992497,-0.2544469858063417,0.2359614787351769,-0.3696430539490347,0.6365505251912706,-0.570815519968603,0.3637816428971121,0.0,0.0,0.0,121,0.0,0,1735643777088297367,map,1.0196933698080255,0.2094387172795117,0.2413236390629281,-0.5117639671199802,0.4933531688272354,-0.488988640445913,0.5055594943036904,0.0,0.0,0.0,122,0.0,0,1735643777088310956,map,1.0087534869768673,0.2082471497869668,0.1437697808895716,-0.4717117253887741,0.4984981312859693,-0.4949030605320138,0.5329715019690905,0.0,0.0,0.0,124,0.0,0,1735643777088322877,map,1.0007388869771623,-0.0250710642348781,0.2412200237170705,0.4598912200002804,-0.530809380117087,0.5352882397125757,-0.4692632184305307,0.0,0.0,0.0,125,0.0,0,1735643777088343858,map,1.0043190866305114,-0.0187705324343419,0.1443794383926529,0.50265411543131,-0.4926616106374334,0.5061363091478933,-0.4984470024047146,0.0,0.0,0.0,126,0.0,0,1735644242188269615,map,0.9794966570058268,0.3318474868046426,0.0251641436851121,-0.4902479943139891,0.4925973133172081,-0.4936630894039523,0.5227825027140109,0.0,0.0,0.0,0,0.0,0.9455409997805664,0.0694940993717046,0.0066245506277952,1.0,1.154388835589688e-06,-1.825695568878009e-05,-1.3443879795355089e-05,0.0,0.0,0.0,-1.825695568878009e-05,0.0002985497593818,0.0002105410834493,0.0,0.0,0.0,-1.3443879795355089e-05,0.0002105410834493,0.0001570057068869,0.0,0.0,0.0,0.0,0.0,0.0,0.0,0.0,0.0,0.0,0.0,0.0,0.0,0.0,0.0,0.0,0.0,0.0,0.0,0.0,0.0,0,0,0,1,5,,17
0.501342031,0,1735643777088230371,map,0.9877472061639998,-0.2203173222754331,0.0203659659581366,-0.475782548463366,0.5310779953695309,-0.5196125263798674,0.4707334190825175,0.0,0.0,0.0,1,0.0,0,1735643777088253974,map,0.985899003579265,-0.248599016228127,0.1477275572675242,-0.5233497858353642,0.4774531545415869,-0.4750934369421554,0.5219479984240346,0.0,0.0,0.0,16,0.0,0,1735643777088270664,map,0.9878513429991904,0.0564000920287192,0.0256035414042274,-0.4765938676098759,0.5052383810181491,-0.5066867451970334,0.5107455393289854,0.0,0.0,0.0,17,2.632519853149051e-13,0,1735643777088284730,map,1.0148888448623563,-0.2562629980873969,0.2367704946736673,-0.4843427820706747,0.4810904411992484,-0.4982083472185071,0.5345582284508906,0.0,0.0,0.0,121,0.0,0,1735643777088297367,map,1.0168894148602556,0.2083438809617053,0.2419540829189449,0.527655880796555,-0.4886106011493789,0.4846104807553167,-0.4979875840293162,0.0,0.0,0.0,122,0.0,0,1735643777088310956,map,1.0143254635978851,0.2107381120437554,0.143782691699989,-0.5022729828599097,0.50623958968004,-0.4762131280232483,0.5144554258902384,0.0,0.0,0.0,124,6.640971193100365e-12,0,1735643777088322877,map,1.003065612251406,-0.0258715233024516,0.2418652037943536,-0.5860704326447053,0.442639880659083,-0.4045102237376048,0.5449429905242505,0.0,0.0,0.0,125,0.0,0,1735643777088343858,map,1.0077558323639206,-0.0187753871883292,0.1446022989317135,-0.5064388941650029,0.4886650705503382,-0.4933809995809122,0.5111763732348176,0.0,0.0,0.0,126,0.0,0,1735644242188269615,map,0.9729511962973963,0.3277747606440561,0.0273845324576454,-0.4882826043826199,0.4977005034667601,-0.489572865368323,0.5236341438459765,0.0,0.0,0.0,0,0.0,0.9462210252541596,0.0604252901266365,-0.0016519136566863,1.0,3.27416392000403e-06,-4.6049236249676e-05,-3.934426588646112e-05,0.0,0.0,0.0,-4.6049236249676e-05,0.0006600079717687,0.0005507392819723,0.0,0.0,0.0,-3.934426588646112e-05,0.0005507392819723,0.0004733373943339,0.0,0.0,0.0,0.0,0.0,0.0,0.0,0.0,0.0,0.0,0.0,0.0,0.0,0.0,0.0,0.0,0.0,0.0,0.0,0.0,0.0,0,0,0,1,6,,17
0.597590827,0,1735643777088230371,map,0.9826941399194372,-0.2195387614347707,0.0215207415613372,-0.4988536218864853,0.4957286506329413,-0.4933772548215281,0.5118369401451515,0.0,0.0,0.0,1,0.0,0,1735643777088253974,map,0.9909026696940256,-0.2497930872840814,0.1469561273963771,-0.5042137068269381,0.4918357321058896,-0.4913680727234949,0.5122729424630001,0.0,0.0,0.0,16,0.0,0,1735643777088270664,map,0.9861531133797824,0.055136233949213,0.0261587621894502,0.7559199774982777,-0.4584086203925681,0.2329554997147214,-0.4051891651086567,0.0,0.0,0.0,17,5.0655733384469557e-17,0,1735643777088284730,map,1.0204231505819044,-0.2578264948767902,0.2369078363927509,0.3527875233347586,-0.598592402979242,0.6129269176563933,-0.3762295736476561,0.0,0.0,0.0,121,0.0,0,1735643777088297367,map,1.0185840466101703,0.2091245055864034,0.2419714086259284,-0.5091688504666855,0.4885037264505659,-0.4911347333266965,0.5107816213201679,0.0,0.0,0.0,122,0.0,0,1735643777088310956,map,1.0100421103354429,0.2088632967820533,0.1440435286960122,-0.4770772987514458,0.4943639855713676,-0.4930106867035135,0.5337995537485455,0.0,0.0,0.0,124,1.4256477109952923e-09,0,1735643777088322877,map,1.0033108261273902,-0.0260755952128401,0.2419538463407319,-0.4452286580594844,0.4426730995911325,-0.5349445397931037,0.5653727162558113,0.0,0.0,0.0,125,0.0,0,1735643777088343858,map,1.0025541945244916,-0.0200073871236413,0.1449508635315792,-0.4850560416108099,0.4546698379015457,-0.5051945944406382,0.5502493950450047,0.0,0.0,0.0,126,0.0,0,1735644242188269615,map,0.9828951255891664,0.3347485569009478,0.0239977262735638,-0.5107826618812211,0.4958958770077948,-0.4799369389604038,0.512687903221367,0.0,0.0,0.0,0,0.0,0.9469246721714084,0.0506752989541906,-0.0101383426209119,1.0,5.7771401220683714e-06,-8.063408131845838e-05,-6.955235394887694e-05,0.0,0.0,0.0,-8.063408131845838e-05,0.0011360950858355,0.0009685178866113,0.0,0.0,0.0,-6.955235394887694e-05,0.0009685178866113,0.000837834625961,0.0,0.0,0.0,0.0,0.0,0.0,0.0,0.0,0.0,0.0,0.0,0.0,0.0,0.0,0.0,0.0,0.0,0.0,0.0,0.0,0.0,0,0,0,1,7,,17
0.69953815,0,1735643777088230371,map,0.9870651312896588,-0.2211974230761311,0.0193674160200903,-0.4907498719324888,0.4900773241618631,-0.4968562592934977,0.5216537521589075,0.0,0.0,0.0,1,0.0,0,1735643777088253974,map,0.9860257368140498,-0.2494965984521942,0.1468024045699573,-0.5093514958332703,0.4807055745421513,-0.4821115762912638,0.5263569438151866,0.0,0.0,0.0,16,0.0,0,1735643777088270664,map,0.9907709335316134,0.056190758162411,0.0237237433967499,-0.4998022343134535,0.4829446234177956,-0.4891585716789301,0.5269593049184661,0.0,0.0,0.0,17,0.0117887519299983,0,1735643777088284730,map,1.015881777583975,-0.2576157187163263,0.236236688806318,0.3183027159850845,-0.5655270345542324,0.653996825593818,-0.3887810518762766,0.0,0.0,0.0,121,0.0,0,1735643777088297367,map,1.0200952449181462,0.2099825559298281,0.2417417145367777,0.517798050067174,-0.4882090899967374,0.4941763630369462,-0.4993263321784328,0.0,0.0,0.0,122,0.0,0,1735643777088310956,map,1.0141923235960424,0.2105704492722436,0.1432056003980711,-0.5043679963817325,0.5124820753977191,-0.4729908953850201,0.50917056032807,0.0,0.0,0.0,124,3.8198280094547954e-08,0,1735643777088322877,map,1.01271901979147,-0.025330619355894,0.2425126667198822,0.5102050608271935,-0.5006002588748611,0.4890603587487723,-0.4999101341453924,0.0,0.0,0.0,125,0.0,0,1735643777088343858,map,1.0078892146287268,-0.0199429109840132,0.1440976866331941,0.6209088618381261,-0.4821437521821349,0.3819241303160686,-0.4859460321938331,0.0,0.0,0.0,126,0.0,0,1735644242188269615,map,0.9828951255891664,0.3347485569009478,0.0239977262735638,-0.5107826618812211,0.4958958770077948,-0.4799369389604038,0.512687903221367,0.0,0.0,0.0,0,0.0,0.9473089739368272,0.0418118017541882,-0.0140240748729737,1.0,6.088812535138378e-06,-9.439862450587552e-05,-7.131136605615468e-05,0.0,0.0,0.0,-9.439862450587552e-05,0.0015440142784072,0.0010885413893376,0.0,0.0,0.0,-7.131136605615468e-05,0.0010885413893376,0.0008387977036589,0.0,0.0,0.0,0.0,0.0,0.0,0.0,0.0,0.0,0.0,0.0,0.0,0.0,0.0,0.0,0.0,0.0,0.0,0.0,0.0,0.0,0,0,0,1,8,,17
0.800064097,0,1735643777088230371,map,0.9855043836031824,-0.2221661868957394,0.019035267260443,-0.4980826046928885,0.5069331633933389,-0.4856238453096403,0.509020596460545,0.0,0.0,0.0,1,3.617315877903913e-19,0,1735643777088253974,map,0.9841562090269425,-0.2504394412378006,0.1467274712493415,-0.5188731985275439,0.4851443319222572,-0.4752473810256921,0.5191777228288246,0.0,0.0,0.0,16,0.0,0,1735643777088270664,map,0.9876076493553194,0.0553010002078849,0.0238123753419021,-0.480458127676854,0.507849298853404,-0.5087288377449065,0.502438102506244,0.0,0.0,0.0,17,0.4041944742202759,0,1735643777088284730,map,1.0120664904883343,-0.2587845796824811,0.2366251035986376,-0.5038674693273243,0.5139415233534783,-0.4741244173269899,0.5071367870911424,0.0,0.0,0.0,121,0.0,0,1735643777088297367,map,1.0067436818766755,0.2037485501783874,0.2414761197527241,-0.5144557876717882,0.4950789205495928,-0.4889251165433461,0.5011829360338655,0.0,0.0,0.0,122,1.166410592740453e-21,0,1735643777088310956,map,1.0062746326299965,0.2071525526522906,0.1438447916498325,-0.4890745955949123,0.5035456476399893,-0.4849275674147971,0.5216254164126444,0.0,0.0,0.0,124,2.378560139959518e-07,0,1735643777088322877,map,0.9926488922507464,-0.0284323618104445,0.2415713600586335,-0.5357194611815361,0.5461028490351854,-0.4578998188465354,0.4528841939031746,0.0,0.0,0.0,125,1.401298464324817e-45,0,1735643777088343858,map,0.9908819394720072,-0.0225894295580676,0.1453315742050789,-0.4505137956892355,0.4799036305411323,-0.558452160056502,0.5048376077664436,0.0,0.0,0.0,126,1.1178841915468397e-19,0,1735644242188269615,map,0.9828951255891664,0.3347485569009478,0.0239977262735638,-0.5107826618812211,0.4958958770077948,-0.4799369389604038,0.512687903221367,0.0,0.0,0.0,0,6.556437881793822e-16,0.9473576725866012,0.0327549501395357,-0.0128366983171282,1.0,5.431250276930298e-06,-8.743834000835604e-05,-6.292529185846129e-05,0.0,0.0,0.0,-8.743834000835604e-05,0.0020286696257206,0.0008815611998618,0.0,0.0,0.0,-6.292529185846129e-05,0.0008815611998618,0.0007568768634909,0.0,0.0,0.0,0.0,0.0,0.0,0.0,0.0,0.0,0.0,0.0,0.0,0.0,0.0,0.0,0.0,0.0,0.0,0.0,0.0,0.0,0,0,0,1,9,,17
0.900166353,0,1735643777088230371,map,0.9749471189804432,-0.2216515104327419,0.0228350145843488,-0.4727686624235519,0.7591627275208324,-0.376471227688514,0.2417253807445114,0.0,0.0,0.0,1,3.848442133858043e-07,0,1735643777088253974,map,0.9769385658505774,-0.2508768390100648,0.1481759017518086,-0.4987240646707485,0.4720260082241081,-0.4964550564872217,0.531034962847618,0.0,0.0,0.0,16,1.5192081186465672e-16,0,1735643777088270664,map,0.9921018283691748,0.0559493352101499,0.0229607514356929,-0.5190683933293591,0.4890469988066173,-0.46595045826755,0.5237281799225422,0.0,0.0,0.0,17,0.6255977153778076,0,1735643777088284730,map,1.0118120039833256,-0.2603422524602056,0.2378023284701643,-0.4943118247810852,0.5041623624201406,-0.4921520548731746,0.5091782468690589,0.0,0.0,0.0,121,3.734740236996395e-27,0,1735643777088297367,map,1.0081491184283444,0.2042278835148518,0.2428214858617191,-0.6279464464842741,0.2215359661322839,-0.2481856880167997,0.7035687175544659,0.0,0.0,0.0,122,7.188049492375028e-15,0,1735643777088310956,map,1.0023567892216028,0.2055450241590522,0.1449668980702813,-0.4828717168804602,0.5045491495559735,-0.4862771156753973,0.5251662855607517,0.0,0.0,0.0,124,4.6155366817401965e-07,0,1735643777088322877,map,0.9874840075568796,-0.0298156793892084,0.2421411089244118,-0.5370210136599597,0.5433808262952559,-0.4573476203039238,0.4551690484914946,0.0,0.0,0.0,125,2.0547939333381575e-16,0,1735643777088343858,map,0.9969846392571986,-0.0225467269827022,0.1456896575866017,0.6179012076819163,-0.4814350550880333,0.38770346642465,-0.4859057597929068,0.0,0.0,0.0,126,9.199589499075956e-07,0,1735644242188269615,map,0.9828951255891664,0.3347485569009478,0.0239977262735638,-0.5107826618812211,0.4958958770077948,-0.4799369389604038,0.512687903221367,0.0,0.0,0.0,0,2.608329774389517e-09,0.9471007830929452,0.0244228574209437,-0.0072206595054145,1.0,5.482055156794085e-06,-5.943066229136639e-05,-6.961707497284958e-05,0.0,0.0,0.0,-5.943066229136639e-05,0.0024506165847895,0.0003722648750619,0.0,0.0,0.0,-6.961707497284958e-05,0.0003722648750619,0.0009650482045538,0.0,0.0,0.0,0.0,0.0,0.0,0.0,0.0,0.0,0.0,0.0,0.0,0.0,0.0,0.0,0.0,0.0,0.0,0.0,0.0,0.0,0,0,0,1,10,,17
0.998210482,0,1735643777088230371,map,0.982086311400197,-0.2243933629122237,0.0202550281085051,-0.4845956821810365,0.5191294021459896,-0.5034983078477193,0.492098712285987,0.0,0.0,0.0,1,6.0394213505787775e-05,0,1735643777088253974,map,0.9780317081460166,-0.251946268528415,0.1486871629081907,-0.4874945118185205,0.4753867592895558,-0.5036742529168697,0.5316660389639625,0.0,0.0,0.0,16,6.541957873196225e-07,0,1735643777088270664,map,0.9821938544814146,0.0540490753882568,0.0255824979924834,-0.4956654767495632,0.4975276238732447,-0.4923436699513894,0.5141786744901705,0.0,0.0,0.0,17,0.6373300552368164,0,1735643777088284730,map,1.007067540205537,-0.2608966381759225,0.2387089444797613,0.323153934183213,-0.6000828613106997,0.6351867542211111,-0.3633316414037246,0.0,0.0,0.0,121,3.7552264076090575e-10,0,1735643777088297367,map,1.0027400037206309,0.203825425981987,0.2438310828571196,0.5300732626721946,-0.5050047788429225,0.4866151641463113,-0.476653114506476,0.0,0.0,0.0,122,3.1978586445546853e-12,0,1735643777088310956,map,0.9958126452885252,0.2039512622020623,0.1462648913217486,-0.4780915400562757,0.5007082287420694,-0.4952519019773402,0.5248288317007982,0.0,0.0,0.0,124,5.834174885421817e-07,0,1735643777088322877,map,0.9930684288996998,-0.0291092791172156,0.2437657204451899,-0.5032677375918031,0.4976087851458206,-0.4956909742341294,0.5033860738118884,0.0,0.0,0.0,125,2.902157234530023e-07,0,1735643777088343858,map,0.993545553008346,-0.0233555466465757,0.1466468411254026,-0.4848590496162948,0.4566734036085937,-0.5088522162201613,0.5453719157506701,0.0,0.0,0.0,126,0.0053602075204253,0,1735644242188269615,map,0.9828951255891664,0.3347485569009478,0.0239977262735638,-0.5107826618812211,0.4958958770077948,-0.4799369389604038,0.512687903221367,0.0,0.0,0.0,0,1.041421615610716e-08,0.946561272457085,0.0153711837284584,0.0027854713391172,1.0,7.894403768240132e-06,-5.193132516007625e-06,-0.0001172723901196,0.0,0.0,0.0,-5.193132516007625e-06,0.0030471612252518,-0.0005672996995974,0.0,0.0,0.0,-0.0001172723901196,-0.0005672996995974,0.0018785430943733,0.0,0.0,0.0,0.0,0.0,0.0,0.0,0.0,0.0,0.0,0.0,0.0,0.0,0.0,0.0,0.0,0.0,0.0,0.0,0.0,0.0,0,0,0,1,11,,17
1.101529436,0,1735643777088230371,map,0.9777735060323371,-0.2240149971207432,0.0221748372966722,-0.4795506954328241,0.7533023818555056,-0.3731454062261815,0.251652851787964,0.0,0.0,0.0,1,3.2860145438462496e-05,0,1735643777088253974,map,0.9798998394106964,-0.2535795953898906,0.1491294502171869,-0.5047199329140555,0.5066269902528708,-0.4930961514220833,0.4954221104465148,0.0,0.0,0.0,16,1.202359271701425e-06,0,1735643777088270664,map,0.9770809442620282,0.0524855414898977,0.027392839912363,-0.4881513062913146,0.4945311609461653,-0.5001924199335754,0.5166766649078657,0.0,0.0,0.0,17,0.6439229846000671,0,1735643777088284730,map,0.9998863617473936,-0.2603192729576209,0.2393010145791585,-0.4813432477293674,0.4983249587099944,-0.4993966989475539,0.5201767492615502,0.0,0.0,0.0,121,4.087235438987591e-09,0,1735643777088297367,map,1.0006486906915093,0.2035364337444528,0.2443955359800922,-0.5048746339812064,0.4907192454457511,-0.4948716987076216,0.5093115234605721,0.0,0.0,0.0,122,6.761040945851837e-12,0,1735643777088310956,map,0.9985513047307828,0.2059934529653676,0.1466217263178901,-0.4868738087095,0.5009743749205849,-0.4814394817269431,0.5293341057405306,0.0,0.0,0.0,124,4.089549463515141e-07,0,1735643777088322877,map,0.9853426512162452,-0.0302851574938518,0.2443894950275949,-0.4848342473067472,0.5396924621714834,-0.5061957799173524,0.4662977925185207,0.0,0.0,0.0,125,3.211295279470505e-06,0,1735643777088343858,map,0.989025576115973,-0.0240941977124379,0.1476041952988089,-0.4896843789990193,0.4588354885085874,-0.5025640152968693,0.5450767046738642,0.0,0.0,0.0,126,0.0144087020307779,0,1735644242188269615,map,0.9828951255891664,0.3347485569009478,0.0239977262735638,-0.5107826618812211,0.4958958770077948,-0.4799369389604038,0.512687903221367,0.0,0.0,0.0,0,1.889408851596386e-09,0.9461812097993376,0.0125629048401644,0.0090788759751133,1.0,8.825460649507557e-06,6.980169844782838e-06,-0.0001338104599576,0.0,0.0,0.0,6.980169844782838e-06,0.0028799818566063,-0.0007144347137533,0.0,0.0,0.0,-0.0001338104599576,-0.0007144347137533,0.002157674197545,0.0,0.0,0.0,0.0,0.0,0.0,0.0,0.0,0.0,0.0,0.0,0.0,0.0,0.0,0.0,0.0,0.0,0.0,0.0,0.0,0.0,0,0,0,1,12,,17
1.198045086,0,1735643777088230371,map,0.9740723660625584,-0.2227430132686562,0.0219932066054966,-0.4950339532373251,0.505858663049333,-0.4883157244264624,0.5104861912314832,0.0,0.0,0.0,1,3.233850293327123e-05,0,1735643777088253974,map,0.9716106365291688,-0.2504642001897815,0.1496045488916496,-0.5001309751409418,0.4798090885933552,-0.4932163737522499,0.5257279285623557,0.0,0.0,0.0,16,6.182008860378119e-07,0,1735643777088270664,map,0.9796201344220328,0.0542796913016084,0.0259498549607013,-0.5058938121389082,0.4904701408934379,-0.4846738897847992,0.5182679927338816,0.0,0.0,0.0,17,0.7148370742797852,0,1735643777088284730,map,0.9975401849621468,-0.2593074893937782,0.238751663530657,-0.5107192943905828,0.5041184373042223,-0.4732377336918871,0.5109564080401579,0.0,0.0,0.0,121,9.271587941839243e-10,0,1735643777088297367,map,1.0054205334214883,0.2075292208394729,0.2447677576762483,-0.520911725912218,0.4804956905651709,-0.4824329158235929,0.5148138953888092,0.0,0.0,0.0,122,2.5218461000009462e-11,0,1735643777088310956,map,0.9936934962004574,0.205003846512026,0.1465090584107166,-0.4807358194391912,0.4995266934705156,-0.4858506198547955,0.5322737355959374,0.0,0.0,0.0,124,1.6023317357394262e-06,0,1735643777088322877,map,0.9853545856426664,-0.0295151363502512,0.2441458229265636,0.5147256792792713,-0.5085977829418485,0.481455190817569,-0.4945570437390887,0.0,0.0,0.0,125,2.370364200032782e-06,0,1735643777088343858,map,0.9828050411980228,-0.0237822285843891,0.1477261726259155,0.4852267554507937,-0.5007311325537066,0.5213663806077793,-0.4919353878896313,0.0,0.0,0.0,126,0.0124874450266361,0,1735644242188269615,map,0.9828951255891664,0.3347485569009478,0.0239977262735638,-0.5107826618812211,0.4958958770077948,-0.4799369389604038,0.512687903221367,0.0,0.0,0.0,0,7.121656153685762e-09,0.9459868916209988,0.0169019120794502,0.0110738753092981,1.0,8.599693714278918e-06,-3.674542087567252e-06,-0.00012816932329,0.0,0.0,0.0,-3.674542087567252e-06,0.0028843685965844,-0.0005556023986699,0.0,0.0,0.0,-0.00012816932329,-0.0005556023986699,0.0020394595273931,0.0,0.0,0.0,0.0,0.0,0.0,0.0,0.0,0.0,0.0,0.0,0.0,0.0,0.0,0.0,0.0,0.0,0.0,0.0,0.0,0.0,0,0,0,1,13,,17
1.299381614,0,1735643777088230371,map,0.9735015609735655,-0.223492969842027,0.0224086156702767,-0.4910993118141163,0.5055970502440776,-0.4988397614557173,0.5043332044501843,0.0,0.0,0.0,1,1.3435271284834016e-05,0,1735643777088253974,map,0.9750798483535998,-0.2525692329738251,0.1493263057089995,-0.502319432486891,0.4899670572470126,-0.4885916145156323,0.5185419026305954,0.0,0.0,0.0,16,1.8584324834591825e-07,0,1735643777088270664,map,0.9729734354932892,0.0522869123518958,0.027975973630243,-0.4875258769146031,0.5002353609109454,-0.5020102741354049,0.5099693987833379,0.0,0.0,0.0,17,0.7041669487953186,0,1735643777088284730,map,0.995691380114656,-0.2599741417150596,0.2393974364927346,-0.4918658424672781,0.49780637329154,-0.4888158214745232,0.5208799289668068,0.0,0.0,0.0,121,1.9555017327643756e-10,0,1735643777088297367,map,1.0040653285843872,0.2075709244452857,0.245442972060556,-0.5161331427780546,0.4718100067387991,-0.4940745999774795,0.5166160916234372,0.0,0.0,0.0,122,3.3544733830936924e-12,0,1735643777088310956,map,0.9938358286029656,0.2057667557578242,0.147038189816526,-0.4963406360652543,0.5031261575420813,-0.4735724297081592,0.5255846234504863,0.0,0.0,0.0,124,5.261523483568453e-07,0,1735643777088322877,map,0.9798321668081452,-0.0303813323025166,0.2442702131266189,-0.4984878054074553,0.5490536984241514,-0.4903101630167381,0.4578710387754613,0.0,0.0,0.0,125,8.206635015994834e-07,0,1735643777088343858,map,0.9882781648815988,-0.0229875343214701,0.1476941798137192,0.5346554474849674,-0.5283708324984555,0.4718678956947421,-0.4607694703994117,0.0,0.0,0.0,126,0.0088402517139911,0,1735644242188269615,map,0.9828951255891664,0.3347485569009478,0.0239977262735638,-0.5107826618812211,0.4958958770077948,-0.4799369389604038,0.512687903221367,0.0,0.0,0.0,0,2.2786115216888447e-09,0.9460478631998092,0.0185242393338204,0.009816151320108,1.0,8.033757812038914e-06,-2.126168692999202e-06,-0.0001200112820517,0.0,0.0,0.0,-2.126168692999202e-06,0.0027125575626205,-0.0005424422318305,0.0,0.0,0.0,-0.0001200112820517,-0.0005424422318305,0.0019143481520938,0.0,0.0,0.0,0.0,0.0,0.0,0.0,0.0,0.0,0.0,0.0,0.0,0.0,0.0,0.0,0.0,0.0,0.0,0.0,0.0,0.0,0,0,0,1,14,,17
1.399092182,0,1735643777088230371,map,0.9683651574764864,-0.222151309737347,0.0232557583258326,-0.4995014497471007,0.4976725993491764,-0.4875432323640322,0.5148998758337497,0.0,0.0,0.0,1,9.162566129816696e-06,0,1735643777088253974,map,0.968548771075482,-0.250487804578447,0.1493810521081283,-0.5040196205326285,0.4741109586964311,-0.4939601888236293,0.5264849027459586,0.0,0.0,0.0,16,1.3772243789844654e-07,0,1735643777088270664,map,0.9838918781811142,0.0554396718828433,0.0235949738824758,-0.5125457071768632,0.4958417873710523,-0.4751037050030157,0.5154748194079489,0.0,0.0,0.0,17,0.723391592502594,0,1735643777088284730,map,0.9956865075752503,-0.2604157669530655,0.2388137734948247,-0.5079740100150867,0.5047842400404063,-0.4742212757121917,0.5121225027451192,0.0,0.0,0.0,121,1.0041851378206346e-10,0,1735643777088297367,map,1.0005750577014163,0.2054506661820765,0.2445681359990908,-0.5955508759867364,0.2037066780128738,-0.2428250354490519,0.7381454772628208,0.0,0.0,0.0,122,7.761638011992422e-13,0,1735643777088310956,map,0.9879817605951444,0.2028653976962336,0.1466980028946382,-0.4753871740947737,0.4932212634900551,-0.4936355111310606,0.5357833536960964,0.0,0.0,0.0,124,3.045647929411644e-07,0,1735643777088322877,map,0.9852570184361028,-0.0299079970685939,0.2444846923293309,0.5397165467904085,-0.5011683006870103,0.4594406702632685,-0.4964379659284432,0.0,0.0,0.0,125,3.261877452587214e-07,0,1735643777088343858,map,0.9843901559305368,-0.0238590982030715,0.1474634258818325,-0.4997781795568455,0.4610548745149166,-0.5005539409275702,0.5358133314380668,0.0,0.0,0.0,126,0.0061950301751494,0,1735644242188269615,map,0.9828951255891664,0.3347485569009478,0.0239977262735638,-0.5107826618812211,0.4958958770077948,-0.4799369389604038,0.512687903221367,0.0,0.0,0.0,0,1.7180852296405644e-09,0.9461121742860532,0.0216957964157314,0.0081803389217586,1.0,7.556076779297296e-06,8.711038208483512e-07,-0.0001134833421261,0.0,0.0,0.0,8.711038208483512e-07,0.0026725432323126,-0.0005789124299284,0.0,0.0,0.0,-0.0001134833421261,-0.0005789124299284,0.0018241872927905,0.0,0.0,0.0,0.0,0.0,0.0,0.0,0.0,0.0,0.0,0.0,0.0,0.0,0.0,0.0,0.0,0.0,0.0,0.0,0.0,0.0,0,0,0,1,15,,17
1.499646513,0,1735643777088230371,map,0.97224412111941,-0.2228170122883403,0.0215801472546374,-0.493909868498409,0.4965921929867206,-0.4971962051382209,0.5120987885756768,0.0,0.0,0.0,1,3.7177301237534266e-06,0,1735643777088253974,map,0.9730936868029044,-0.2516497398492892,0.148628951469358,-0.5045015446237635,0.4875084378313146,-0.4813328005589006,0.5254830631158657,0.0,0.0,0.0,16,4.4078397820612736e-08,0,1735643777088270664,map,0.9662965818007898,0.0512577426585806,0.0289603479378736,-0.4735916521106724,0.4982343246966966,-0.5119215382694594,0.5151794283557335,0.0,0.0,0.0,17,0.675412654876709,0,1735643777088284730,map,0.9989947367871964,-0.2614670672589925,0.2389350039667357,-0.4952559256166928,0.4963092763697054,-0.4881634618074227,0.5197067489335929,0.0,0.0,0.0,121,2.125998335711365e-11,0,1735643777088297367,map,0.9919354552481664,0.2017826159361341,0.2436947325690084,-0.5024809064617567,0.48713609388107,-0.4989149826711934,0.5111704263216593,0.0,0.0,0.0,122,2.054439517812368e-13,0,1735643777088310956,map,0.9910553716386352,0.205199987338847,0.1462428867959122,-0.4953737344941581,0.504008726578333,-0.4741202788446944,0.5251571459043733,0.0,0.0,0.0,124,9.511907705928024e-08,0,1735643777088322877,map,0.9818613189571588,-0.0300089535081966,0.2440687698310832,-0.562645102373776,0.4900969109862355,-0.43626255428791,0.5029020683420792,0.0,0.0,0.0,125,1.3516839203475686e-07,0,1735643777088343858,map,0.97956002540084,-0.0241477555115816,0.1474032253695148,-0.4935486120447934,0.4892703198573902,-0.5141861030600939,0.5026300558812403,0.0,0.0,0.0,126,0.0042508882470428,0,1735644242188269615,map,0.9828951255891664,0.3347485569009478,0.0239977262735638,-0.5107826618812211,0.4958958770077948,-0.4799369389604038,0.512687903221367,0.0,0.0,0.0,0,4.409337062138974e-10,0.9462018083628144,0.022110794828781,0.0067484623633608,1.0,7.204335996344224e-06,1.3746298262124724e-06,-0.0001083158072435,0.0,0.0,0.0,1.3746298262124724e-06,0.0025080926355356,-0.0005516438005491,0.0,0.0,0.0,-0.0001083158072435,-0.0005516438005491,0.0017409296441684,0.0,0.0,0.0,0.0,0.0,0.0,0.0,0.0,0.0,0.0,0.0,0.0,0.0,0.0,0.0,0.0,0.0,0.0,0.0,0.0,0.0,0,0,0,1,16,,17
1.599745975,0,1735643777088230371,map,0.9745284891374228,-0.2258774537088775,0.0198447868560871,-0.496192472922639,0.5189781584532367,-0.4894969911889896,0.4948205699850498,0.0,0.0,0.0,1,1.4128564771453966e-06,0,1735643777088253974,map,0.9669354664613324,-0.2518694025140886,0.1491273425324195,-0.5040084536871812,0.4769695159056619,-0.488671911356307,0.528843381881582,0.0,0.0,0.0,16,1.724804299385596e-08,0,1735643777088270664,map,0.97435514313902,0.0529174691557335,0.0258840725169329,-0.4939156336523373,0.5006986804218144,-0.496700646030708,0.5085633161075828,0.0,0.0,0.0,17,0.711140513420105,0,1735643777088284730,map,0.997944092024027,-0.2622419886403028,0.2386630802446435,-0.4976752880982053,0.4992690489420118,-0.4842715443245352,0.5181995713452848,0.0,0.0,0.0,121,5.046714782186434e-12,0,1735643777088297367,map,0.9997737272666648,0.2058003862362949,0.2445622417262173,-0.5155792613276272,0.47832170391111,-0.4860673147455462,0.5187725304914328,0.0,0.0,0.0,122,3.905571002780876e-14,0,1735643777088310956,map,0.9881624760574992,0.2031743432571967,0.1461674374279931,-0.4852226909933332,0.4988131896368107,-0.4830836059390431,0.5313892844821679,0.0,0.0,0.0,124,7.260150880483708e-08,0,1735643777088322877,map,0.9858011217847632,-0.0302901432548383,0.2440631810091311,-0.5110688320549582,0.516360384469855,-0.4864405467073247,0.4853413198679913,0.0,0.0,0.0,125,5.305506789454739e-08,0,1735643777088343858,map,0.978413490113287,-0.0248155108486453,0.1473022796671907,-0.4708564107378603,0.471996814836549,-0.5309074951356317,0.5231161236857653,0.0,0.0,0.0,126,0.0029976575169712,0,1735644242188269615,map,0.9828951255891664,0.3347485569009478,0.0239977262735638,-0.5107826618812211,0.4958958770077948,-0.4799369389604038,0.512687903221367,0.0,0.0,0.0,0,3.1980076919957407e-10,0.946175496157764,0.0242622514924799,0.0066874759105675,1.0,6.791628840125078e-06,3.880161459143978e-07,-0.0001019186141615,0.0,0.0,0.0,3.880161459143978e-07,0.0024346180270341,-0.0005212935205868,0.0,0.0,0.0,-0.0001019186141615,-0.0005212935205868,0.0016385815275997,0.0,0.0,0.0,0.0,0.0,0.0,0.0,0.0,0.0,0.0,0.0,0.0,0.0,0.0,0.0,0.0,0.0,0.0,0.0,0.0,0.0,0,0,0,1,17,,17
1.699482382,0,1735643777088230371,map,0.9699071366513958,-0.2246610203602667,0.0212338573791978,-0.4930233304994931,0.5170756140027307,-0.4902665498618352,0.4991988732694207,0.0,0.0,0.0,1,9.45793829032482e-07,0,1735643777088253974,map,0.9645390254610564,-0.2512515031027597,0.1494873985215312,-0.50613922824192,0.4795782727049653,-0.4876967688393023,0.5253376282427326,0.0,0.0,0.0,16,7.851180150453274e-09,0,1735643777088270664,map,0.9691673287061572,0.0518109638793322,0.027094019263438,-0.4857329363720936,0.5058057780897227,-0.5055365049768875,0.502649849806152,0.0,0.0,0.0,17,0.7120647430419922,0,1735643777088284730,map,0.9910420675330528,-0.2622714535015106,0.2393141532598673,-0.5015431247167362,0.4981015954675072,-0.4814803508773747,0.5181949115546157,0.0,0.0,0.0,121,1.2124616631872809e-12,0,1735643777088297367,map,0.9935595490234396,0.2037526123389701,0.2452636021121939,-0.5116871778089375,0.4773820309539954,-0.4890584792105868,0.5206768983740216,0.0,0.0,0.0,122,1.0411952604347936e-14,0,1735643777088310956,map,0.9838394632118675,0.2022195000026326,0.1470789385360535,-0.4879193777601606,0.4994804084537506,-0.4804759779931769,0.5306569861487855,0.0,0.0,0.0,124,4.003805997854215e-08,0,1735643777088322877,map,0.9829064900085748,-0.0310566808959576,0.2449604219724108,-0.5036264335784986,0.5008055666391761,-0.4950702073628213,0.5004594784854702,0.0,0.0,0.0,125,1.652861314482834e-08,0,1735643777088343858,map,0.9787618759434144,-0.0254288302371784,0.1478813227957783,-0.4860716874386225,0.4877403500723214,-0.5162117079764372,0.5092829646963942,0.0,0.0,0.0,126,0.0019793543033301,0,1735644242188269615,map,0.9828951255891664,0.3347485569009478,0.0239977262735638,-0.5107826618812211,0.4958958770077948,-0.4799369389604038,0.512687903221367,0.0,0.0,0.0,0,2.2377902308967634e-10,0.9461651151303304,0.0262884843275246,0.0064141241859405,1.0,6.416148144204536e-06,8.875256363676157e-09,-9.620822851056791e-05,0.0,0.0,0.0,8.875256363676157e-09,0.0023691570015075,-0.0005017486315223,0.0,0.0,0.0,-9.620822851056791e-05,-0.0005017486315223,0.0015488194803219,0.0,0.0,0.0,0.0,0.0,0.0,0.0,0.0,0.0,0.0,0.0,0.0,0.0,0.0,0.0,0.0,0.0,0.0,0.0,0.0,0.0,0,0,0,1,18,,17
1.799235138,0,1735643777088230371,map,0.97023368155752,-0.2251978408666442,0.0207355366378688,-0.4950571474817392,0.5173007754574991,-0.4910645417005342,0.4961591925206642,0.0,0.0,0.0,1,3.9411682450918317e-07,0,1735643777088253974,map,0.9724355412507292,-0.2545997212258803,0.1482655073086001,-0.504270677896823,0.4969466886872292,-0.4889468653637936,0.5095939902188771,0.0,0.0,0.0,16,2.734901638490328e-09,0,1735643777088270664,map,0.9664960296546404,0.050866727854914,0.0274383225952501,-0.4798523049561626,0.5056963281870858,-0.5100856083668764,0.5038111364622168,0.0,0.0,0.0,17,0.6864367723464966,0,1735643777088284730,map,0.9905288080607648,-0.2628649773278806,0.2391031166795596,-0.4936663272384957,0.4918564658986822,-0.4891745406594042,0.5244797832854702,0.0,0.0,0.0,121,6.128504279577507e-13,0,1735643777088297367,map,0.992116514214742,0.2031527464075617,0.2449951711596451,-0.5016507762350033,0.4764925812950311,-0.4988423452172244,0.5219747439213858,0.0,0.0,0.0,122,4.039959640829644e-15,0,1735643777088310956,map,0.9826652048907732,0.2015515015339657,0.1468860320887179,-0.4872341483872381,0.5000268166794912,-0.4817345527033959,0.5296299538152993,0.0,0.0,0.0,124,1.975875818516215e-08,0,1735643777088322877,map,0.9808756524466482,-0.0317706491065819,0.244506409659947,-0.503246680393805,0.4983809618133529,-0.4957466434279402,0.5025877645790267,0.0,0.0,0.0,125,1.491329193470392e-08,0,1735643777088343858,map,0.9740345282839152,-0.0261316450776495,0.1481894019437926,0.614307015829263,-0.4762391808769182,0.3927711979365637,-0.4914813516015682,0.0,0.0,0.0,126,0.0016300553688779,0,1735644242188269615,map,0.9828951255891664,0.3347485569009478,0.0239977262735638,-0.5107826618812211,0.4958958770077948,-0.4799369389604038,0.512687903221367,0.0,0.0,0.0,0,6.500107396778532e-11,0.9463092019674552,0.0272101315167648,0.0040584892188337,1.0,6.452154436002299e-06,2.398758249574651e-06,-9.725412538928666e-05,0.0,0.0,0.0,2.398758249574651e-06,0.0022597543314897,-0.0005144199670442,0.0,0.0,0.0,-9.725412538928666e-05,-0.0005144199670442,0.0015671849553367,0.0,0.0,0.0,0.0,0.0,0.0,0.0,0.0,0.0,0.0,0.0,0.0,0.0,0.0,0.0,0.0,0.0,0.0,0.0,0.0,0.0,0,0,0,1,19,,17
1.900305575,0,1735643777088230371,map,0.9653606853079522,-0.2238215761856307,0.022526199895613,-0.4975522400781866,0.5002548411662862,-0.4963791102080135,0.5057614469608901,0.0,0.0,0.0,1,4.880967594544927e-07,0,1735643777088253974,map,0.963266122997798,-0.2512738457094848,0.1492738128076254,-0.5097142491608929,0.4832394535993961,-0.4860728759602351,0.5200040133912915,0.0,0.0,0.0,16,2.1052994902959203e-09,0,1735643777088270664,map,0.9683769706134796,0.0515732591042188,0.0271851341790095,-0.4996780616857859,0.4974699600513205,-0.486224246567822,0.516169987083739,0.0,0.0,0.0,17,0.7193328738212585,0,1735643777088284730,map,0.990110312065364,-0.2635033046074257,0.23987096292626,-0.4888356383790656,0.482602743461122,-0.5035356049401117,0.5240097377071591,0.0,0.0,0.0,121,1.551019783527924e-13,0,1735643777088297367,map,0.989589397969876,0.2022781265163291,0.245689047783028,-0.5127031906989985,0.4794480805378328,-0.4959028415097547,0.5112194715562048,0.0,0.0,0.0,122,5.502511525579384e-15,0,1735643777088310956,map,0.9822484625272736,0.2018070814232176,0.1474657069355303,-0.4944761570053975,0.5009854036019623,-0.4764508752554391,0.5267841294109747,0.0,0.0,0.0,124,3.109724389105395e-08,0,1735643777088322877,map,0.9787602852159104,-0.0317179496163108,0.2451622385203345,-0.5014828959668604,0.5010322792438124,-0.4973136612404208,0.500160656741501,0.0,0.0,0.0,125,6.126766649572346e-09,0,1735643777088343858,map,0.9756023686791172,-0.026194999081635,0.1480575447096231,-0.4896373069650362,0.4955961580094848,-0.5126231157607758,0.5018538601843956,0.0,0.0,0.0,126,0.0012381033739075,0,1735644242188269615,map,0.9828951255891664,0.3347485569009478,0.0239977262735638,-0.5107826618812211,0.4958958770077948,-0.4799369389604038,0.512687903221367,0.0,0.0,0.0,0,1.8133562706967863e-10,0.946238706317781,0.0299252830096401,0.0045406577406342,1.0,6.223969810039463e-06,-1.357900663542196e-06,-9.303724400056278e-05,0.0,0.0,0.0,-1.357900663542196e-06,0.0022868355198712,-0.0004638249176381,0.0,0.0,0.0,-9.303724400056278e-05,-0.0004638249176381,0.0014932429507547,0.0,0.0,0.0,0.0,0.0,0.0,0.0,0.0,0.0,0.0,0.0,0.0,0.0,0.0,0.0,0.0,0.0,0.0,0.0,0.0,0.0,0,0,0,1,20,,17
1.998794774,0,1735643777088230371,map,0.966638337099371,-0.2256130348154857,0.022348928788465,-0.4945364794518153,0.513002212114133,-0.4918038453392272,0.5003912255095594,0.0,0.0,0.0,1,2.6060429263452534e-06,0,1735643777088253974,map,0.9601422769045608,-0.2513242138793254,0.1504253260391348,-0.5156306583835506,0.4839400870513818,-0.4797289393325199,0.5194103975148571,0.0,0.0,0.0,16,1.0675970107953956e-09,0,1735643777088270664,map,0.9672911415904056,0.0516443624490868,0.0278542124691431,-0.4949688637790698,0.4955142924385689,-0.4944900893973135,0.514733874313899,0.0,0.0,0.0,17,0.859135091304779,0,1735643777088284730,map,0.9844103611231998,-0.2630425756857569,0.2406714262131125,-0.4984844562330186,0.4912525058748714,-0.488380999219911,0.521218017691917,0.0,0.0,0.0,121,3.1613624343123856e-14,0,1735643777088297367,map,0.9843932290181662,0.2005290578891072,0.2466748651080638,-0.5021080377236219,0.4863495665709954,-0.4979805863987951,0.5131929004959539,0.0,0.0,0.0,122,3.052681718518357e-10,0,1735643777088310956,map,0.9791954835755742,0.2012653649803795,0.148691481514,-0.4985393041277152,0.5032052103022153,-0.4756292529730022,0.5215552629212938,0.0,0.0,0.0,124,1.4850991647108458e-05,0,1735643777088322877,map,0.9771680223248508,-0.032364342665336,0.2466340160568652,-0.5074749267231673,0.5065164592996918,-0.4837403438406995,0.5019019375801421,0.0,0.0,0.0,125,5.063495223112113e-08,0,1735643777088343858,map,0.9679158162271426,-0.0269594109992452,0.1494437839674687,0.4533319047634863,-0.4935861678306779,0.5548519899442556,-0.4929524807774423,0.0,0.0,0.0,126,0.0019338456913828,0,1735644242188269615,map,0.9828951255891664,0.3347485569009478,0.0239977262735638,-0.5107826618812211,0.4958958770077948,-0.4799369389604038,0.512687903221367,0.0,0.0,0.0,0,3.7692398535682514e-08,0.945917421923571,0.0347469782783616,0.0083372421408305,1.0,7.99206353453293e-06,-3.2275947596707954e-05,-0.0001130025654298,0.0,0.0,0.0,-3.2275947596707954e-05,0.0026429134956418,-7.561855600366721e-05,0.0,0.0,0.0,-0.0001130025654298,-7.561855600366721e-05,0.0017104172057322,0.0,0.0,0.0,0.0,0.0,0.0,0.0,0.0,0.0,0.0,0.0,0.0,0.0,0.0,0.0,0.0,0.0,0.0,0.0,0.0,0.0,0,0,0,1,21,,17
2.099632732,0,1735643777088230371,map,0.9623403074867984,-0.2240429567405326,0.0242722961418088,-0.4965445389888133,0.5019042444510101,-0.4889566727383616,0.5123055947255291,0.0,0.0,0.0,1,1.0113403732248116e-05,0,1735643777088253974,map,0.9643523820857496,-0.2532704139732903,0.15087139568839,-0.4986047246006684,0.4829839919075786,-0.4969054164338773,0.520773270517589,0.0,0.0,0.0,16,3.501929579652341e-10,0,1735643777088270664,map,0.9626885740048444,0.051155612648512,0.0296769226401004,-0.4899083197332318,0.501905311626289,-0.5000628643847553,0.5079547500327095,0.0,0.0,0.0,17,0.9565605521202089,0,1735643777088284730,map,0.9851648754697032,-0.2637584726382042,0.2417470868094469,-0.4873955703841144,0.4812335243259789,-0.5068463832619619,0.5234181854015098,0.0,0.0,0.0,121,6.623557937204556e-15,0,1735643777088297367,map,0.982251557296443,0.2002094795340919,0.2469978909137568,-0.4977914637146067,0.4833269085435603,-0.5016923609508199,0.5166270735203352,0.0,0.0,0.0,122,6.5210529101022985e-06,0,1735643777088310956,map,0.9778440310376068,0.2013765916966151,0.1493868361704948,-0.4877152278375956,0.499420335447628,-0.4803464212535676,0.5310183618911785,0.0,0.0,0.0,124,0.0029445546679198,0,1735643777088322877,map,0.9725153067626372,-0.0323682783454307,0.2470581167161611,-0.4890416833715491,0.5166892779982319,-0.5048021070540403,0.488922544622958,0.0,0.0,0.0,125,7.284933758455736e-07,0,1735643777088343858,map,0.9734308942800712,-0.0261699381795136,0.1498413108226429,-0.4827984224449698,0.4706658753602646,-0.5212254606742166,0.5231666428595716,0.0,0.0,0.0,126,0.0041096587665379,0,1735644242188269615,map,0.9828951255891664,0.3347485569009478,0.0239977262735638,-0.5107826618812211,0.4958958770077948,-0.4799369389604038,0.512687903221367,0.0,0.0,0.0,0,1.2941433169544323e-06,0.9454132512844324,0.0410520783552161,0.0145620201891079,1.0,1.296673662007999e-05,-9.756463211674664e-05,-0.000173771442052,0.0,0.0,0.0,-9.756463211674664e-05,0.0033576210905839,0.0007520234706499,0.0,0.0,0.0,-0.000173771442052,0.0007520234706499,0.0024463760658647,0.0,0.0,0.0,0.0,0.0,0.0,0.0,0.0,0.0,0.0,0.0,0.0,0.0,0.0,0.0,0.0,0.0,0.0,0.0,0.0,0.0,0,0,0,1,22,,17
2.198211449,0,1735643777088230371,map,0.9627024450036272,-0.2258220438203421,0.0230144112442245,-0.4951039830745735,0.503234343577488,-0.4907632676533069,0.5106649160751855,0.0,0.0,0.0,1,6.674822998320451e-06,0,1735643777088253974,map,0.962021887893572,-0.2538549980904876,0.1505313364514798,-0.5101328837984491,0.4869950042455471,-0.4847295372927508,0.5173370104519036,0.0,0.0,0.0,16,1.2529612070100169e-10,0,1735643777088270664,map,0.963720077289694,0.0506082237346346,0.0284046373249951,-0.4861515882304451,0.5054799266196226,-0.4992189729443529,0.5088487929611526,0.0,0.0,0.0,17,0.9808266162872314,0,1735643777088284730,map,0.9811113298794684,-0.2621553585989462,0.2407682204100496,-0.5011298646595462,0.4875137032212499,-0.4855101412791033,0.5248610774604585,0.0,0.0,0.0,121,1.999553832650021e-15,0,1735643777088297367,map,0.981666385087318,0.1998465079378039,0.2465025264815274,-0.5127462894662669,0.489483292321226,-0.4939831537760445,0.5034659799454394,0.0,0.0,0.0,122,1.8725702830124646e-05,0,1735643777088310956,map,0.9775419089380116,0.2013071937006033,0.148954344776038,-0.4927808720973796,0.5012304775972126,-0.4763277223642503,0.5282489198568252,0.0,0.0,0.0,124,0.0055929655209183,0,1735643777088322877,map,0.9779105168709256,-0.0325166416791023,0.2473615277097073,-0.5128598907629693,0.4744543526008554,-0.4836396130898535,0.5272196168533521,0.0,0.0,0.0,125,5.900730002394994e-07,0,1735643777088343858,map,0.9714602511405402,-0.0264176458046349,0.1495851692699519,-0.4641739899234274,0.4851578038325522,-0.540334190698704,0.5071522205619512,0.0,0.0,0.0,126,0.0036427252925932,0,1735644242188269615,map,0.9828951255891664,0.3347485569009478,0.0239977262735638,-0.5107826618812211,0.4958958770077948,-0.4799369389604038,0.512687903221367,0.0,0.0,0.0,0,1.52051427448896e-06,0.94517241839689,0.0443317480994194,0.0174787709152093,1.0,1.3678976016571822e-05,-0.0001106994429529,-0.0001816700509541,0.0,0.0,0.0,-0.0001106994429529,0.0034482747047892,0.000929778338384,0.0,0.0,0.0,-0.0001816700509541,0.000929778338384,0.0025271754546486,0.0,0.0,0.0,0.0,0.0,0.0,0.0,0.0,0.0,0.0,0.0,0.0,0.0,0.0,0.0,0.0,0.0,0.0,0.0,0.0,0.0,0,0,0,1,23,,17
2.298610488,0,1735643777088230371,map,0.9633678798123334,-0.2257315676334171,0.0229019251676643,-0.4936146394790721,0.5124720427208207,-0.4890569206945474,0.5045198920184042,0.0,0.0,0.0,1,1.2817549759347456e-05,0,1735643777088253974,map,0.9591788024987036,-0.2522025053943028,0.1508652397531168,-0.5078731618480904,0.48736279825864,-0.4832931415503643,0.5205478783726921,0.0,0.0,0.0,16,3.8010788960818326e-10,0,1735643777088270664,map,0.960493975266102,0.0500908342370247,0.0297467972823936,-0.4888806173715594,0.4910211070417066,-0.499292593079971,0.5201931572919993,0.0,0.0,0.0,17,0.9736201763153076,0,1735643777088284730,map,0.9810478330679266,-0.2641284106016318,0.2410135544401296,-0.4942931289334047,0.4926367835239729,-0.4900799708835154,0.5223073083417381,0.0,0.0,0.0,121,4.336341551271607e-15,0,1735643777088297367,map,0.9812938884617148,0.1994666933543684,0.2469974456280183,-0.5148203883484721,0.4829443750883436,-0.4898503309090279,0.5116359561441846,0.0,0.0,0.0,122,1.3867086636309978e-05,0,1735643777088310956,map,0.9740940720727692,0.1992087546960809,0.1491432281501485,-0.4834609402319379,0.5004592851370413,-0.4820512726110367,0.5323838781971636,0.0,0.0,0.0,124,0.00688794022426,0,1735643777088322877,map,0.9735382025232742,-0.0334628574598066,0.2468764028176414,-0.4360965835858366,0.4841666426011216,-0.5558769369310516,0.5161426769462792,0.0,0.0,0.0,125,4.174675609647238e-07,0,1735643777088343858,map,0.9666477489131032,-0.0276240743828338,0.1498995307325457,-0.4780764832974973,0.5408848297773844,-0.5229349103951889,0.4532389618342221,0.0,0.0,0.0,126,0.002979353070259,0,1735644242188269615,map,0.9828951255891664,0.3347485569009478,0.0239977262735638,-0.5107826618812211,0.4958958770077948,-0.4799369389604038,0.512687903221367,0.0,0.0,0.0,0,6.566486263182014e-06,0.9451081012104204,0.0485726101092348,0.0175452622474068,1.0,1.320416279348123e-05,-0.0001123604533548,-0.0001741988258122,0.0,0.0,0.0,-0.0001123604533548,0.0037182495355745,0.0008975231272728,0.0,0.0,0.0,-0.0001741988258122,0.0008975231272728,0.0024219781626085,0.0,0.0,0.0,0.0,0.0,0.0,0.0,0.0,0.0,0.0,0.0,0.0,0.0,0.0,0.0,0.0,0.0,0.0,0.0,0.0,0.0,0,0,0,1,24,,17
2.399080882,0,1735643777088230371,map,0.9613439361316182,-0.2244924316038795,0.0223103005153738,-0.4943324388961079,0.5038251813535725,-0.4929362838168203,0.5087331781847226,0.0,0.0,0.0,1,4.756284397444688e-05,0,1735643777088253974,map,0.9595876656360582,-0.2518902931475074,0.1493155360708391,-0.5102702604273547,0.4890312059365462,-0.4852921783702517,0.514746775178148,0.0,0.0,0.0,16,1.2263496884656888e-08,0,1735643777088270664,map,0.9558205494918374,0.0494857080279281,0.0299242835307508,-0.4781593622048617,0.5003062193528537,-0.5108678228714453,0.5099719391959556,0.0,0.0,0.0,17,0.954966127872467,0,1735643777088284730,map,0.9820793908904772,-0.2647709309609086,0.2400545872231004,-0.4940336832422631,0.495069002785268,-0.492449775334124,0.5180063909612066,0.0,0.0,0.0,121,7.735925615370842e-13,0,1735643777088297367,map,0.9780420926627972,0.1982750740371386,0.2453707691480626,-0.5112358493519579,0.4885581131242176,-0.4952107378728402,0.504693175635775,0.0,0.0,0.0,122,1.0281765753461514e-05,0,1735643777088310956,map,0.9730828266967424,0.1991364210273229,0.1478754993541185,-0.4892557747122598,0.4988143688638313,-0.480368838822894,0.5301497816783749,0.0,0.0,0.0,124,0.0062494124285876,0,1735643777088322877,map,0.971242821762562,-0.0335572065907339,0.2453163358581082,-0.532038717979291,0.463321197406562,-0.4644790504779524,0.5352826190638007,0.0,0.0,0.0,125,1.8061017499348964e-06,0,1735643777088343858,map,0.9712991378156798,-0.0274061216922477,0.1481967302470141,-0.4945745601844396,0.5091774735235615,-0.5081876176901853,0.4877290744879834,0.0,0.0,0.0,126,0.0058468473143875,0,1735644242188269615,map,0.9828951255891664,0.3347485569009478,0.0239977262735638,-0.5107826618812211,0.4958958770077948,-0.4799369389604038,0.512687903221367,0.0,0.0,0.0,0,4.725371036329307e-05,0.9451923687473568,0.0531785676896393,0.0153065127167516,1.0,1.284642070849392e-05,-9.855085040779634e-05,-0.0001717585665901,0.0,0.0,0.0,-9.855085040779634e-05,0.0040786758397312,0.0006141441532695,0.0,0.0,0.0,-0.0001717585665901,0.0006141441532695,0.0024453870231684,0.0,0.0,0.0,0.0,0.0,0.0,0.0,0.0,0.0,0.0,0.0,0.0,0.0,0.0,0.0,0.0,0.0,0.0,0.0,0.0,0.0,0,0,0,1,25,,17
2.499122385,0,1735643777088230371,map,0.963116472025785,-0.2251039011606424,0.0199027159839355,-0.4940342326314943,0.5138289443102471,-0.4876918515023163,0.504050246459091,0.0,0.0,0.0,1,7.679796544834971e-05,0,1735643777088253974,map,0.9612809400967292,-0.2523943960994383,0.1477877108604148,-0.5068956819218002,0.4910545664839489,-0.4834698327656913,0.5178601173963954,0.0,0.0,0.0,16,1.5674510223107066e-07,0,1735643777088270664,map,0.9594311797741424,0.0506690195750524,0.0270321541253513,-0.491767516792145,0.4949369827678089,-0.4991136951323193,0.5138945532384513,0.0,0.0,0.0,17,0.9553489685058594,0,1735643777088284730,map,0.9836316888701642,-0.2658546966678942,0.2388198060936538,-0.49182019096552,0.4889189056415073,-0.4973184062576699,0.5212922465012131,0.0,0.0,0.0,121,7.068658852693588e-11,0,1735643777088297367,map,0.9762423128160618,0.1974676102137139,0.2435649128338027,0.5295688114006266,-0.4932651068876099,0.4833485015998138,-0.492565360454932,0.0,0.0,0.0,122,1.1520550287968945e-05,0,1735643777088310956,map,0.9733328359657184,0.1997387778658064,0.1462648236460123,-0.4856658064307241,0.5001686189364346,-0.4807453965769251,0.5318307444716871,0.0,0.0,0.0,124,0.0053341058082878,0,1735643777088322877,map,0.9708731343999032,-0.0335810803332015,0.2440489952947677,0.5337992868383254,-0.505423378340903,0.4593338918196584,-0.4986159903404319,0.0,0.0,0.0,125,1.2208322004880756e-05,0,1735643777088343858,map,0.9672271122866224,-0.0274424985428208,0.1469986816406624,-0.543150682406222,0.4479657669300743,-0.4523587438811653,0.5474354525372466,0.0,0.0,0.0,126,0.0119459237903356,0,1735644242188269615,map,0.9828951255891664,0.3347485569009478,0.0239977262735638,-0.5107826618812211,0.4958958770077948,-0.4799369389604038,0.512687903221367,0.0,0.0,0.0,0,0.0001161668114946,0.9453875087353462,0.056799595905611,0.0116138328851251,1.0,1.3304317977134744e-05,-7.709524802005918e-05,-0.0001831672053249,0.0,0.0,0.0,-7.709524802005918e-05,0.0042495998255708,0.0002562407777258,0.0,0.0,0.0,-0.0001831672053249,0.0002562407777258,0.002692230784596,0.0,0.0,0.0,0.0,0.0,0.0,0.0,0.0,0.0,0.0,0.0,0.0,0.0,0.0,0.0,0.0,0.0,0.0,0.0,0.0,0.0,0,0,0,1,26,,17
