%time,field.boxes0.header.seq,field.boxes0.header.stamp,field.boxes0.header.frame_id,field.boxes0.pose.position.x,field.boxes0.pose.position.y,field.boxes0.pose.position.z,field.boxes0.pose.orientation.x,field.boxes0.pose.orientation.y,field.boxes0.pose.orientation.z,field.boxes0.pose.orientation.w,field.boxes0.scale.x,field.boxes0.scale.y,field.boxes0.scale.z,field.boxes0.id,field.boxes0.pdf,field.boxes1.header.seq,field.boxes1.header.stamp,field.boxes1.header.frame_id,field.boxes1.pose.position.x,field.boxes1.pose.position.y,field.boxes1.pose.position.z,field.boxes1.pose.orientation.x,field.boxes1.pose.orientation.y,field.boxes1.pose.orientation.z,field.boxes1.pose.orientation.w,field.boxes1.scale.x,field.boxes1.scale.y,field.boxes1.scale.z,field.boxes1.id,field.boxes1.pdf,field.boxes2.header.seq,field.boxes2.header.stamp,field.boxes2.header.frame_id,field.boxes2.pose.position.x,field.boxes2.pose.position.y,field.boxes2.pose.position.z,field.boxes2.pose.orientation.x,field.boxes2.pose.orientation.y,field.boxes2.pose.orientation.z,field.boxes2.pose.orientation.w,field.boxes2.scale.x,field.boxes2.scale.y,field.boxes2.scale.z,field.boxes2.id,field.boxes2.pdf,field.boxes3.header.seq,field.boxes3.header.stamp,field.boxes3.header.frame_id,field.boxes3.pose.position.x,field.boxes3.pose.position.y,field.boxes3.pose.position.z,field.boxes3.pose.orientation.x,field.boxes3.pose.orientation.y,field.boxes3.pose.orientation.z,field.boxes3.pose.orientation.w,field.boxes3.scale.x,field.boxes3.scale.y,field.boxes3.scale.z,field.boxes3.id,field.boxes3.pdf,field.boxes4.header.seq,field.boxes4.header.stamp,field.boxes4.header.frame_id,field.boxes4.pose.position.x,field.boxes4.pose.position.y,field.boxes4.pose.position.z,field.boxes4.pose.orientation.x,field.boxes4.pose.orientation.y,field.boxes4.pose.orientation.z,field.boxes4.pose.orientation.w,field.boxes4.scale.x,field.boxes4.scale.y,field.boxes4.scale.z,field.boxes4.id,field.boxes4.pdf,field.boxes5.header.seq,field.boxes5.header.stamp,field.boxes5.header.frame_id,field.boxes5.pose.position.x,field.boxes5.pose.position.y,field.boxes5.pose.position.z,field.boxes5.pose.orientation.x,field.boxes5.pose.orientation.y,field.boxes5.pose.orientation.z,field.boxes5.pose.orientation.w,field.boxes5.scale.x,field.boxes5.scale.y,field.boxes5.scale.z,field.boxes5.id,field.boxes5.pdf,field.boxes6.header.seq,field.boxes6.header.stamp,field.boxes6.header.frame_id,field.boxes6.pose.position.x,field.boxes6.pose.position.y,field.boxes6.pose.position.z,field.boxes6.pose.orientation.x,field.boxes6.pose.orientation.y,field.boxes6.pose.orientation.z,field.boxes6.pose.orientation.w,field.boxes6.scale.x,field.boxes6.scale.y,field.boxes6.scale.z,field.boxes6.id,field.boxes6.pdf,field.boxes7.header.seq,field.boxes7.header.stamp,field.boxes7.header.frame_id,field.boxes7.pose.position.x,field.boxes7.pose.position.y,field.boxes7.pose.position.z,field.boxes7.pose.orientation.x,field.boxes7.pose.orientation.y,field.boxes7.pose.orientation.z,field.boxes7.pose.orientation.w,field.boxes7.scale.x,field.boxes7.scale.y,field.boxes7.scale.z,field.boxes7.id,field.boxes7.pdf,field.boxes8.header.seq,field.boxes8.header.stamp,field.boxes8.header.frame_id,field.boxes8.pose.position.x,field.boxes8.pose.position.y,field.boxes8.pose.position.z,field.boxes8.pose.orientation.x,field.boxes8.pose.orientation.y,field.boxes8.pose.orientation.z,field.boxes8.pose.orientation.w,field.boxes8.scale.x,field.boxes8.scale.y,field.boxes8.scale.z,field.boxes8.id,field.boxes8.pdf,field.pose.pose.position.x,field.pose.pose.position.y,field.pose.pose.position.z,field.pose.pose.orientation.w,field.pose.covariance0,field.pose.covariance1,field.pose.covariance2,field.pose.covariance3,field.pose.covariance4,field.pose.covariance5,field.pose.covariance6,field.pose.covariance7,field.pose.covariance8,field.pose.covariance9,field.pose.covariance10,field.pose.covariance11,field.pose.covariance12,field.pose.covariance13,field.pose.covariance14,field.pose.covariance15,field.pose.covariance16,field.pose.covariance17,field.pose.covariance18,field.pose.covariance19,field.pose.covariance20,field.pose.covariance21,field.pose.covariance22,field.pose.covariance23,field.pose.covariance24,field.pose.covariance25,field.pose.covariance26,field.pose.covariance27,field.pose.covariance28,field.pose.covariance29,field.pose.covariance30,field.pose.covariance31,field.pose.covariance32,field.pose.covariance33,field.pose.covariance34,field.pose.covariance35,field.buttons0,field.buttons1,field.buttons2,field.buttons3,intersection_length,vacuum,desired_box
0.0,0,1735643777088230371,map,0.9788372685019922,-0.2205606323541152,0.0214380689617776,-0.5353392947628274,0.7373761177693748,-0.3223331055385171,0.2564949697364437,0.0,0.0,0.0,1,0.1111111119389534,0,1735643777088253974,map,0.9753316993998936,-0.2487504496822461,0.1490858848455394,-0.5194151458017394,0.4887688405467309,-0.4720191365122761,0.51818033693741,0.0,0.0,0.0,16,0.1111111119389534,0,1735643777088270664,map,0.9809741571799212,0.0557969378042743,0.0258547285878843,-0.4821085773987945,0.5044107729398731,-0.5075599767669177,0.5054937801052323,0.0,0.0,0.0,17,0.1111111119389534,0,1735643777088284730,map,1.006739316329367,-0.2565757075654172,0.2357695248106261,-0.3803736978596677,0.613675507676247,-0.5775152536041186,0.3810437679708637,0.0,0.0,0.0,121,0.1111111119389534,0,1735643777088297367,map,1.01193505066788,0.2098837715470764,0.2410741324315132,-0.5254026720891649,0.4807210709611897,-0.4783173218983527,0.5138791917050932,0.0,0.0,0.0,122,0.1111111119389534,0,1735643777088310956,map,1.0027230363175983,0.208905258287587,0.1433693263845963,-0.480244900000926,0.5017894050962942,-0.487487960440237,0.5290819571503319,0.0,0.0,0.0,124,0.1111111119389534,0,1735643777088322877,map,0.9887847242072216,-0.0273846575466469,0.2417246716034006,0.552304789281176,-0.5384363629237866,0.4439269717320811,-0.4560422640362013,0.0,0.0,0.0,125,0.1111111119389534,0,1735643777088343858,map,0.9934103279211752,-0.0206115609697401,0.1449869986034254,0.6901876663129047,-0.481083553141359,0.3174242854053333,-0.4375401960978504,0.0,0.0,0.0,126,0.1111111119389534,0,1735644242188269615,map,0.9823913054738797,0.3370318252668183,0.0239570066645892,-0.5025499635565248,0.5007992494073793,-0.4873167588495437,0.50908351227153,0.0,0.0,0.0,0,0.1111111119389534,0.9357523745294208,-0.2026302262002716,0.2110153884698482,1.0,0.0,0.0,0.0,0.0,0.0,0.0,0.0,0.0,0.0,0.0,0.0,0.0,0.0,0.0,0.0,0.0,0.0,0.0,0.0,0.0,0.0,0.0,0.0,0.0,0.0,0.0,0.0,0.0,0.0,0.0,0.0,0.0,0.0,0.0,0.0,0.0,0,0,0,1,1,,126
0.100316638,0,1735643777088230371,map,0.9761145089170082,-0.2200753038999458,0.0233177338102615,0.4846336333835395,-0.4992703972904341,0.5166424741527093,-0.4989387394102492,0.0,0.0,0.0,1,0.0,0,1735643777088253974,map,0.9885881144782902,-0.2515420525726186,0.1474903804383786,-0.5032141389132874,0.506795791125874,-0.4870923485864953,0.5026674849672996,0.0,0.0,0.0,16,0.0,0,1735643777088270664,map,0.9852619412948064,0.0564540220564793,0.0256014547917963,-0.5107197921734035,0.4888576561154956,-0.4745051751650002,0.5244314299136271,0.0,0.0,0.0,17,0.0,0,1735643777088284730,map,1.0083811120123165,-0.2568285879697801,0.2363227643845148,-0.3848022854091162,0.6200034500827821,-0.5712871073760291,0.3757046233083875,0.0,0.0,0.0,121,0.0,0,1735643777088297367,map,1.0151979026376663,0.2108693682536112,0.2416160344764002,-0.5066897764254306,0.4729457110956529,-0.4919284109608643,0.5268721508218985,0.0,0.0,0.0,122,0.0,0,1735643777088310956,map,1.007133717267063,0.2106146521165886,0.1434278385813658,-0.4926229755404593,0.5035321122847983,-0.4766408616604201,0.5259196752958435,0.0,0.0,0.0,124,0.0,0,1735643777088322877,map,0.9998617943128016,-0.0258706948981962,0.2421182461884568,-0.5013037334609404,0.5045283174389156,-0.4970930595719622,0.4970354452609641,0.0,0.0,0.0,125,0.0,0,1735643777088343858,map,0.9995587020284276,-0.0195706344571969,0.1444389818959241,-0.5086804107494446,0.4980444531145879,-0.4914001544060696,0.5017188960874985,0.0,0.0,0.0,126,0.0,0,1735644242188269615,map,0.9823913054738797,0.3370318252668183,0.0239570066645892,-0.5025499635565248,0.5007992494073793,-0.4873167588495437,0.50908351227153,0.0,0.0,0.0,0,0.0,0.9360460521732712,-0.2008441874291313,0.2062337123477062,1.0,8.624655849749543e-08,5.245196581338512e-07,-1.4042713772061658e-06,0.0,0.0,0.0,5.245196581338512e-07,3.1899344920161837e-06,-8.540258945181217e-06,0.0,0.0,0.0,-1.4042713772061658e-06,-8.540258945181217e-06,2.286442653706312e-05,0.0,0.0,0.0,0.0,0.0,0.0,0.0,0.0,0.0,0.0,0.0,0.0,0.0,0.0,0.0,0.0,0.0,0.0,0.0,0.0,0.0,0,0,0,1,2,,126
0.199808658,0,1735643777088230371,map,0.9690619933986476,-0.2192869742360023,0.0258865252037449,-0.4857498346548051,0.477720879342432,-0.496853333213147,0.5375561597155294,0.0,0.0,0.0,1,0.0,0,1735643777088253974,map,0.9813630115080424,-0.2501345008985722,0.1481661020090921,-0.5053581574393803,0.5080475894399237,-0.4920490135993196,0.4943567009657031,0.0,0.0,0.0,16,0.0,0,1735643777088270664,map,0.995186988798179,0.0586497125306569,0.021866880899649,-0.516721350470411,0.4961140571400282,-0.4708752198375154,0.5149236988322313,0.0,0.0,0.0,17,1.9283348251519783e-09,0,1735643777088284730,map,1.0093618422071615,-0.2576307813895149,0.2358828088703872,-0.4924798801487698,0.5185107644713192,-0.4812660535958315,0.5069449086758002,0.0,0.0,0.0,121,7.525312817335816e-09,0,1735643777088297367,map,1.009581629010717,0.2075311470219213,0.2414769012712445,-0.5208954788495548,0.4913290914452636,-0.4861026780563652,0.500966875551762,0.0,0.0,0.0,122,0.0,0,1735643777088310956,map,1.0037955222353976,0.2079940533207623,0.1437859115338464,-0.4930431627874863,0.5067973656846267,-0.476269799734345,0.5227159339685766,0.0,0.0,0.0,124,0.0,0,1735643777088322877,map,1.004061324586761,-0.0255736661513732,0.2415675210636251,-0.504344721041052,0.5049966418175882,-0.4940985557829371,0.4964689429200961,0.0,0.0,0.0,125,0.0,0,1735643777088343858,map,0.9920911712760584,-0.0214009271101578,0.145964694153994,0.6819814489003841,-0.4841778151959561,0.3229167900241058,-0.4429423137930383,0.0,0.0,0.0,126,0.0,0,1735644242188269615,map,0.9823913054738797,0.3370318252668183,0.0239570066645892,-0.5025499635565248,0.5007992494073793,-0.4873167588495437,0.50908351227153,0.0,0.0,0.0,0,0.0,0.936925174532514,-0.174155716986799,0.1874011105611316,1.0,1.6032099507069437e-06,4.727454197178968e-05,-3.404850354473218e-05,0.0,0.0,0.0,4.727454197178968e-05,0.0014266755320971,-0.0010109201782298,0.0,0.0,0.0,-3.404850354473218e-05,-0.0010109201782298,0.000724576731128,0.0,0.0,0.0,0.0,0.0,0.0,0.0,0.0,0.0,0.0,0.0,0.0,0.0,0.0,0.0,0.0,0.0,0.0,0.0,0.0,0.0,0,0,0,1,3,,126
0.300130023,0,1735643777088230371,map,0.98301244611077,-0.2213438989767276,0.020166827987614,0.4853647556734451,-0.5060959100497696,0.5103914837564407,-0.4977836046816442,0.0,0.0,0.0,1,0.0,0,1735643777088253974,map,0.9714649491078908,-0.2478468982008712,0.1501645936950324,-0.5122209359845339,0.4739084163643625,-0.4855812191838099,0.5265466790457567,0.0,0.0,0.0,16,0.0,0,1735643777088270664,map,0.9773259108374306,0.054470240117832,0.0280194929683852,-0.4825141156225634,0.4996377280773709,-0.5049955633996189,0.5123687635418074,0.0,0.0,0.0,17,1.5507973571970982e-08,0,1735643777088284730,map,1.0043186262606267,-0.2560179865326929,0.2360561833494147,-0.5009902010337945,0.5180109908412731,-0.473790145168457,0.5061584042343001,0.0,0.0,0.0,121,9.955512041415204e-07,0,1735643777088297367,map,1.0077768572200207,0.2080762719552328,0.2416341406162327,-0.5050824816019709,0.4918519465164364,-0.4943822565428881,0.5084874963087582,0.0,0.0,0.0,122,0.0,0,1735643777088310956,map,1.001999251961048,0.2084469119579714,0.1438265583630298,-0.4891303031935326,0.5034831719973869,-0.4798997071715328,0.5262627794837195,0.0,0.0,0.0,124,0.0,0,1735643777088322877,map,0.9960409079712236,-0.026232980998709,0.242107865151612,-0.6006142963466183,0.4077731980880302,-0.3784605961738217,0.5742395520067142,0.0,0.0,0.0,125,0.0,0,1735643777088343858,map,0.9953486614074988,-0.0203496593856428,0.1453199112455579,0.6838232012174215,-0.4884397369724924,0.3211545257687677,-0.4366603066472129,0.0,0.0,0.0,126,0.0,0,1735644242188269615,map,0.9823913054738797,0.3370318252668183,0.0239570066645892,-0.5025499635565248,0.5007992494073793,-0.4873167588495437,0.50908351227153,0.0,0.0,0.0,0,0.0,0.9382483583178692,-0.1422345126021078,0.1608021567637071,1.0,6.454853452510172e-06,0.0001621687666313,-0.000131122290775,0.0,0.0,0.0,0.0001621687666313,0.0041268965171805,-0.003305402055432,0.0,0.0,0.0,-0.000131122290775,-0.003305402055432,0.0026659455776986,0.0,0.0,0.0,0.0,0.0,0.0,0.0,0.0,0.0,0.0,0.0,0.0,0.0,0.0,0.0,0.0,0.0,0.0,0.0,0.0,0.0,0,0,0,1,4,,126
0.398758915,0,1735643777088230371,map,0.9814305769581354,-0.221004914533675,0.0194089062489073,-0.4945500761592787,0.5127740436580678,-0.4891229844814748,0.5032312672850731,0.0,0.0,0.0,1,0.0,0,1735643777088253974,map,0.9768890748429172,-0.2486590918612254,0.1477880150925845,-0.5197004441081003,0.489423454707758,-0.4710933661140103,0.5181188770727598,0.0,0.0,0.0,16,0.0,0,1735643777088270664,map,0.986616432785759,0.057359696740821,0.0233417122814979,-0.4891314762940074,0.4965138598503146,-0.4988487103888723,0.5151449796109302,0.0,0.0,0.0,17,3.419781648972276e-07,0,1735643777088284730,map,1.0033848732098931,-0.2559421719969869,0.2349439081605587,-0.4969052554949417,0.4970878099222297,-0.4883358275362476,0.5172204518701057,0.0,0.0,0.0,121,1.0381296711159392e-08,0,1735643777088297367,map,1.013753524965152,0.2111808728038497,0.2402393039158449,-0.5060188469707008,0.4861683270475285,-0.4931760817445669,0.5141620723870306,0.0,0.0,0.0,122,0.0,0,1735643777088310956,map,0.9994662179257288,0.2074489567320048,0.1429958907009209,-0.479566857993692,0.4984960356276599,-0.4850893106772156,0.5349819546903134,0.0,0.0,0.0,124,0.0,0,1735643777088322877,map,0.9915386359842472,-0.0268391380519458,0.2409857054134064,0.5481899077448591,-0.5366809341998764,0.4483738005554285,-0.4587181431865452,0.0,0.0,0.0,125,0.0,0,1735643777088343858,map,0.9856039344973372,-0.0214028664208466,0.1455064966218752,-0.470768533161648,0.4871793964583989,-0.5379475038350267,0.5016430074952948,0.0,0.0,0.0,126,0.0,0,1735644242188269615,map,0.9823913054738797,0.3370318252668183,0.0239570066645892,-0.5025499635565248,0.5007992494073793,-0.4873167588495437,0.50908351227153,0.0,0.0,0.0,0,0.0,0.9393111233645643,-0.1152357066883005,0.1391502348789512,1.0,9.681760939917208e-06,0.0002445085622158,-0.0001969414557116,0.0,0.0,0.0,0.0002445085622158,0.0062172592968301,-0.0049826257908553,0.0,0.0,0.0,-0.0001969414557116,-0.0049826257908553,0.0040079793473731,0.0,0.0,0.0,0.0,0.0,0.0,0.0,0.0,0.0,0.0,0.0,0.0,0.0,0.0,0.0,0.0,0.0,0.0,0.0,0.0,0.0,0,0,0,1,5,,126
0.499151165,0,1735643777088230371,map,0.9743363514902716,-0.2195090221622802,0.0228237023104982,-0.4855614848505284,0.4856169393731918,-0.4989489912577687,0.5286361099531686,0.0,0.0,0.0,1,1.444598586872454e-41,0,1735643777088253974,map,0.9761790726866626,-0.2481637040986267,0.148381543279227,-0.5300390309776855,0.5069370254805439,-0.45948451517472,0.5009465621718815,0.0,0.0,0.0,16,6.776315186057813e-12,0,1735643777088270664,map,0.9790292099239616,0.0549847945200538,0.0265591718038742,-0.4826314704608573,0.4964464955383393,-0.5041651759160153,0.5161639431247261,0.0,0.0,0.0,17,0.0040141646750271,0,1735643777088284730,map,1.0043007084322,-0.2561644661399263,0.2353617615164607,-0.5201868525095344,0.5146712858368477,-0.4543821977935176,0.5079920514531717,0.0,0.0,0.0,121,0.0305229518562555,0,1735643777088297367,map,1.0063031035971666,0.2072383126059658,0.2406726104365422,-0.5097181555332315,0.4944295210486623,-0.4899826249441836,0.5056123790891576,0.0,0.0,0.0,122,0.0,0,1735643777088310956,map,1.001622015154521,0.2085995404003656,0.1430748489584499,-0.4896358428958088,0.5073410440376024,-0.4796267442169714,0.5223217328604793,0.0,0.0,0.0,124,0.0,0,1735643777088322877,map,0.9917130149326572,-0.026448470728826,0.2411261745068318,-0.4742156823465067,0.5316134849293139,-0.522831701738091,0.4681384420399576,0.0,0.0,0.0,125,7.198650997302885e-33,0,1735643777088343858,map,1.0010441187259809,-0.0190692329804461,0.1429793204229747,0.4949950280185726,-0.4995589379619194,0.5085843281414857,-0.4967522228517201,0.0,0.0,0.0,126,1.1563201063324868e-08,0,1735644242188269615,map,0.9823913054738797,0.3370318252668183,0.0239570066645892,-0.5025499635565248,0.5007992494073793,-0.4873167588495437,0.50908351227153,0.0,0.0,0.0,0,0.0,0.9402174829222932,-0.1038244684930246,0.123143836707554,1.0,1.2175572356029983e-05,0.0002554705591989,-0.0002366556395969,0.0,0.0,0.0,0.0002554705591989,0.0058321311997717,-0.0050654522699573,0.0,0.0,0.0,-0.0002366556395969,-0.0050654522699573,0.0046210067015842,0.0,0.0,0.0,0.0,0.0,0.0,0.0,0.0,0.0,0.0,0.0,0.0,0.0,0.0,0.0,0.0,0.0,0.0,0.0,0.0,0.0,0,0,0,1,6,,126
0.599656328,0,1735643777088230371,map,0.9792047567742288,-0.2209273543275346,0.0208530454053486,-0.4922684837712046,0.4935618543043415,-0.5001466185505069,0.513733195164331,0.0,0.0,0.0,1,2.682259796216169e-13,0,1735643777088253974,map,0.9881265521193172,-0.2516187016877598,0.1461277258947288,-0.4856415869715086,0.5007116004683467,-0.5097750904062215,0.5035568481924854,0.0,0.0,0.0,16,5.042264092480764e-05,0,1735643777088270664,map,0.9844709422146968,0.0559440661009711,0.0244021660088679,-0.4845836607521059,0.5060382919745107,-0.5041631048074703,0.5048994816183706,0.0,0.0,0.0,17,0.0135112227872014,0,1735643777088284730,map,1.0024747862374996,-0.2564589292536043,0.2350240906604566,-0.4917424065386714,0.471921483494118,-0.4990631348854292,0.5351780137735429,0.0,0.0,0.0,121,0.0601194910705089,0,1735643777088297367,map,1.0080618766609948,0.2077141604883406,0.2406218099899402,-0.5188975204450341,0.4883405163100621,-0.4910092564698026,0.5011774271323367,0.0,0.0,0.0,122,0.0,0,1735643777088310956,map,1.0037476136157797,0.2091743218754014,0.1426293023759977,-0.4930990416792931,0.5067586053201125,-0.4754537689040966,0.5234431818868849,0.0,0.0,0.0,124,8.861316492195991e-33,0,1735643777088322877,map,1.0006672650220418,-0.0259666940268759,0.2407512978809756,0.5086394682452653,-0.5037789426516475,0.4900249509814343,-0.4973612527123563,0.0,0.0,0.0,125,8.38289593990682e-12,0,1735643777088343858,map,0.9993898611879796,-0.0200661964981482,0.143084030502572,0.5073356668414758,-0.5014160995946386,0.4934570265236898,-0.4976872302884744,0.0,0.0,0.0,126,0.0005590885411947,0,1735644242188269615,map,0.9823913054738797,0.3370318252668183,0.0239570066645892,-0.5025499635565248,0.5007992494073793,-0.4873167588495437,0.50908351227153,0.0,0.0,0.0,0,6.244421375173392e-37,0.9410425856065082,-0.0997688920717017,0.109913232784082,1.0,1.4520971513588036e-05,0.0002390523669753,-0.0002683473319493,0.0,0.0,0.0,0.0002390523669753,0.0050976558004595,-0.0046637625832634,0.0,0.0,0.0,-0.0002683473319493,-0.0046637625832634,0.0050111561681509,0.0,0.0,0.0,0.0,0.0,0.0,0.0,0.0,0.0,0.0,0.0,0.0,0.0,0.0,0.0,0.0,0.0,0.0,0.0,0.0,0.0,0,0,0,1,7,,126
0.70053748,0,1735643777088230371,map,0.9820553131029172,-0.2221957074814309,0.0192011482764695,0.4743194072531952,-0.5088130307042138,0.5266617436306215,-0.4886284963901753,0.0,0.0,0.0,1,3.856088693254996e-15,0,1735643777088253974,map,0.9761345923553968,-0.2495198987676178,0.1477414743206986,-0.5051569407576313,0.4848721531751913,-0.4870716438782053,0.5219929827204839,0.0,0.0,0.0,16,3.036342059203889e-05,0,1735643777088270664,map,0.978318031396444,0.0534036099134531,0.0262652795251306,-0.4886858802564143,0.4910193295116795,-0.4972673019140316,0.5223134680735827,0.0,0.0,0.0,17,0.0081798862665891,0,1735643777088284730,map,1.0058379560951716,-0.2580253422843604,0.2346695682620615,0.3406672856446088,-0.6105783946340413,0.6202712515018445,-0.3555325569592564,0.0,0.0,0.0,121,0.032823622226715,0,1735643777088297367,map,0.998458306793728,0.2022542664139749,0.2403225536954257,-0.4977306934511382,0.5056221570012621,-0.5020623775964398,0.4945136602241133,0.0,0.0,0.0,122,0.0,0,1735643777088310956,map,0.9998619678610244,0.2066868512190723,0.1426580723054085,-0.4814778215216016,0.500261453937622,-0.4856872478663498,0.531060714369873,0.0,0.0,0.0,124,8.870491018974294e-37,0,1735643777088322877,map,0.992983759393927,-0.0278700477049477,0.240555390522735,-0.6057137625064832,0.4431507927535273,-0.3841973184063453,0.5376993893631766,0.0,0.0,0.0,125,3.984849830749454e-13,0,1735643777088343858,map,0.999476875636758,-0.020773395637837,0.1424277819695305,-0.5174950672635658,0.4859104378183804,-0.4809532857368596,0.5145617929033848,0.0,0.0,0.0,126,0.0002217973378719,0,1735644242188269615,map,0.9823913054738797,0.3370318252668183,0.0239570066645892,-0.5025499635565248,0.5007992494073793,-0.4873167588495437,0.50908351227153,0.0,0.0,0.0,0,4.301986285477189e-42,0.9413936826418984,-0.0946976554231515,0.1035750202776079,1.0,1.356873397220726e-05,0.0002216342941748,-0.0002503812088005,0.0,0.0,0.0,0.0002216342941748,0.0046404709134212,-0.0043057902891993,0.0,0.0,0.0,-0.0002503812088005,-0.0043057902891993,0.0046659722115726,0.0,0.0,0.0,0.0,0.0,0.0,0.0,0.0,0.0,0.0,0.0,0.0,0.0,0.0,0.0,0.0,0.0,0.0,0.0,0.0,0.0,0,0,0,1,8,,126
0.800125421,0,1735643777088230371,map,0.9744843455351144,-0.2213890748758498,0.0212668089864334,-0.4924331210146688,0.4976923660616183,-0.5006677514496901,0.5090616197967123,0.0,0.0,0.0,1,3.448691332508247e-10,0,1735643777088253974,map,0.977386594398313,-0.2507991334573705,0.1479718407125754,-0.5243861907794051,0.4993684338416323,-0.4673708706986315,0.5071634444878927,0.0,0.0,0.0,16,0.0004687870386987,0,1735643777088270664,map,0.9778358051255814,0.0544418841009916,0.0257279098028943,-0.4924170535875632,0.492141217905284,-0.4909594586553182,0.5237187001928839,0.0,0.0,0.0,17,0.0514649786055088,0,1735643777088284730,map,1.001229985474452,-0.2583931010943215,0.2357492526031184,-0.5054891132951311,0.5013913024163902,-0.474577361906783,0.5175556450922901,0.0,0.0,0.0,121,0.0329549200832843,0,1735643777088297367,map,1.0035781367350043,0.2076066899678699,0.2414583736647003,-0.5123196193220304,0.4850231120983772,-0.4933338907538432,0.508824980343743,0.0,0.0,0.0,122,1.2544452551228312e-36,0,1735643777088310956,map,0.9953445541069484,0.2067647478294031,0.1436921226732664,-0.486773565015382,0.5062128063594953,-0.4812471092132009,0.5245963314337966,0.0,0.0,0.0,124,2.0819141169694917e-22,0,1735643777088322877,map,0.9931255774621368,-0.0270935426354178,0.241701757053127,-0.5122413669892617,0.5013761692149312,-0.4854281309693685,0.5005899005692377,0.0,0.0,0.0,125,2.514086361316004e-08,0,1735643777088343858,map,0.9896016367101962,-0.02172063145909,0.144358465641965,-0.498275964838851,0.4945229837779002,-0.5024668206111441,0.5046733354995522,0.0,0.0,0.0,126,0.0089684426784515,0,1735644242188269615,map,0.9823913054738797,0.3370318252668183,0.0239570066645892,-0.5025499635565248,0.5007992494073793,-0.4873167588495437,0.50908351227153,0.0,0.0,0.0,0,7.867800996942167e-26,0.9412380446068732,-0.0878109288696558,0.104450611629336,1.0,1.2254882447755828e-05,0.0001884335687804,-0.0002236512770291,0.0,0.0,0.0,0.0001884335687804,0.0045042790551332,-0.0037791294802593,0.0,0.0,0.0,-0.0002236512770291,-0.0037791294802593,0.004153664136453,0.0,0.0,0.0,0.0,0.0,0.0,0.0,0.0,0.0,0.0,0.0,0.0,0.0,0.0,0.0,0.0,0.0,0.0,0.0,0.0,0.0,0,0,0,1,9,,126
0.900005284,0,1735643777088230371,map,0.9724920642148858,-0.2213078225621734,0.0231996258127175,-0.4953178040347317,0.492514750344643,-0.4924473685901674,0.5192158345695798,0.0,0.0,0.0,1,6.179614615575701e-07,0,1735643777088253974,map,0.9761175845151004,-0.2507172362524118,0.1489898976706922,-0.5145560284626545,0.4930320769825334,-0.477687853683978,0.5137760008815356,0.0,0.0,0.0,16,0.0028556580655276,0,1735643777088270664,map,0.9841834239650454,0.0564894252619301,0.0243115495384786,-0.5070221265895193,0.5001791427425272,-0.4827446951136588,0.5096145088727485,0.0,0.0,0.0,17,0.0980918705463409,0,1735643777088284730,map,0.999526434273544,-0.2581863224305686,0.2370466467355598,0.3232966519420087,-0.6214865231161032,0.6298986083468769,-0.3353528285713615,0.0,0.0,0.0,121,0.0261750016361475,0,1735643777088297367,map,0.997294346829634,0.204460353101422,0.2426540967413214,-0.5098644399814576,0.4894772751393322,-0.4946334815225043,0.5057548506158841,0.0,0.0,0.0,122,9.34936639312615e-22,0,1735643777088310956,map,0.9943454066886204,0.2067451794806309,0.1448704276188741,-0.4847285310844663,0.500493166132059,-0.4847633842193504,0.5287242221877161,0.0,0.0,0.0,124,9.845866255544373e-14,0,1735643777088322877,map,0.9904584699353064,-0.0275091987622187,0.2429921484887161,-0.4932297911643128,0.5045089980124857,-0.5002971222306312,0.5018942453547316,0.0,0.0,0.0,125,4.4938420614926144e-05,0,1735643777088343858,map,0.9852659844921928,-0.0223611169446479,0.1460836091941114,-0.4862030141120251,0.4708944432496515,-0.5143753443361572,0.5265767346968936,0.0,0.0,0.0,126,0.0851857662200927,0,1735644242188269615,map,0.9823913054738797,0.3370318252668183,0.0239570066645892,-0.5025499635565248,0.5007992494073793,-0.4873167588495437,0.50908351227153,0.0,0.0,0.0,0,6.99725976792897e-17,0.9408831960743134,-0.0826153378496161,0.1086713064560338,1.0,1.2162651532519049e-05,0.0001529973812592,-0.0002147655156169,0.0,0.0,0.0,0.0001529973812592,0.0042967986440475,-0.0032038554949741,0.0,0.0,0.0,-0.0002147655156169,-0.0032038554949741,0.0038986261061887,0.0,0.0,0.0,0.0,0.0,0.0,0.0,0.0,0.0,0.0,0.0,0.0,0.0,0.0,0.0,0.0,0.0,0.0,0.0,0.0,0.0,0,0,0,1,10,,126
0.999502466,0,1735643777088230371,map,0.969713754270894,-0.2222036683342286,0.0236609083175194,-0.4947012505702927,0.4925895021318267,-0.4941266469211926,0.5181361904713152,0.0,0.0,0.0,1,1.6088426491478458e-05,0,1735643777088253974,map,0.9697173911867708,-0.2507296729305169,0.1499947729668659,-0.5057961810316647,0.4852741431289861,-0.4855825162189895,0.522387642662656,0.0,0.0,0.0,16,0.0060446723364293,0,1735643777088270664,map,0.9818009573217552,0.0561094674532467,0.0260547088540902,-0.4967098476575424,0.5015226197121653,-0.4943788135806372,0.5072908217577661,0.0,0.0,0.0,17,0.1187169253826141,0,1735643777088284730,map,0.9945064293408188,-0.2578700803707084,0.2384514455787083,-0.4942725299167568,0.4783576437947619,-0.4916510006567985,0.5339924384726633,0.0,0.0,0.0,121,0.0193281415849924,0,1735643777088297367,map,0.9911874757316096,0.202111719399292,0.2440438293368498,-0.4944147160486108,0.4931686408949711,-0.5056701711883241,0.5065929906372074,0.0,0.0,0.0,122,5.158124446368257e-15,0,1735643777088310956,map,0.992815296161382,0.2069066856689366,0.1462456045515345,-0.4901970139089031,0.5038876213520375,-0.4776826908024592,0.5268998002568446,0.0,0.0,0.0,124,7.85694453941943e-10,0,1735643777088322877,map,0.9806859678085876,-0.0289180045349047,0.2440907748798108,-0.4992489399233772,0.5148817870043987,-0.4975591385518524,0.4879366199006584,0.0,0.0,0.0,125,0.001389306038618,0,1735643777088343858,map,0.9822070961180857,-0.0226039448305042,0.1481321373577623,-0.4928894223452691,0.4846946039266745,-0.510516889308717,0.5113742895326892,0.0,0.0,0.0,126,0.2267638444900512,0,1735644242188269615,map,0.9823913054738797,0.3370318252668183,0.0239570066645892,-0.5025499635565248,0.5007992494073793,-0.4873167588495437,0.50908351227153,0.0,0.0,0.0,0,5.14786618280999e-13,0.9405193458561768,-0.0775384542372476,0.1130521098536187,1.0,1.2380825751033543e-05,0.0001206162763193,-0.0002111809405518,0.0,0.0,0.0,0.0001206162763193,0.0041639280576331,-0.0026901876147398,0.0,0.0,0.0,-0.0002111809405518,-0.0026901876147398,0.0037361199351635,0.0,0.0,0.0,0.0,0.0,0.0,0.0,0.0,0.0,0.0,0.0,0.0,0.0,0.0,0.0,0.0,0.0,0.0,0.0,0.0,0.0,0,0,0,1,11,,126
1.099008955,0,1735643777088230371,map,0.9663070930697626,-0.2222625723230626,0.0249643817182807,-0.4923978985546629,0.4904317900103402,-0.4961025019060668,0.520483694700177,0.0,0.0,0.0,1,1.140150288847508e-05,0,1735643777088253974,map,0.9712800749914666,-0.2523707452910213,0.1500787691092524,-0.5186284392744549,0.4996383805356041,-0.4706215989916439,0.5098051993007238,0.0,0.0,0.0,16,0.0034424876794219,0,1735643777088270664,map,0.9691245929225404,0.0520954781554155,0.0294086458635443,-0.4849776788029556,0.4915456353559529,-0.5003036373260491,0.522375162027958,0.0,0.0,0.0,17,0.1147491037845611,0,1735643777088284730,map,0.991475465828072,-0.2587797557988899,0.2381100667105172,-0.5082067712960145,0.5012571940724642,-0.4701996496069136,0.5190177188777049,0.0,0.0,0.0,121,0.0125859007239341,0,1735643777088297367,map,0.9895810479555148,0.2012173586821647,0.2437793529192903,-0.5010252063060505,0.4928097337480241,-0.4988146321303395,0.5072437991162193,0.0,0.0,0.0,122,7.851548187651214e-15,0,1735643777088310956,map,0.9844700437667346,0.20215233609717,0.1470982387468602,-0.4757501409286286,0.5011844906987859,-0.4917490078901572,0.5297724256021963,0.0,0.0,0.0,124,1.1925502807486055e-09,0,1735643777088322877,map,0.9785497264217436,-0.0298168670090325,0.2438908184256375,-0.5036513320729162,0.5424479682935835,-0.4903228065602557,0.4600750838311225,0.0,0.0,0.0,125,0.0020341982599347,0,1735643777088343858,map,0.986223662431864,-0.022754858931798,0.1466890519684968,-0.4955297977360315,0.4959882729700442,-0.5070230434740213,0.5013716047187171,0.0,0.0,0.0,126,0.2727522253990173,0,1735644242188269615,map,0.9823913054738797,0.3370318252668183,0.0239570066645892,-0.5025499635565248,0.5007992494073793,-0.4873167588495437,0.50908351227153,0.0,0.0,0.0,0,1.8535139514799098e-13,0.9402877771122744,-0.0766101212335989,0.1163277927351236,1.0,1.1938955186460013e-05,0.000108200217976,-0.0002019265323124,0.0,0.0,0.0,0.000108200217976,0.0038264138766526,-0.0024325551436992,0.0,0.0,0.0,-0.0002019265323124,-0.0024325551436992,0.0035428076889752,0.0,0.0,0.0,0.0,0.0,0.0,0.0,0.0,0.0,0.0,0.0,0.0,0.0,0.0,0.0,0.0,0.0,0.0,0.0,0.0,0.0,0,0,0,1,12,,126
1.200710306,0,1735643777088230371,map,0.9695111754844576,-0.2238461442665278,0.0225605993489724,-0.4842375817863115,0.4995310101059717,-0.5031852120682856,0.5126279125096947,0.0,0.0,0.0,1,9.55511859501712e-06,0,1735643777088253974,map,0.9668833121693516,-0.251726745633555,0.1503964627851174,-0.50273866889367,0.4832971319324184,-0.4902303803935949,0.522830648684706,0.0,0.0,0.0,16,0.0026793587021529,0,1735643777088270664,map,0.9739116630421548,0.0532445668368719,0.0263705445368109,-0.4934900987952991,0.4841974666172484,-0.4913750465543466,0.5296894366854582,0.0,0.0,0.0,17,0.0909322276711463,0,1735643777088284730,map,0.9898341716328096,-0.2605371861590768,0.2377230204320508,-0.501260817482758,0.4991439026386959,-0.4801140715683385,0.5187325279922222,0.0,0.0,0.0,121,0.0077154114842414,0,1735643777088297367,map,0.9908596146621046,0.2033974057669902,0.2434340448953678,0.5190299086283384,-0.4956525134941174,0.4870346820273103,-0.497728599056533,0.0,0.0,0.0,122,6.889138510959153e-14,0,1735643777088310956,map,0.9858834550814952,0.2045378654597809,0.1456238028055099,-0.4918520056528275,0.5044379854561152,-0.4776957392580206,0.5248149236245098,0.0,0.0,0.0,124,2.8059272683123027e-09,0,1735643777088322877,map,0.9790826551231702,-0.0304973716170742,0.2436137449474132,-0.5045785990297207,0.4998486420865776,-0.4934561311629696,0.5020486221702863,0.0,0.0,0.0,125,0.0052872439846396,0,1735643777088343858,map,0.9811677754357292,-0.024157710070181,0.1468208928194813,0.6720699898251502,-0.5040886813259714,0.3303534101893546,-0.4302129176486101,0.0,0.0,0.0,126,0.3512372374534607,0,1735644242188269615,map,0.9823913054738797,0.3370318252668183,0.0239570066645892,-0.5025499635565248,0.5007992494073793,-0.4873167588495437,0.50908351227153,0.0,0.0,0.0,0,1.522102485284477e-13,0.9399621041543356,-0.0756777444185662,0.1210136565031499,1.0,1.2293328524662226e-05,9.623332530237664e-05,-0.0002047064315005,0.0,0.0,0.0,9.623332530237664e-05,0.0035425062659819,-0.0021930076284323,0.0,0.0,0.0,-0.0002047064315005,-0.0021930076284323,0.0035337718516226,0.0,0.0,0.0,0.0,0.0,0.0,0.0,0.0,0.0,0.0,0.0,0.0,0.0,0.0,0.0,0.0,0.0,0.0,0.0,0.0,0.0,0,0,0,1,13,,126
1.300581874,0,1735643777088230371,map,0.9656762983164588,-0.2226915906999803,0.0250377147093917,-0.4957240410626809,0.4982094253301725,-0.4943077276326902,0.5115710253984989,0.0,0.0,0.0,1,3.394134182599373e-05,0,1735643777088253974,map,0.9752146350871134,-0.2543008771676986,0.1491889219057263,-0.5066862604454708,0.5123063289252539,-0.4849443938182417,0.4956210182419349,0.0,0.0,0.0,16,0.0018210777780041,0,1735643777088270664,map,0.9719479303465176,0.0528464788255688,0.0276782664859026,-0.4963887159758819,0.5000346287220709,-0.4948961802670785,0.5085679733208252,0.0,0.0,0.0,17,0.077235609292984,0,1735643777088284730,map,0.98816777410158,-0.2601126916784888,0.2381059920663346,-0.4943107255659891,0.4987544049808163,-0.489063314578865,0.517414750887324,0.0,0.0,0.0,121,0.005242935847491,0,1735643777088297367,map,0.9869169223674512,0.2016870727134911,0.2436550497790996,0.5094170084595215,-0.4990029163241375,0.4948232936258936,-0.4966289450660123,0.0,0.0,0.0,122,5.754002743024733e-12,0,1735643777088310956,map,0.9818256219084148,0.2025314882588788,0.1466864932642267,-0.4826161919005039,0.5049350060055438,-0.4838160741280984,0.527299020898875,0.0,0.0,0.0,124,2.2840318081307487e-08,0,1735643777088322877,map,0.9756147819391228,-0.0311038334610737,0.243856837047708,-0.5752033616644264,0.4256341083524529,-0.4061047587202736,0.5683798232535212,0.0,0.0,0.0,125,0.0178548041731119,0,1735643777088343858,map,0.9759240227104232,-0.0245277580439598,0.1476362846087773,-0.4718984814657,0.4807787076959377,-0.5337059780701229,0.5111962308045749,0.0,0.0,0.0,126,0.4524822533130646,0,1735644242188269615,map,0.9823913054738797,0.3370318252668183,0.0239570066645892,-0.5025499635565248,0.5007992494073793,-0.4873167588495437,0.50908351227153,0.0,0.0,0.0,0,2.940586413691798e-13,0.9395665040464288,-0.0741916352260702,0.1266307962168824,1.0,1.3449726419930304e-05,8.17167519123404e-05,-0.0002189723775356,0.0,0.0,0.0,8.17167519123404e-05,0.0033181808710423,-0.001927844347868,0.0,0.0,0.0,-0.0002189723775356,-0.001927844347868,0.0036915389378333,0.0,0.0,0.0,0.0,0.0,0.0,0.0,0.0,0.0,0.0,0.0,0.0,0.0,0.0,0.0,0.0,0.0,0.0,0.0,0.0,0.0,0,0,0,1,14,,126
1.401648196,0,1735643777088230371,map,0.9621199623664618,-0.2231267355930352,0.0263499218281652,-0.4919198565181326,0.4953351335914049,-0.5008972405704551,0.5116247790931042,0.0,0.0,0.0,1,0.0001007146711344,0,1735643777088253974,map,0.9691540983196212,-0.2525192544109048,0.1517801591990865,-0.5060577135403282,0.4923682198552473,-0.4845534228718302,0.5164175704080014,0.0,0.0,0.0,16,0.0024951875675469,0,1735643777088270664,map,0.9702403611291812,0.0526840317585442,0.029898101572051,-0.4872414994265204,0.4849653389159325,-0.4956303805142117,0.5308058658286364,0.0,0.0,0.0,17,0.0704207643866539,0,1735643777088284730,map,0.9866969539676836,-0.2603129214525774,0.2396409413952045,-0.4964302413426661,0.4857362089624512,-0.4896918837510371,0.5270855810697241,0.0,0.0,0.0,121,0.0036843486595898,0,1735643777088297367,map,0.9874980191016376,0.2033708763102871,0.2453901902836831,-0.5050293614037055,0.4892280084669302,-0.4995340058221685,0.5060307074465981,0.0,0.0,0.0,122,2.91294793841601e-10,0,1735643777088310956,map,0.9834932279654572,0.2049514886942326,0.1477252787436425,-0.4880632062171516,0.5014909047279893,-0.4828703299038105,0.5264384329726715,0.0,0.0,0.0,124,1.6899697641292732e-07,0,1735643777088322877,map,0.9737098029369666,-0.0304674632373952,0.2457672094268988,-0.514767750684208,0.5411491331485547,-0.479715433424621,0.4604833129249277,0.0,0.0,0.0,125,0.040282879024744,0,1735643777088343858,map,0.9771649608324235,-0.0240632848105048,0.1488000336643112,-0.5020132399837305,0.4754317888833858,-0.4922226078153303,0.5288328898202684,0.0,0.0,0.0,126,0.5580965280532837,0,1735644242188269615,map,0.9823913054738797,0.3370318252668183,0.0239570066645892,-0.5025499635565248,0.5007992494073793,-0.4873167588495437,0.50908351227153,0.0,0.0,0.0,0,1.5715253534262508e-12,0.9392243228999604,-0.0711078746609688,0.1311086835365307,1.0,1.4192309109913171e-05,6.149610229311091e-05,-0.0002258256996683,0.0,0.0,0.0,6.149610229311091e-05,0.003230102922093,-0.0016059991387053,0.0,0.0,0.0,-0.0002258256996683,-0.0016059991387053,0.0037261569898423,0.0,0.0,0.0,0.0,0.0,0.0,0.0,0.0,0.0,0.0,0.0,0.0,0.0,0.0,0.0,0.0,0.0,0.0,0.0,0.0,0.0,0,0,0,1,15,,126
1.499396978,0,1735643777088230371,map,0.9649505286190748,-0.2238369475743986,0.021807427161062,-0.4909925604241636,0.5080382808003814,-0.4971529983064479,0.5036489919819422,0.0,0.0,0.0,1,8.998239354696125e-05,0,1735643777088253974,map,0.9639801274900704,-0.2521502645524636,0.1498349235052964,-0.5144483120234687,0.4946604311368144,-0.4778875688323508,0.5121303190392562,0.0,0.0,0.0,16,0.0024786449503153,0,1735643777088270664,map,0.9620670578958714,0.051704713359756,0.0293686300603797,-0.4850672768770666,0.4884818255988851,-0.4984826582014613,0.5268873526998472,0.0,0.0,0.0,17,0.0701422840356826,0,1735643777088284730,map,0.9812086291815408,-0.2601926702130898,0.2374333566462679,-0.5048290735612241,0.4922175030647979,-0.4775560532127815,0.524222998545279,0.0,0.0,0.0,121,0.0029519472736865,0,1735643777088297367,map,0.981803034688714,0.2028200640138212,0.2430948760814194,-0.505725771260154,0.4873255250553824,-0.4931530026720708,0.5133764631031885,0.0,0.0,0.0,122,2.812585941924794e-09,0,1735643777088310956,map,0.9771165849633204,0.2041254998277088,0.1455643792973438,-0.4861400383073768,0.5011220583992215,-0.4782463409527158,0.5327522717976608,0.0,0.0,0.0,124,7.813763431840925e-07,0,1735643777088322877,map,0.9722786785259931,-0.0303195160519942,0.2433540281280036,0.5583348333962249,-0.4984774748934329,0.4429685197506291,-0.4935193120336969,0.0,0.0,0.0,125,0.0603752434253692,0,1735643777088343858,map,0.9740397366105484,-0.0238668798340622,0.1458754695790361,-0.4921140584023682,0.4801547818054223,-0.5045493762920545,0.5222117060306454,0.0,0.0,0.0,126,0.6509897708892822,0,1735644242188269615,map,0.9823913054738797,0.3370318252668183,0.0239570066645892,-0.5025499635565248,0.5007992494073793,-0.4873167588495437,0.50908351227153,0.0,0.0,0.0,0,6.221471688522273e-12,0.939053230348728,-0.0673103444893189,0.1328700738735607,1.0,1.3744379706851555e-05,4.790665901804984e-05,-0.0002162320049362,0.0,0.0,0.0,4.790665901804984e-05,0.0032445400205311,-0.0014052901983023,0.0,0.0,0.0,-0.0002162320049362,-0.0014052901983023,0.0035398096167679,0.0,0.0,0.0,0.0,0.0,0.0,0.0,0.0,0.0,0.0,0.0,0.0,0.0,0.0,0.0,0.0,0.0,0.0,0.0,0.0,0.0,0,0,0,1,16,,126
1.60022969,0,1735643777088230371,map,0.9649505286190748,-0.2238369475743986,0.021807427161062,-0.4909925604241636,0.5080382808003814,-0.4971529983064479,0.5036489919819422,0.0,0.0,0.0,1,0.00010415584984,0,1735643777088253974,map,0.9652713119533108,-0.2526071536460451,0.1491838961724384,-0.506316047297934,0.4957673124097573,-0.482080288453981,0.5152256085238087,0.0,0.0,0.0,16,0.0025714021176099,0,1735643777088270664,map,0.9620670578958714,0.051704713359756,0.0293686300603797,-0.4850672768770666,0.4884818255988851,-0.4984826582014613,0.5268873526998472,0.0,0.0,0.0,17,0.0731161162257194,0,1735643777088284730,map,0.9797586661844278,-0.2599712731860427,0.2371982327793137,-0.5020113488781106,0.4934606926027114,-0.4791586728389932,0.5242977366886175,0.0,0.0,0.0,121,0.002669978654012,0,1735643777088297367,map,0.978530777960088,0.2007887830614897,0.2432459519679833,-0.4986775609146255,0.5115230688933878,-0.5040015251417568,0.4854351685703386,0.0,0.0,0.0,122,1.9632766523614013e-08,0,1735643777088310956,map,0.9771165849633204,0.2041254998277088,0.1455643792973438,-0.4861400383073768,0.5011220583992215,-0.4782463409527158,0.5327522717976608,0.0,0.0,0.0,124,3.066181534450152e-06,0,1735643777088322877,map,0.9673498047267476,-0.0307214099740585,0.2430265080238895,-0.482211034265202,0.5170727632534273,-0.5145430819015799,0.4851326548497567,0.0,0.0,0.0,125,0.0714878886938095,0,1735643777088343858,map,0.9713748085678932,-0.0240556389431656,0.1459881724728907,-0.5022726000076312,0.4904235615758102,-0.4987828468614773,0.5083528668254285,0.0,0.0,0.0,126,0.7210056185722351,0,1735644242188269615,map,0.9823913054738797,0.3370318252668183,0.0239570066645892,-0.5025499635565248,0.5007992494073793,-0.4873167588495437,0.50908351227153,0.0,0.0,0.0,0,3.8219979264786375e-11,0.938948707014607,-0.0629162199979394,0.1335069827540894,1.0,1.3110688820931304e-05,3.7740003574177136e-05,-0.0002045776246697,0.0,0.0,0.0,3.7740003574177136e-05,0.0033626180059376,-0.0012778475584191,0.0,0.0,0.0,-0.0002045776246697,-0.0012778475584191,0.0033380759684174,0.0,0.0,0.0,0.0,0.0,0.0,0.0,0.0,0.0,0.0,0.0,0.0,0.0,0.0,0.0,0.0,0.0,0.0,0.0,0.0,0.0,0,0,0,1,17,,126
1.701123898,0,1735643777088230371,map,0.9649505286190748,-0.2238369475743986,0.021807427161062,-0.4909925604241636,0.5080382808003814,-0.4971529983064479,0.5036489919819422,0.0,0.0,0.0,1,0.0002108609332935,0,1735643777088253974,map,0.9631500558599676,-0.2524364137131956,0.1495479688140942,-0.5074570596043765,0.495454104287192,-0.4827590320928537,0.5137667565495335,0.0,0.0,0.0,16,0.0040258481167256,0,1735643777088270664,map,0.9620670578958714,0.051704713359756,0.0293686300603797,-0.4850672768770666,0.4884818255988851,-0.4984826582014613,0.5268873526998472,0.0,0.0,0.0,17,0.0771201029419899,0,1735643777088284730,map,0.9770141744272413,-0.2597687432537748,0.2372132933838161,-0.5031610349708354,0.4831875687872512,-0.4822057054991502,0.5299400002270164,0.0,0.0,0.0,121,0.0029046246781945,0,1735643777088297367,map,0.978530777960088,0.2007887830614897,0.2432459519679833,-0.4986775609146255,0.5115230688933878,-0.5040015251417568,0.4854351685703386,0.0,0.0,0.0,122,3.7622024251504637e-07,0,1735643777088310956,map,0.9771165849633204,0.2041254998277088,0.1455643792973438,-0.4861400383073768,0.5011220583992215,-0.4782463409527158,0.5327522717976608,0.0,0.0,0.0,124,2.745738493104e-05,0,1735643777088322877,map,0.9646190308918448,-0.030963865434029,0.2432109269981695,-0.4860692792975348,0.5191456681022998,-0.5107632448686794,0.4830583181200893,0.0,0.0,0.0,125,0.0924230739474296,0,1735643777088343858,map,0.9657489736054928,-0.0245570992946502,0.147099150101203,-0.4868768391819154,0.4889193083707522,-0.5209747771656831,0.5024879450570527,0.0,0.0,0.0,126,0.806917130947113,0,1735644242188269615,map,0.9823913054738797,0.3370318252668183,0.0239570066645892,-0.5025499635565248,0.5007992494073793,-0.4873167588495437,0.50908351227153,0.0,0.0,0.0,0,7.802605228590663e-10,0.9387974476093542,-0.0573726843972219,0.1346013095251549,1.0,1.2771267150284857e-05,2.1388634443585605e-05,-0.0001960261637582,0.0,0.0,0.0,2.1388634443585605e-05,0.0036982292727558,-0.0011037265573541,0.0,0.0,0.0,-0.0001960261637582,-0.0011037265573541,0.0031729856718972,0.0,0.0,0.0,0.0,0.0,0.0,0.0,0.0,0.0,0.0,0.0,0.0,0.0,0.0,0.0,0.0,0.0,0.0,0.0,0.0,0.0,0,0,0,1,18,,126
1.8003937,0,1735643777088230371,map,0.9649505286190748,-0.2238369475743986,0.021807427161062,-0.4909925604241636,0.5080382808003814,-0.4971529983064479,0.5036489919819422,0.0,0.0,0.0,1,0.0004349854425527,0,1735643777088253974,map,0.956429520760099,-0.252325454845098,0.1500782084532376,-0.505428947328155,0.4950265748801155,-0.4850894101955076,0.513983008942308,0.0,0.0,0.0,16,0.0061537651345133,0,1735643777088270664,map,0.9620670578958714,0.051704713359756,0.0293686300603797,-0.4850672768770666,0.4884818255988851,-0.4984826582014613,0.5268873526998472,0.0,0.0,0.0,17,0.0763334333896637,0,1735643777088284730,map,0.9724595020805225,-0.2611964849990407,0.2372126450070057,-0.5029879642902874,0.4910246196988871,-0.4777112870535944,0.5269628609781473,0.0,0.0,0.0,121,0.0028232496697455,0,1735643777088297367,map,0.978530777960088,0.2007887830614897,0.2432459519679833,-0.4986775609146255,0.5115230688933878,-0.5040015251417568,0.4854351685703386,0.0,0.0,0.0,122,5.237144250713754e-06,0,1735643777088310956,map,0.9771165849633204,0.2041254998277088,0.1455643792973438,-0.4861400383073768,0.5011220583992215,-0.4782463409527158,0.5327522717976608,0.0,0.0,0.0,124,0.0001801026519387,0,1735643777088322877,map,0.9598243937858147,-0.0326070049479912,0.2431063426091204,-0.5870528781277368,0.4402896986130907,-0.4017786510193207,0.5478027155484252,0.0,0.0,0.0,125,0.1177831068634986,0,1735643777088343858,map,0.9635983790567336,-0.0254718161451,0.1460433336116396,-0.5000459701178196,0.4823492069414301,-0.5005820329126597,0.516440605158939,0.0,0.0,0.0,126,0.8913283348083496,0,1735644242188269615,map,0.9823913054738797,0.3370318252668183,0.0239570066645892,-0.5025499635565248,0.5007992494073793,-0.4873167588495437,0.50908351227153,0.0,0.0,0.0,0,9.108555687475928e-09,0.9386209106919884,-0.0516086116028425,0.1360279638749946,1.0,1.2660070292481114e-05,1.946627274637921e-06,-0.0001902424261438,0.0,0.0,0.0,1.946627274637921e-06,0.0041016272600416,-0.0008976155744663,0.0,0.0,0.0,-0.0001902424261438,-0.0008976155744663,0.0030426225934183,0.0,0.0,0.0,0.0,0.0,0.0,0.0,0.0,0.0,0.0,0.0,0.0,0.0,0.0,0.0,0.0,0.0,0.0,0.0,0.0,0.0,0,0,0,1,19,,126
1.901623772,0,1735643777088230371,map,0.9649505286190748,-0.2238369475743986,0.021807427161062,-0.4909925604241636,0.5080382808003814,-0.4971529983064479,0.5036489919819422,0.0,0.0,0.0,1,0.0017166506731882,0,1735643777088253974,map,0.9550003025057971,-0.2517902300914204,0.1502230303952662,-0.5095009284311,0.4925887843825381,-0.474853711038685,0.5218036474969966,0.0,0.0,0.0,16,0.0115147409960627,0,1735643777088270664,map,0.9620670578958714,0.051704713359756,0.0293686300603797,-0.4850672768770666,0.4884818255988851,-0.4984826582014613,0.5268873526998472,0.0,0.0,0.0,17,0.0692351385951042,0,1735643777088284730,map,0.9705914654613852,-0.2610754336338339,0.2373337485686951,-0.5069931552678981,0.4849183726650548,-0.4739446874574806,0.5321546256439078,0.0,0.0,0.0,121,0.0029850990977138,0,1735643777088297367,map,0.978530777960088,0.2007887830614897,0.2432459519679833,-0.4986775609146255,0.5115230688933878,-0.5040015251417568,0.4854351685703386,0.0,0.0,0.0,122,0.0001591934997122,0,1735643777088310956,map,0.9771165849633204,0.2041254998277088,0.1455643792973438,-0.4861400383073768,0.5011220583992215,-0.4782463409527158,0.5327522717976608,0.0,0.0,0.0,124,0.0015182298375293,0,1735643777088322877,map,0.9612331420350512,-0.0316190221186483,0.2431452027414577,0.4731156471598782,-0.522996934717219,0.523110908474155,-0.478529798574997,0.0,0.0,0.0,125,0.1672012954950332,0,1735643777088343858,map,0.9638062985724496,-0.0251624995013495,0.1459358469539118,-0.4997386934670646,0.4910199113791638,-0.5014067217768416,0.5076928049894255,0.0,0.0,0.0,126,0.9553210735321044,0,1735644242188269615,map,0.9823913054738797,0.3370318252668183,0.0239570066645892,-0.5025499635565248,0.5007992494073793,-0.4873167588495437,0.50908351227153,0.0,0.0,0.0,0,9.933930300576321e-08,0.938324371286523,-0.0445842020431054,0.1389871367307333,1.0,1.3697843538737866e-05,-3.77279745462919e-05,-0.0001974030206635,0.0,0.0,0.0,-3.77279745462919e-05,0.0048340501606351,-0.0004577923959044,0.0,0.0,0.0,-0.0001974030206635,-0.0004577923959044,0.0030568688395601,0.0,0.0,0.0,0.0,0.0,0.0,0.0,0.0,0.0,0.0,0.0,0.0,0.0,0.0,0.0,0.0,0.0,0.0,0.0,0.0,0.0,0,0,0,1,20,,126
1.999386983,0,1735643777088230371,map,0.9649505286190748,-0.2238369475743986,0.021807427161062,-0.4909925604241636,0.5080382808003814,-0.4971529983064479,0.5036489919819422,0.0,0.0,0.0,1,0.0017583955777809,0,1735643777088253974,map,0.955929395655522,-0.2526512365880338,0.150219119658834,-0.5087824471562882,0.4923581438883929,-0.4786487672155399,0.5192487238843053,0.0,0.0,0.0,16,0.0108798490837216,0,1735643777088270664,map,0.9620670578958714,0.051704713359756,0.0293686300603797,-0.4850672768770666,0.4884818255988851,-0.4984826582014613,0.5268873526998472,0.0,0.0,0.0,17,0.0633541420102119,0,1735643777088284730,map,0.9709122203133124,-0.2620684963922708,0.2378178308531907,-0.4996746085713585,0.4904260742802416,-0.4796643209640144,0.528894781983394,0.0,0.0,0.0,121,0.002353572519496,0,1735643777088297367,map,0.978530777960088,0.2007887830614897,0.2432459519679833,-0.4986775609146255,0.5115230688933878,-0.5040015251417568,0.4854351685703386,0.0,0.0,0.0,122,0.0003223376406822,0,1735643777088310956,map,0.9771165849633204,0.2041254998277088,0.1455643792973438,-0.4861400383073768,0.5011220583992215,-0.4782463409527158,0.5327522717976608,0.0,0.0,0.0,124,0.0025370605289936,0,1735643777088322877,map,0.9617979207043276,-0.0315775542882238,0.2438370187741948,-0.500561398332957,0.5191924147978657,-0.4971500174846987,0.4824099740161677,0.0,0.0,0.0,125,0.1659321784973144,0,1735643777088343858,map,0.9622805835044104,-0.0254782076055148,0.1463970901829501,-0.4990981686942898,0.4834631715564754,-0.5030246145452312,0.5139363938428396,0.0,0.0,0.0,126,0.9748584032058716,0,1735644242188269615,map,0.9823913054738797,0.3370318252668183,0.0239570066645892,-0.5025499635565248,0.5007992494073793,-0.4873167588495437,0.50908351227153,0.0,0.0,0.0,0,1.5854384116664733e-07,0.9381826193990986,-0.0400584832585131,0.1401544036422509,1.0,1.3447437226756372e-05,-4.876198792316753e-05,-0.0001913121225791,0.0,0.0,0.0,-4.876198792316753e-05,0.0050134999061871,-0.0003303383222424,0.0,0.0,0.0,-0.0001913121225791,-0.0003303383222424,0.0029385538975784,0.0,0.0,0.0,0.0,0.0,0.0,0.0,0.0,0.0,0.0,0.0,0.0,0.0,0.0,0.0,0.0,0.0,0.0,0.0,0.0,0.0,0,0,0,1,21,,126
2.101384344,0,1735643777088230371,map,0.9649505286190748,-0.2238369475743986,0.021807427161062,-0.4909925604241636,0.5080382808003814,-0.4971529983064479,0.5036489919819422,0.0,0.0,0.0,1,0.0013956201728433,0,1735643777088253974,map,0.956531741363296,-0.2540815800886581,0.1497380869079903,-0.5017810474958501,0.4969091313555796,-0.4880758594071714,0.5129123229299153,0.0,0.0,0.0,16,0.0083680562674999,0,1735643777088270664,map,0.9620670578958714,0.051704713359756,0.0293686300603797,-0.4850672768770666,0.4884818255988851,-0.4984826582014613,0.5268873526998472,0.0,0.0,0.0,17,0.0558907464146614,0,1735643777088284730,map,0.9695742759061858,-0.2630028000243933,0.2373464263856089,-0.503595779976157,0.4989305697050058,-0.4765034186530091,0.5200039125007032,0.0,0.0,0.0,121,0.0016946096438914,0,1735643777088297367,map,0.978530777960088,0.2007887830614897,0.2432459519679833,-0.4986775609146255,0.5115230688933878,-0.5040015251417568,0.4854351685703386,0.0,0.0,0.0,122,0.000342452636687,0,1735643777088310956,map,0.9771165849633204,0.2041254998277088,0.1455643792973438,-0.4861400383073768,0.5011220583992215,-0.4782463409527158,0.5327522717976608,0.0,0.0,0.0,124,0.0025844695046544,0,1735643777088322877,map,0.955873606563258,-0.0333846149226048,0.243529400725331,-0.4849325592161913,0.553492795215174,-0.50635447298092,0.4495456443445352,0.0,0.0,0.0,125,0.1619618535041809,0,1735643777088343858,map,0.9585332941729964,-0.0272721350631249,0.1470000533680943,-0.5021898426826024,0.4873197443958431,-0.496128942936565,0.5139853116666271,0.0,0.0,0.0,126,0.9852074384689332,0,1735644242188269615,map,0.9823913054738797,0.3370318252668183,0.0239570066645892,-0.5025499635565248,0.5007992494073793,-0.4873167588495437,0.50908351227153,0.0,0.0,0.0,0,1.1238613950581566e-07,0.9380881898961912,-0.0376064978150351,0.1410511656225219,1.0,1.3023445631491808e-05,-5.140786902450076e-05,-0.0001843944135558,0.0,0.0,0.0,-5.140786902450076e-05,0.0049118704317306,-0.000269147150199,0.0,0.0,0.0,-0.0001843944135558,-0.000269147150199,0.0028218710889047,0.0,0.0,0.0,0.0,0.0,0.0,0.0,0.0,0.0,0.0,0.0,0.0,0.0,0.0,0.0,0.0,0.0,0.0,0.0,0.0,0.0,0,0,0,1,22,,126
2.199466816,0,1735643777088230371,map,0.9649505286190748,-0.2238369475743986,0.021807427161062,-0.4909925604241636,0.5080382808003814,-0.4971529983064479,0.5036489919819422,0.0,0.0,0.0,1,0.0013308201450854,0,1735643777088253974,map,0.9526100031452862,-0.2542779453320199,0.1503958088059418,-0.5021439840944463,0.4990992600275941,-0.4836659719412264,0.5146052617918064,0.0,0.0,0.0,16,0.0067846593447029,0,1735643777088270664,map,0.9620670578958714,0.051704713359756,0.0293686300603797,-0.4850672768770666,0.4884818255988851,-0.4984826582014613,0.5268873526998472,0.0,0.0,0.0,17,0.0480143427848815,0,1735643777088284730,map,0.9650983891681002,-0.2634053611023755,0.2377284090845164,-0.4990194189070699,0.4939777914991793,-0.4820883306180795,0.5239812998009726,0.0,0.0,0.0,121,0.0011984673328697,0,1735643777088297367,map,0.978530777960088,0.2007887830614897,0.2432459519679833,-0.4986775609146255,0.5115230688933878,-0.5040015251417568,0.4854351685703386,0.0,0.0,0.0,122,0.0004678931436501,0,1735643777088310956,map,0.9771165849633204,0.2041254998277088,0.1455643792973438,-0.4861400383073768,0.5011220583992215,-0.4782463409527158,0.5327522717976608,0.0,0.0,0.0,124,0.002609389135614,0,1735643777088322877,map,0.9529697895891208,-0.0349545264133135,0.2438174331345647,-0.5691541444410105,0.4643335928869165,-0.4226813707453391,0.5308468076641226,0.0,0.0,0.0,125,0.1763240694999694,0,1735643777088343858,map,0.9581231019965798,-0.0282586815850336,0.1465869668482833,-0.5035716923126408,0.4901787118314268,-0.4985497999934627,0.5075317508246597,0.0,0.0,0.0,126,0.9944118857383728,0,1735644242188269615,map,0.9823913054738797,0.3370318252668183,0.0239570066645892,-0.5025499635565248,0.5007992494073793,-0.4873167588495437,0.50908351227153,0.0,0.0,0.0,0,6.26976941475732e-08,0.9378980102088684,-0.0354107460683903,0.1434378967334546,1.0,1.325291176124951e-05,-5.835966665784365e-05,-0.0001863632362211,0.0,0.0,0.0,-5.835966665784365e-05,0.004804380013866,-0.0001421503820671,0.0,0.0,0.0,-0.0001863632362211,-0.0001421503820671,0.0028245037202707,0.0,0.0,0.0,0.0,0.0,0.0,0.0,0.0,0.0,0.0,0.0,0.0,0.0,0.0,0.0,0.0,0.0,0.0,0.0,0.0,0.0,0,0,0,1,23,,126
2.298211849,0,1735643777088230371,map,0.9649505286190748,-0.2238369475743986,0.021807427161062,-0.4909925604241636,0.5080382808003814,-0.4971529983064479,0.5036489919819422,0.0,0.0,0.0,1,0.0010552663588896,0,1735643777088253974,map,0.9545399911304884,-0.2564770204418981,0.1499584591299851,-0.5029486468729476,0.502655652015689,-0.489265502507244,0.5049744767428228,0.0,0.0,0.0,16,0.0048717749305069,0,1735643777088270664,map,0.9620670578958714,0.051704713359756,0.0293686300603797,-0.4850672768770666,0.4884818255988851,-0.4984826582014613,0.5268873526998472,0.0,0.0,0.0,17,0.0429020375013351,0,1735643777088284730,map,0.965544091127342,-0.2650207481183868,0.2380414095200721,-0.4948301778988746,0.4967123619023907,-0.4875465434499911,0.5203059605115842,0.0,0.0,0.0,121,0.0009339520474895,0,1735643777088297367,map,0.978530777960088,0.2007887830614897,0.2432459519679833,-0.4986775609146255,0.5115230688933878,-0.5040015251417568,0.4854351685703386,0.0,0.0,0.0,122,0.0004177704977337,0,1735643777088310956,map,0.9771165849633204,0.2041254998277088,0.1455643792973438,-0.4861400383073768,0.5011220583992215,-0.4782463409527158,0.5327522717976608,0.0,0.0,0.0,124,0.0020411827135831,0,1735643777088322877,map,0.9553937016016496,-0.0353965746127003,0.2442146938956663,-0.5578452201222194,0.4958807783859909,-0.4372474875246445,0.5017226312091988,0.0,0.0,0.0,125,0.1953044831752777,0,1735643777088343858,map,0.9538679154305278,-0.0291651715792945,0.1478522850137757,-0.4928894661038363,0.4736133136079816,-0.5029815277564162,0.5289234217851996,0.0,0.0,0.0,126,0.996104657649994,0,1735644242188269615,map,0.9823913054738797,0.3370318252668183,0.0239570066645892,-0.5025499635565248,0.5007992494073793,-0.4873167588495437,0.50908351227153,0.0,0.0,0.0,0,3.0713604104448684e-08,0.9377243651365572,-0.0352759979386142,0.1460130720888472,1.0,1.3394217160702063e-05,-5.646617590142438e-05,-0.000188882931127,0.0,0.0,0.0,-5.646617590142438e-05,0.0046046151256332,-0.0001282464480323,0.0,0.0,0.0,-0.000188882931127,-0.0001282464480323,0.0028593412118129,0.0,0.0,0.0,0.0,0.0,0.0,0.0,0.0,0.0,0.0,0.0,0.0,0.0,0.0,0.0,0.0,0.0,0.0,0.0,0.0,0.0,0,0,0,1,24,,126
2.401349562,0,1735643777088230371,map,0.9649505286190748,-0.2238369475743986,0.021807427161062,-0.4909925604241636,0.5080382808003814,-0.4971529983064479,0.5036489919819422,0.0,0.0,0.0,1,0.0008117742836475,0,1735643777088253974,map,0.9539735266980562,-0.2577132289361778,0.1499063575412299,-0.4983506967320866,0.5051262186766483,-0.4937890880529868,0.5026593506460156,0.0,0.0,0.0,16,0.0036164107732474,0,1735643777088270664,map,0.9620670578958714,0.051704713359756,0.0293686300603797,-0.4850672768770666,0.4884818255988851,-0.4984826582014613,0.5268873526998472,0.0,0.0,0.0,17,0.0372764952480793,0,1735643777088284730,map,0.9655153041450028,-0.26679906549335,0.237912899190741,-0.5031773372439339,0.5090840393894186,-0.4775249772188292,0.509525175290892,0.0,0.0,0.0,121,0.0006780221010558,0,1735643777088297367,map,0.978530777960088,0.2007887830614897,0.2432459519679833,-0.4986775609146255,0.5115230688933878,-0.5040015251417568,0.4854351685703386,0.0,0.0,0.0,122,0.0003574992879293,0,1735643777088310956,map,0.9771165849633204,0.2041254998277088,0.1455643792973438,-0.4861400383073768,0.5011220583992215,-0.4782463409527158,0.5327522717976608,0.0,0.0,0.0,124,0.0016128905117511,0,1735643777088322877,map,0.9515556693434246,-0.0364021650250688,0.2438722053758669,-0.4662855429920766,0.4672790513916301,-0.5256947333374834,0.536538095449293,0.0,0.0,0.0,125,0.2053487747907638,0,1735643777088343858,map,0.9526969954437724,-0.0301173223545841,0.1477929824211117,-0.4846717797171759,0.4784964626132895,-0.513528404789411,0.5219415471935501,0.0,0.0,0.0,126,0.9974088072776794,0,1735644242188269615,map,0.9823913054738797,0.3370318252668183,0.0239570066645892,-0.5025499635565248,0.5007992494073793,-0.4873167588495437,0.50908351227153,0.0,0.0,0.0,0,1.464856946853388e-08,0.9375948522416512,-0.034959084083192,0.1478879420437208,1.0,1.3261014633001324e-05,-5.519259520580587e-05,-0.0001871552899322,0.0,0.0,0.0,-5.519259520580587e-05,0.0044228409460101,-0.0001088564557315,0.0,0.0,0.0,-0.0001871552899322,-0.0001088564557315,0.0028293308596849,0.0,0.0,0.0,0.0,0.0,0.0,0.0,0.0,0.0,0.0,0.0,0.0,0.0,0.0,0.0,0.0,0.0,0.0,0.0,0.0,0.0,0,0,0,1,25,,126
2.498116371,0,1735643777088230371,map,0.9649505286190748,-0.2238369475743986,0.021807427161062,-0.4909925604241636,0.5080382808003814,-0.4971529983064479,0.5036489919819422,0.0,0.0,0.0,1,0.0005987618351355,0,1735643777088253974,map,0.9539735266980562,-0.2577132289361778,0.1499063575412299,-0.4983506967320866,0.5051262186766483,-0.4937890880529868,0.5026593506460156,0.0,0.0,0.0,16,0.0028496908489614,0,1735643777088270664,map,0.9620670578958714,0.051704713359756,0.0293686300603797,-0.4850672768770666,0.4884818255988851,-0.4984826582014613,0.5268873526998472,0.0,0.0,0.0,17,0.0321657992899417,0,1735643777088284730,map,0.9655153041450028,-0.26679906549335,0.237912899190741,-0.5031773372439339,0.5090840393894186,-0.4775249772188292,0.509525175290892,0.0,0.0,0.0,121,0.0005079329712316,0,1735643777088297367,map,0.978530777960088,0.2007887830614897,0.2432459519679833,-0.4986775609146255,0.5115230688933878,-0.5040015251417568,0.4854351685703386,0.0,0.0,0.0,122,0.0002762731164693,0,1735643777088310956,map,0.9771165849633204,0.2041254998277088,0.1455643792973438,-0.4861400383073768,0.5011220583992215,-0.4782463409527158,0.5327522717976608,0.0,0.0,0.0,124,0.0012731917668133,0,1735643777088322877,map,0.948668577298899,-0.0363531838543252,0.2432547286689363,-0.4764793755576063,0.4961752556284006,-0.5205608747692616,0.5057607102472337,0.0,0.0,0.0,125,0.2012061774730682,0,1735643777088343858,map,0.9498739746481722,-0.0302570129014609,0.1469008810763609,-0.4875742011825602,0.4804050594497094,-0.5091222740807013,0.521801578410036,0.0,0.0,0.0,126,0.9969006180763244,0,1735644242188269615,map,0.9823913054738797,0.3370318252668183,0.0239570066645892,-0.5025499635565248,0.5007992494073793,-0.4873167588495437,0.50908351227153,0.0,0.0,0.0,0,7.1081918129323185e-09,0.93754793576369,-0.0346557652954822,0.1485272059912359,1.0,1.28060045062624e-05,-5.342556931297637e-05,-0.0001807068098728,0.0,0.0,0.0,-5.342556931297637e-05,0.0042550317360303,-9.982214983297396e-05,0.0,0.0,0.0,-0.0001807068098728,-9.982214983297396e-05,0.0027307269018695,0.0,0.0,0.0,0.0,0.0,0.0,0.0,0.0,0.0,0.0,0.0,0.0,0.0,0.0,0.0,0.0,0.0,0.0,0.0,0.0,0.0,0,0,0,1,26,,126
