%time,field.boxes0.header.seq,field.boxes0.header.stamp,field.boxes0.header.frame_id,field.boxes0.pose.position.x,field.boxes0.pose.position.y,field.boxes0.pose.position.z,field.boxes0.pose.orientation.x,field.boxes0.pose.orientation.y,field.boxes0.pose.orientation.z,field.boxes0.pose.orientation.w,field.boxes0.scale.x,field.boxes0.scale.y,field.boxes0.scale.z,field.boxes0.id,field.boxes0.pdf,field.boxes1.header.seq,field.boxes1.header.stamp,field.boxes1.header.frame_id,field.boxes1.pose.position.x,field.boxes1.pose.position.y,field.boxes1.pose.position.z,field.boxes1.pose.orientation.x,field.boxes1.pose.orientation.y,field.boxes1.pose.orientation.z,field.boxes1.pose.orientation.w,field.boxes1.scale.x,field.boxes1.scale.y,field.boxes1.scale.z,field.boxes1.id,field.boxes1.pdf,field.boxes2.header.seq,field.boxes2.header.stamp,field.boxes2.header.frame_id,field.boxes2.pose.position.x,field.boxes2.pose.position.y,field.boxes2.pose.position.z,field.boxes2.pose.orientation.x,field.boxes2.pose.orientation.y,field.boxes2.pose.orientation.z,field.boxes2.pose.orientation.w,field.boxes2.scale.x,field.boxes2.scale.y,field.boxes2.scale.z,field.boxes2.id,field.boxes2.pdf,field.boxes3.header.seq,field.boxes3.header.stamp,field.boxes3.header.frame_id,field.boxes3.pose.position.x,field.boxes3.pose.position.y,field.boxes3.pose.position.z,field.boxes3.pose.orientation.x,field.boxes3.pose.orientation.y,field.boxes3.pose.orientation.z,field.boxes3.pose.orientation.w,field.boxes3.scale.x,field.boxes3.scale.y,field.boxes3.scale.z,field.boxes3.id,field.boxes3.pdf,field.boxes4.header.seq,field.boxes4.header.stamp,field.boxes4.header.frame_id,field.boxes4.pose.position.x,field.boxes4.pose.position.y,field.boxes4.pose.position.z,field.boxes4.pose.orientation.x,field.boxes4.pose.orientation.y,field.boxes4.pose.orientation.z,field.boxes4.pose.orientation.w,field.boxes4.scale.x,field.boxes4.scale.y,field.boxes4.scale.z,field.boxes4.id,field.boxes4.pdf,field.boxes5.header.seq,field.boxes5.header.stamp,field.boxes5.header.frame_id,field.boxes5.pose.position.x,field.boxes5.pose.position.y,field.boxes5.pose.position.z,field.boxes5.pose.orientation.x,field.boxes5.pose.orientation.y,field.boxes5.pose.orientation.z,field.boxes5.pose.orientation.w,field.boxes5.scale.x,field.boxes5.scale.y,field.boxes5.scale.z,field.boxes5.id,field.boxes5.pdf,field.boxes6.header.seq,field.boxes6.header.stamp,field.boxes6.header.frame_id,field.boxes6.pose.position.x,field.boxes6.pose.position.y,field.boxes6.pose.position.z,field.boxes6.pose.orientation.x,field.boxes6.pose.orientation.y,field.boxes6.pose.orientation.z,field.boxes6.pose.orientation.w,field.boxes6.scale.x,field.boxes6.scale.y,field.boxes6.scale.z,field.boxes6.id,field.boxes6.pdf,field.boxes7.header.seq,field.boxes7.header.stamp,field.boxes7.header.frame_id,field.boxes7.pose.position.x,field.boxes7.pose.position.y,field.boxes7.pose.position.z,field.boxes7.pose.orientation.x,field.boxes7.pose.orientation.y,field.boxes7.pose.orientation.z,field.boxes7.pose.orientation.w,field.boxes7.scale.x,field.boxes7.scale.y,field.boxes7.scale.z,field.boxes7.id,field.boxes7.pdf,field.boxes8.header.seq,field.boxes8.header.stamp,field.boxes8.header.frame_id,field.boxes8.pose.position.x,field.boxes8.pose.position.y,field.boxes8.pose.position.z,field.boxes8.pose.orientation.x,field.boxes8.pose.orientation.y,field.boxes8.pose.orientation.z,field.boxes8.pose.orientation.w,field.boxes8.scale.x,field.boxes8.scale.y,field.boxes8.scale.z,field.boxes8.id,field.boxes8.pdf,field.pose.pose.position.x,field.pose.pose.position.y,field.pose.pose.position.z,field.pose.pose.orientation.w,field.pose.covariance0,field.pose.covariance1,field.pose.covariance2,field.pose.covariance3,field.pose.covariance4,field.pose.covariance5,field.pose.covariance6,field.pose.covariance7,field.pose.covariance8,field.pose.covariance9,field.pose.covariance10,field.pose.covariance11,field.pose.covariance12,field.pose.covariance13,field.pose.covariance14,field.pose.covariance15,field.pose.covariance16,field.pose.covariance17,field.pose.covariance18,field.pose.covariance19,field.pose.covariance20,field.pose.covariance21,field.pose.covariance22,field.pose.covariance23,field.pose.covariance24,field.pose.covariance25,field.pose.covariance26,field.pose.covariance27,field.pose.covariance28,field.pose.covariance29,field.pose.covariance30,field.pose.covariance31,field.pose.covariance32,field.pose.covariance33,field.pose.covariance34,field.pose.covariance35,field.buttons0,field.buttons1,field.buttons2,field.buttons3,intersection_length,vacuum,desired_box
0.0,0,1735643777088230371,map,0.9842632079369984,-0.2217851309127113,0.0202233387627746,-0.5079701171598486,0.7404957421273185,-0.3498084350248835,0.2669578145500962,0.0,0.0,0.0,1,0.1111111119389534,0,1735643777088253974,map,0.9900485423858872,-0.252240234313299,0.1468288044183414,-0.5071627306407309,0.5121633710319076,-0.4881570626101714,0.4921151575049067,0.0,0.0,0.0,16,0.1111111119389534,0,1735643777088270664,map,0.9794434119086266,0.0543937011672386,0.0268415137529656,-0.4766371193648482,0.5063503394055875,-0.513351558485565,0.5028882257797128,0.0,0.0,0.0,17,0.1111111119389534,0,1735643777088284730,map,1.002903852140704,-0.25649350362306,0.2363784694179354,-0.4857701328951222,0.4787131292423661,-0.496595864715013,0.5368926010162423,0.0,0.0,0.0,121,0.1111111119389534,0,1735643777088297367,map,1.011926329036506,0.2074808727921919,0.242241787590142,0.5155569126264616,-0.497815578602171,0.4889162147652106,-0.4973345498592624,0.0,0.0,0.0,122,0.1111111119389534,0,1735643777088310956,map,1.007340187628751,0.2087176447184004,0.1436916975850329,-0.4935398954222004,0.4975210686312319,-0.4729669303836926,0.534035055645327,0.0,0.0,0.0,124,0.1111111119389534,0,1735643777088322877,map,0.9961401049963984,-0.0280982626039839,0.2423271710550363,-0.5912492328124724,0.4598823144553523,-0.4034269103455586,0.5255276677387098,0.0,0.0,0.0,125,0.1111111119389534,0,1735643777088343858,map,0.9975418028857772,-0.0215692109078466,0.145325172056284,0.6563428069675016,-0.5070488880714963,0.3484504534705444,-0.436689622413508,0.0,0.0,0.0,126,0.1111111119389534,0,1735644242188269615,map,0.968851883171824,0.3278830082867096,0.0272683440017603,-0.4828594362618415,0.4924712903734085,-0.4908547828288904,0.5323348336759954,0.0,0.0,0.0,0,0.1111111119389534,0.9433138825726372,-0.0442524034078256,0.0641021130007475,1.0,0.0,0.0,0.0,0.0,0.0,0.0,0.0,0.0,0.0,0.0,0.0,0.0,0.0,0.0,0.0,0.0,0.0,0.0,0.0,0.0,0.0,0.0,0.0,0.0,0.0,0.0,0.0,0.0,0.0,0.0,0.0,0.0,0.0,0.0,0.0,0.0,0,0,0,1,1,,17
0.10008457,0,1735643777088230371,map,0.9761851821075782,-0.2204085176698416,0.0225280595793549,0.4845934731453336,-0.498781998178136,0.5164818695914494,-0.4996320270576037,0.0,0.0,0.0,1,0.0,0,1735643777088253974,map,0.9861323034039748,-0.2511806191276012,0.1474472940126425,-0.4951005324438311,0.5100877187309909,-0.4941584077162392,0.5004932068040484,0.0,0.0,0.0,16,0.0,0,1735643777088270664,map,0.9895947661271198,0.0562891567558862,0.024032920200607,-0.5104749858968871,0.4980310526078474,-0.4827199264410932,0.5082930572303714,0.0,0.0,0.0,17,0.0,0,1735643777088284730,map,1.006462071263957,-0.2568907416230256,0.2363472265248739,-0.3532871691789203,0.6324633350234016,-0.5913353883409962,0.3542608706027585,0.0,0.0,0.0,121,0.0,0,1735643777088297367,map,1.0185380269867292,0.2099932831559628,0.2419106657289066,-0.5056568730922505,0.4801456586310283,-0.4943240634883392,0.5190520142035089,0.0,0.0,0.0,122,0.0,0,1735643777088310956,map,1.005769118439399,0.2073888551761157,0.1440254671175914,-0.4837220066668135,0.4999841047290879,-0.4828798924142853,0.5318420111146279,0.0,0.0,0.0,124,0.0,0,1735643777088322877,map,1.0007946740054652,-0.0276679553438802,0.2420082379573199,-0.503530961337263,0.5044607523508929,-0.4954237305197971,0.4965191311019044,0.0,0.0,0.0,125,0.0,0,1735643777088343858,map,0.99949344391817,-0.0214620008503452,0.1448477701923077,-0.4733051890351623,0.4657866634639016,-0.5249122270442089,0.5324397957244029,0.0,0.0,0.0,126,0.0,0,1735644242188269615,map,0.9784922740404952,0.3339843377042705,0.0243621815776772,-0.5064148944450132,0.4910249521853975,-0.4822390993922287,0.5195035149380094,0.0,0.0,0.0,0,0.0,0.9430878418603588,-0.0384883965613558,0.0662710614607431,1.0,5.10944036073702e-08,-1.3029002131541637e-06,-4.902706547927561e-07,0.0,0.0,0.0,-1.3029002131541637e-06,3.32237749261506e-05,1.2501833773054789e-05,0.0,0.0,0.0,-4.902706547927561e-07,1.2501833773054789e-05,4.70433742211732e-06,0.0,0.0,0.0,0.0,0.0,0.0,0.0,0.0,0.0,0.0,0.0,0.0,0.0,0.0,0.0,0.0,0.0,0.0,0.0,0.0,0.0,0,0,0,1,2,,17
0.201046888,0,1735643777088230371,map,0.9807378077716,-0.221151526874136,0.0215313312039563,-0.4924611027905189,0.494349047108617,-0.4918311902424706,0.5207716986989815,0.0,0.0,0.0,1,0.0,0,1735643777088253974,map,0.9855257685399368,-0.2508106089433164,0.1482552418796341,-0.505912418611932,0.5231585578046337,-0.4871858699430667,0.4827086867022572,0.0,0.0,0.0,16,0.0,0,1735643777088270664,map,0.9962698669248624,0.058234142944307,0.0219494376837752,-0.516205092227223,0.4957708363734707,-0.4720811032413545,0.51466786622312,0.0,0.0,0.0,17,0.0,0,1735643777088284730,map,1.0092641080198383,-0.2582709588183707,0.2368869395389519,-0.4967154186910673,0.4979542056038936,-0.4880882046098203,0.5168029667839721,0.0,0.0,0.0,121,0.0,0,1735643777088297367,map,1.006723054238557,0.2046822022284253,0.2420465075015065,-0.4876042814091989,0.4879276785039304,-0.5107403010955055,0.5131403220738517,0.0,0.0,0.0,122,0.0,0,1735643777088310956,map,1.0037241307409168,0.2065722908838818,0.1445738574282045,-0.4796161307676241,0.4989934316524039,-0.488333039718875,0.5315117727710033,0.0,0.0,0.0,124,0.0,0,1735643777088322877,map,0.997914758702236,-0.027754142105258,0.2425485817921946,0.4549816643069817,-0.5047082807355672,0.5376610840700349,-0.4991811246211458,0.0,0.0,0.0,125,0.0,0,1735643777088343858,map,1.0034610759389584,-0.0209710132222037,0.1444794724388111,-0.5185426288390733,0.4842308783313807,-0.486452700886089,0.5098997630394742,0.0,0.0,0.0,126,3.014178654205248e-16,0,1735644242188269615,map,0.9817295827709512,0.3360069530346722,0.0237306449497843,-0.5053202840111303,0.4892056746649121,-0.4749645479012265,0.5289025398686817,0.0,0.0,0.0,0,0.0,0.9435517228761452,-0.0398085347374649,0.0595949492696798,1.0,4.644341293526849e-07,-2.0933742183270966e-06,-6.5206905125868e-06,0.0,0.0,0.0,-2.0933742183270966e-06,2.5634712892141555e-05,2.5961336991522772e-05,0.0,0.0,0.0,-6.5206905125868e-06,2.5961336991522772e-05,9.227717292340548e-05,0.0,0.0,0.0,0.0,0.0,0.0,0.0,0.0,0.0,0.0,0.0,0.0,0.0,0.0,0.0,0.0,0.0,0.0,0.0,0.0,0.0,0,0,0,1,3,,17
0.298376364,0,1735643777088230371,map,0.9833996426521404,-0.2219647232423359,0.0197698469243044,-0.4931664155436183,0.748946385037163,-0.3635608906642485,0.2523681392312484,0.0,0.0,0.0,1,0.0,0,1735643777088253974,map,0.9776113158715464,-0.249158772264723,0.1481488472983456,-0.4915371564268154,0.4668686476498789,-0.4979456937087786,0.5408095559531994,0.0,0.0,0.0,16,0.0,0,1735643777088270664,map,0.981970529168084,0.0543006681495285,0.0255429698479562,-0.4842752775650757,0.5025293634915557,-0.5066470231517907,0.5062119005905225,0.0,0.0,0.0,17,0.0,0,1735643777088284730,map,1.0058449292206193,-0.2572839338846603,0.2354269962567725,0.3231368552288165,-0.5761300183350387,0.6503227218201107,-0.3751494798751316,0.0,0.0,0.0,121,0.0,0,1735643777088297367,map,1.0120702837411026,0.2068643251529233,0.2409378077242626,-0.5099880804741952,0.4937451616855435,-0.4901624623520626,0.505834591133628,0.0,0.0,0.0,122,0.0,0,1735643777088310956,map,1.007467102295661,0.2079897448054883,0.1427661545375731,-0.4967905700188338,0.5034786310099595,-0.4705070116204075,0.527571369269346,0.0,0.0,0.0,124,0.0,0,1735643777088322877,map,0.996494201175024,-0.0281227399498871,0.2409789353855942,0.4618798653642577,-0.5323518136768803,0.5340206492746685,-0.4670015873573588,0.0,0.0,0.0,125,0.0,0,1735643777088343858,map,0.9936178276815084,-0.02225809177503,0.144894992378219,0.4773255787963019,-0.5169178541138125,0.5320649244796838,-0.471023502665817,0.0,0.0,0.0,126,1.7145428132803175e-10,0,1735644242188269615,map,0.9778348897131944,0.3323108367038895,0.0236866888449329,-0.5048316125816678,0.5008597989971155,-0.4885623364586405,0.5055604297023609,0.0,0.0,0.0,0,0.0,0.944714588132886,-0.0480717845166396,0.0439080287576884,1.0,4.40509241301782e-06,-3.0397168891661108e-05,-5.961584243037979e-05,0.0,0.0,0.0,-3.0397168891661108e-05,0.0002240699254082,0.0004083458301135,0.0,0.0,0.0,-5.961584243037979e-05,0.0004083458301135,0.0008074463051411,0.0,0.0,0.0,0.0,0.0,0.0,0.0,0.0,0.0,0.0,0.0,0.0,0.0,0.0,0.0,0.0,0.0,0.0,0.0,0.0,0.0,0,0,0,1,4,,17
0.400810432,0,1735643777088230371,map,0.976084146949686,-0.2211421705021498,0.0209154672274491,-0.4888426496101055,0.4901266206857706,-0.4954685654125353,0.5247091197085892,0.0,0.0,0.0,1,0.0,0,1735643777088253974,map,0.9782792817198168,-0.2499327323864463,0.1469854093167098,-0.5005975159946208,0.484993607519775,-0.4934260746789203,0.5203018705251041,0.0,0.0,0.0,16,0.0,0,1735643777088270664,map,0.9830749332651638,0.0538485821302581,0.0241310717591955,-0.4829364851239514,0.5028905969052536,-0.5053829733947872,0.5083910395385082,0.0,0.0,0.0,17,0.0,0,1735643777088284730,map,1.0098726809992624,-0.2592495842945133,0.2349396695031362,-0.3436793176436581,0.6277823387703574,-0.6041465219020903,0.3504009729233304,0.0,0.0,0.0,121,0.0,0,1735643777088297367,map,1.0194016195617033,0.2098818631641778,0.2404057545113199,-0.5097627483103738,0.494015816531108,-0.4908669392632226,0.505113810334377,0.0,0.0,0.0,122,0.0,0,1735643777088310956,map,1.0030335323578057,0.20546615113328,0.142545001935415,-0.477136317429047,0.4943918910761753,-0.4900330659865441,0.5364561369470929,0.0,0.0,0.0,124,0.0,0,1735643777088322877,map,1.0045180504346083,-0.0276796520126061,0.2404226260717804,-0.5111408425205525,0.4972291685088425,-0.4879120592041542,0.5034282625901594,0.0,0.0,0.0,125,0.0,0,1735643777088343858,map,1.0050593124333462,-0.0215487035197429,0.1427482059944157,0.5686447235550703,-0.5513360646541758,0.4367507653982719,-0.4265213841164915,0.0,0.0,0.0,126,5.5111812002905936e-08,0,1735644242188269615,map,0.9778348897131944,0.3323108367038895,0.0236866888449329,-0.5048316125816678,0.5008597989971155,-0.4885623364586405,0.5055604297023609,0.0,0.0,0.0,0,0.0,0.9456486248097477,-0.0537192255519959,0.0310984190647642,1.0,7.013771985305765e-06,-4.5417403343075786e-05,-9.55512550222023e-05,0.0,0.0,0.0,-4.5417403343075786e-05,0.0003068303013178,0.0006160427257977,0.0,0.0,0.0,-9.55512550222023e-05,0.0006160427257977,0.0013023014460531,0.0,0.0,0.0,0.0,0.0,0.0,0.0,0.0,0.0,0.0,0.0,0.0,0.0,0.0,0.0,0.0,0.0,0.0,0.0,0.0,0.0,0,0,0,1,5,,17
0.499922435,0,1735643777088230371,map,0.9893261918566189,-0.2237741469641083,0.0170579769128632,-0.4829266758606479,0.5120337459101391,-0.5108696535018464,0.4935741746914231,0.0,0.0,0.0,1,0.0,0,1735643777088253974,map,0.976306512887031,-0.249204616531843,0.1474593158901067,-0.5163081290010799,0.4912949726409873,-0.4764806325459572,0.5148022655289123,0.0,0.0,0.0,16,0.0,0,1735643777088270664,map,0.9861284588904368,0.0551885641352616,0.0237932914319443,-0.4901814319976876,0.4970333433570242,-0.4974442372255843,0.5150041263592866,0.0,0.0,0.0,17,0.0,0,1735643777088284730,map,1.005861284869061,-0.2583805935275545,0.2354758192674395,-0.4839519551939968,0.4872703689909022,-0.4982985171177285,0.5292038174518878,0.0,0.0,0.0,121,0.0,0,1735643777088297367,map,1.0126523485403238,0.207581423571341,0.2412283774800201,-0.5100279343533924,0.4939879030850701,-0.4905050901631712,0.5052249145765152,0.0,0.0,0.0,122,0.0,0,1735643777088310956,map,1.0059604423218949,0.207586088933118,0.1427299926680733,-0.4971472377475715,0.5081086234797592,-0.4724002804178563,0.5210645121351049,0.0,0.0,0.0,124,0.0,0,1735643777088322877,map,0.9973322891498126,-0.0282618187652587,0.2410581749147102,0.5093318843888658,-0.50261988509629,0.489673295248998,-0.4981710013345488,0.0,0.0,0.0,125,2.5328381096667582e-25,0,1735643777088343858,map,0.9956660439636862,-0.0224999546623312,0.1443560689617481,0.5038929395018844,-0.5016197057297072,0.4972136210060674,-0.4972405770146149,0.0,0.0,0.0,126,0.0003285105340182,0,1735644242188269615,map,0.9778348897131944,0.3323108367038895,0.0236866888449329,-0.5048316125816678,0.5008597989971155,-0.4885623364586405,0.5055604297023609,0.0,0.0,0.0,0,0.0,0.946056293385913,-0.0537479643611301,0.0249917544984243,1.0,6.675778327718543e-06,-3.790641566623196e-05,-9.207352209623342e-05,0.0,0.0,0.0,-3.790641566623196e-05,0.0002556960473606,0.0005142464295018,0.0,0.0,0.0,-9.207352209623342e-05,0.0005142464295018,0.0012717079656732,0.0,0.0,0.0,0.0,0.0,0.0,0.0,0.0,0.0,0.0,0.0,0.0,0.0,0.0,0.0,0.0,0.0,0.0,0.0,0.0,0.0,0,0,0,1,6,,17
0.598927175,0,1735643777088230371,map,0.976665714102811,-0.2221156794195011,0.0206133534753589,-0.5009557902199007,0.5025277078125182,-0.4934885885045025,0.5029693948359931,0.0,0.0,0.0,1,0.0,0,1735643777088253974,map,0.9669626443739864,-0.247986521953321,0.148552693186403,-0.5122458172281888,0.4704181062357268,-0.475274552847546,0.5389110571081117,0.0,0.0,0.0,16,0.0,0,1735643777088270664,map,0.9777723556071152,0.053236262207017,0.0257108054820924,-0.4878067777324501,0.5040664579387562,-0.5042124412246691,0.5037175475339528,0.0,0.0,0.0,17,1.7952287909541288e-20,0,1735643777088284730,map,1.0104644734122714,-0.2603828018486491,0.2351025076136212,-0.4832835990475552,0.4845513366167793,-0.5105590013250232,0.5205540041537754,0.0,0.0,0.0,121,0.0,0,1735643777088297367,map,1.0159588859233832,0.2091832681197805,0.240637610703375,-0.5169051283720402,0.480038796664247,-0.496380780810985,0.5059426473438492,0.0,0.0,0.0,122,0.0,0,1735643777088310956,map,1.002899163245787,0.2061341120712148,0.142431456171676,-0.4919053673885379,0.5074061571161893,-0.477558555491916,0.5220210027684736,0.0,0.0,0.0,124,0.0,0,1735643777088322877,map,0.9995185168270576,-0.0285713544579746,0.2405856369953879,-0.5749358337813256,0.4270814798544452,-0.4120569696564209,0.5632577122038149,0.0,0.0,0.0,125,9.273620982241937e-09,0,1735643777088343858,map,0.9941002475718844,-0.0227518446044691,0.1434247683343625,-0.4791779496129386,0.471304060452865,-0.5205484847746616,0.5265835643126222,0.0,0.0,0.0,126,0.0097524281591176,0,1735644242188269615,map,0.9778348897131944,0.3323108367038895,0.0236866888449329,-0.5048316125816678,0.5008597989971155,-0.4885623364586405,0.5055604297023609,0.0,0.0,0.0,0,0.0,0.9467094649685024,-0.0532756208457907,0.015097824568062,1.0,8.281894407286856e-06,-3.064008525955835e-05,-0.0001176947650206,0.0,0.0,0.0,-3.064008525955835e-05,0.0002205066909737,0.0004127426519957,0.0,0.0,0.0,-0.0001176947650206,0.0004127426519957,0.00167737449595,0.0,0.0,0.0,0.0,0.0,0.0,0.0,0.0,0.0,0.0,0.0,0.0,0.0,0.0,0.0,0.0,0.0,0.0,0.0,0.0,0.0,0,0,0,1,7,,17
0.69926846,0,1735643777088230371,map,0.9817778729420372,-0.2239002474640886,0.017911824087914,-0.4903988190289567,0.5190508929068789,-0.5032295885784458,0.4866776654488517,0.0,0.0,0.0,1,2.2377321163818357e-39,0,1735643777088253974,map,0.980248629253298,-0.2522212073138941,0.1464828926394347,-0.5057994142688088,0.4917119586555707,-0.4894599251061592,0.5126551315997003,0.0,0.0,0.0,16,0.0,0,1735643777088270664,map,0.9819341572936492,0.0536580321712795,0.0234487808524001,-0.4973979180614198,0.4897599923452315,-0.4923184194791881,0.519954839238639,0.0,0.0,0.0,17,1.8028186568922432e-14,0,1735643777088284730,map,1.0107615890618613,-0.2620424397054598,0.2359001422295227,0.3217554258580776,-0.6082328956348513,0.634178853331081,-0.3526235564822727,0.0,0.0,0.0,121,0.0,0,1735643777088297367,map,1.0066053615793702,0.2057602499724732,0.2411021877587343,0.5299358886421373,-0.4957875507682353,0.4805922569098664,-0.492334988631302,0.0,0.0,0.0,122,0.0,0,1735643777088310956,map,0.9956313787097946,0.2038826689439303,0.1433805456268377,-0.4769497908081677,0.5001513488425293,-0.4935260969733009,0.5280146938346925,0.0,0.0,0.0,124,0.0,0,1735643777088322877,map,0.9913573946985236,-0.0294776913173082,0.241350792487657,0.5608434730541032,-0.5159768103903262,0.4415333117278154,-0.4735724490579081,0.0,0.0,0.0,125,1.3111050975567196e-05,0,1735643777088343858,map,0.9897582070811868,-0.0238580026467372,0.1442138603665259,0.6461480182802555,-0.4994611099218334,0.3627426958635695,-0.4488307863168246,0.0,0.0,0.0,126,0.0136260380968451,0,1735644242188269615,map,0.9778348897131944,0.3323108367038895,0.0236866888449329,-0.5048316125816678,0.5008597989971155,-0.4885623364586405,0.5055604297023609,0.0,0.0,0.0,0,0.0,0.947485169972077,-0.0522494302176307,0.0032493137766427,1.0,1.1458685374369772e-05,-2.1237926167918776e-05,-0.0001673195631337,0.0,0.0,0.0,-2.1237926167918776e-05,0.0002003148250392,0.0002760380053736,0.0,0.0,0.0,-0.0001673195631337,0.0002760380053736,0.0024504131397769,0.0,0.0,0.0,0.0,0.0,0.0,0.0,0.0,0.0,0.0,0.0,0.0,0.0,0.0,0.0,0.0,0.0,0.0,0.0,0.0,0.0,0,0,0,1,8,,17
0.800255114,0,1735643777088230371,map,0.9845669101336796,-0.2250484122227432,0.0168296020783285,-0.4915714157577879,0.5188869838751073,-0.5018651324544928,0.4870782586005177,0.0,0.0,0.0,1,2.3884218677817767e-38,0,1735643777088253974,map,0.9786494968662932,-0.2520769614199167,0.1461141494482124,-0.5045619723212351,0.4774683054549474,-0.4914425712304643,0.5252860483162265,0.0,0.0,0.0,16,0.0,0,1735643777088270664,map,0.9774418628691108,0.0523354935162721,0.024852122489641,-0.4871276441105635,0.5020588967871603,-0.5042354780126093,0.5063497854384336,0.0,0.0,0.0,17,9.627165059068744e-14,0,1735643777088284730,map,1.015494249752947,-0.26435994071641,0.2361495062380076,0.3098011758405909,-0.5929881765235443,0.6533773488829784,-0.3542404464734654,0.0,0.0,0.0,121,0.0,0,1735643777088297367,map,1.0172268524229091,0.2111170479038887,0.2421752452244086,-0.5131920537138791,0.4679105146253182,-0.4904231702867958,0.526477711165297,0.0,0.0,0.0,122,0.0,0,1735643777088310956,map,0.9998781091646708,0.205660426406776,0.1429098522957647,-0.4894832286587679,0.5039774105712684,-0.4798991590165569,0.5254614502233912,0.0,0.0,0.0,124,0.0,0,1735643777088322877,map,0.993837416064716,-0.029935620373908,0.241109453626443,0.5819023488676518,-0.5047262519512455,0.4220109435720034,-0.4780667636209664,0.0,0.0,0.0,125,5.608288483927026e-05,0,1735643777088343858,map,0.9906943746833063,-0.023933512873973,0.1436618834718307,-0.4835133141436016,0.4567099400355057,-0.5071931635404472,0.5480748129374943,0.0,0.0,0.0,126,0.0364541783928871,0,1735644242188269615,map,0.9778348897131944,0.3323108367038895,0.0236866888449329,-0.5048316125816678,0.5008597989971155,-0.4885623364586405,0.5055604297023609,0.0,0.0,0.0,0,0.0,0.9483738180892686,-0.0558541534057048,-0.009312220714511,1.0,1.6503061920054934e-05,-4.4504800386333816e-05,-0.0002380307723601,0.0,0.0,0.0,-4.4504800386333816e-05,0.0002820098563582,0.0006076139531521,0.0,0.0,0.0,-0.0002380307723601,0.0006076139531521,0.0034404822033146,0.0,0.0,0.0,0.0,0.0,0.0,0.0,0.0,0.0,0.0,0.0,0.0,0.0,0.0,0.0,0.0,0.0,0.0,0.0,0.0,0.0,0,0,0,1,9,,17
0.900118265,0,1735643777088230371,map,0.972862542084,-0.2235645085362842,0.0192429078429027,-0.4965194969345129,0.4965623666757465,-0.4952669550364179,0.5114732137797977,0.0,0.0,0.0,1,3.599728362677735e-39,0,1735643777088253974,map,0.969934791501169,-0.2508503746559508,0.1453625417587997,-0.5018283710338428,0.4744227633568129,-0.4894020364590533,0.5325194591225159,0.0,0.0,0.0,16,0.0,0,1735643777088270664,map,0.9757288859187052,0.0509286297070971,0.0236866030882761,-0.4889834430020449,0.4832506137722991,-0.4926381689143224,0.5335463159720115,0.0,0.0,0.0,17,9.995979467335853e-14,0,1735643777088284730,map,1.0084690158634926,-0.2645517864419972,0.2353095769639471,-0.4764661744394418,0.508639663521113,-0.5064852647866734,0.5076793809700624,0.0,0.0,0.0,121,0.0,0,1735643777088297367,map,1.005313918273594,0.2052178760925316,0.2403953122155869,-0.493738028043737,0.486346567232728,-0.5068240146758707,0.5126589454522921,0.0,0.0,0.0,122,0.0,0,1735643777088310956,map,0.9971197130312396,0.2044162586424618,0.1420404043144611,-0.4956970293188937,0.5097455683590026,-0.4767372705347683,0.5168805331465292,0.0,0.0,0.0,124,0.0,0,1735643777088322877,map,0.985089539345276,-0.0316914853054686,0.2397060313853787,-0.5238194942475684,0.5313373418620821,-0.4726779176218512,0.4689022848972149,0.0,0.0,0.0,125,6.78757787682116e-05,0,1735643777088343858,map,0.9874005649887094,-0.0254628901591998,0.1432051869321244,-0.4983195753179587,0.494773573934212,-0.5023094968753125,0.5045412577185007,0.0,0.0,0.0,126,0.0296780038625001,0,1735644242188269615,map,0.9778348897131944,0.3323108367038895,0.0236866888449329,-0.5048316125816678,0.5008597989971155,-0.4885623364586405,0.5055604297023609,0.0,0.0,0.0,0,0.0,0.9488657732570458,-0.0558789578480158,-0.0166835459207584,1.0,1.7030934711973933e-05,-4.016414440990931e-05,-0.0002468649488813,0.0,0.0,0.0,-4.016414440990931e-05,0.0002538144080656,0.0005484981323344,0.0,0.0,0.0,-0.0002468649488813,0.0005484981323344,0.0035854619006494,0.0,0.0,0.0,0.0,0.0,0.0,0.0,0.0,0.0,0.0,0.0,0.0,0.0,0.0,0.0,0.0,0.0,0.0,0.0,0.0,0.0,0,0,0,1,10,,17
0.998387878,0,1735643777088230371,map,0.9700124834267796,-0.2237749767860231,0.0208716565107231,-0.4941346176007519,0.5040370701629366,-0.49261622727593,0.5090254062564561,0.0,0.0,0.0,1,4.0372274434915946e-21,0,1735643777088253974,map,0.9715659600500182,-0.2527655424008491,0.1475767788728222,-0.4990765584603591,0.4798523311898109,-0.4936265625739228,0.5263051831100662,0.0,0.0,0.0,16,5.4344988302895513e-33,0,1735643777088270664,map,0.971336641543384,0.051289143148047,0.0260016821602581,-0.495125731486021,0.4900072703997445,-0.4943883917998066,0.5199264400176477,0.0,0.0,0.0,17,2.2391088805306938e-07,0,1735643777088284730,map,1.0106707338644638,-0.2672069845321933,0.2394806971292241,0.464446173620777,-0.5128572007623335,0.520883899769828,-0.4999472036083591,0.0,0.0,0.0,121,4.758809584847079e-42,0,1735643777088297367,map,1.0014826618754364,0.2066348319349371,0.2441090669344323,-0.5124657117887387,0.4889464972678838,-0.4902092505716811,0.5079420318346171,0.0,0.0,0.0,122,1.2918570542610489e-41,0,1735643777088310956,map,0.992715143283502,0.2054975390016067,0.1451191493288834,-0.490754754217584,0.5036458774680913,-0.4792268308146248,0.5252068601509366,0.0,0.0,0.0,124,2.0300610852673622e-41,0,1735643777088322877,map,0.9817085655911766,-0.0312942836383159,0.2432338812387506,0.5820450141784674,-0.5115657131403268,0.4223440009827883,-0.4702655286570205,0.0,0.0,0.0,125,6.582544301636517e-05,0,1735643777088343858,map,0.9807454990196196,-0.0253722295275945,0.1465581341827254,0.6254575737918715,-0.5125471844210993,0.3834464614500308,-0.4461692709385518,0.0,0.0,0.0,126,0.0167816914618015,0,1735644242188269615,map,0.9778348897131944,0.3323108367038895,0.0236866888449329,-0.5048316125816678,0.5008597989971155,-0.4885623364586405,0.5055604297023609,0.0,0.0,0.0,0,0.0,0.9491879525418208,-0.0523630110079549,-0.0222588563144577,1.0,1.65206628353586e-05,-2.5185206172080022e-05,-0.0002423851759516,0.0,0.0,0.0,-2.5185206172080022e-05,0.0003543591927901,0.0003026097161477,0.0,0.0,0.0,-0.0002423851759516,0.0003026097161477,0.0035703516786331,0.0,0.0,0.0,0.0,0.0,0.0,0.0,0.0,0.0,0.0,0.0,0.0,0.0,0.0,0.0,0.0,0.0,0.0,0.0,0.0,0.0,0,0,0,1,11,,17
1.100237943,0,1735643777088230371,map,0.9737633286311728,-0.2252505493615565,0.0201200520833421,-0.4966729905773016,0.5023482481576452,-0.4922467666770314,0.5085816539160182,0.0,0.0,0.0,1,2.017912746621331e-11,0,1735643777088253974,map,0.9715176399763668,-0.2531749007841598,0.1483819940721425,-0.5050499200358173,0.48084192177122,-0.4878844996211518,0.5250565108334457,0.0,0.0,0.0,16,1.606871793522651e-17,0,1735643777088270664,map,0.9715831250273924,0.0517351421168992,0.0264045747909461,-0.4946373138420329,0.4934402091124269,-0.4954093846169112,0.516159112502836,0.0,0.0,0.0,17,0.0007433592691086,0,1735643777088284730,map,0.997665232385332,-0.2638060971464143,0.2396006090111403,-0.4915858657887498,0.4896140454317043,-0.4950116233228235,0.5230534541019959,0.0,0.0,0.0,121,3.4101462336875042e-22,0,1735643777088297367,map,0.9960500658366406,0.2050416985528725,0.245087721011164,-0.5090653156586572,0.4853114607795268,-0.4977156905308175,0.5075474183057425,0.0,0.0,0.0,122,8.864828366725646e-24,0,1735643777088310956,map,0.9866320137265236,0.2033350154060013,0.1465630813710396,-0.4867089401616172,0.5030248496288242,-0.4823311793022695,0.5267229268747807,0.0,0.0,0.0,124,1.8009105281762808e-21,0,1735643777088322877,map,0.9893528999296476,-0.0301700401557869,0.2453438290248776,-0.4697070886072694,0.4739764793844259,-0.5189425232330666,0.5342473261354943,0.0,0.0,0.0,125,2.367058186791837e-05,0,1735643777088343858,map,0.9807680465268552,-0.024845987798847,0.147262973768511,-0.4969210584969529,0.4549881331488497,-0.4952647146652895,0.5484233061454458,0.0,0.0,0.0,126,0.0119535271078348,0,1735644242188269615,map,0.9778348897131944,0.3323108367038895,0.0236866888449329,-0.5048316125816678,0.5008597989971155,-0.4885623364586405,0.5055604297023609,0.0,0.0,0.0,0,0.0,0.9492457271055392,-0.046696672042416,-0.0243248712080015,1.0,1.5180657834753218e-05,-1.948536611332265e-05,-0.0002234994054891,0.0,0.0,0.0,-1.948536611332265e-05,0.0006780106300538,0.0001486180921606,0.0,0.0,0.0,-0.0002234994054891,0.0001486180921606,0.0033197749650241,0.0,0.0,0.0,0.0,0.0,0.0,0.0,0.0,0.0,0.0,0.0,0.0,0.0,0.0,0.0,0.0,0.0,0.0,0.0,0.0,0.0,0,0,0,1,12,,17
1.199900456,0,1735643777088230371,map,0.9659825859185608,-0.2231865388875243,0.0217782770600584,-0.5031083384852022,0.4938000210705764,-0.4838050456931894,0.5186291706982645,0.0,0.0,0.0,1,1.94957283383701e-06,0,1735643777088253974,map,0.9663651481811046,-0.2516082962865052,0.1481693595994557,-0.5136061620051697,0.4832919995529172,-0.4746518758273356,0.5266337914453033,0.0,0.0,0.0,16,1.0689960028287258e-10,0,1735643777088270664,map,0.9685067815577252,0.0518389989024742,0.0262872250645636,-0.4898053329680916,0.5002899435675318,-0.5015092460162816,0.5082215897828377,0.0,0.0,0.0,17,0.041706308722496,0,1735643777088284730,map,0.9934092546848976,-0.2630212967034396,0.2392603315591538,-0.4961757023429288,0.4915228655897385,-0.4871147632992936,0.5243416370867637,0.0,0.0,0.0,121,1.1547810234088796e-14,0,1735643777088297367,map,0.988876434599986,0.2026762325898322,0.2441529273787143,-0.5086178632707344,0.4916250394049112,-0.492352420672383,0.5071506518285053,0.0,0.0,0.0,122,1.0788327967515417e-13,0,1735643777088310956,map,0.9826701441245445,0.2027815109899764,0.1465240235879373,-0.4916347409831322,0.5040610446927386,-0.4789455556104666,0.5242412607213365,0.0,0.0,0.0,124,3.556075572896944e-11,0,1735643777088322877,map,0.9829771771889037,-0.030304489273441,0.2447200415385112,-0.5299019992465974,0.4924865338820615,-0.4659006602114741,0.5095070754698173,0.0,0.0,0.0,125,1.030772091326071e-05,0,1735643777088343858,map,0.9779139311755572,-0.0249130276472338,0.1471662712259147,0.5035751368974581,-0.5011972618195388,0.497536873396904,-0.4976649935988431,0.0,0.0,0.0,126,0.0098168980330228,0,1735644242188269615,map,0.9778348897131944,0.3323108367038895,0.0236866888449329,-0.5048316125816678,0.5008597989971155,-0.4885623364586405,0.5055604297023609,0.0,0.0,0.0,0,2.316200883328084e-22,0.9491025062729926,-0.0387780505720328,-0.0238539489401314,1.0,1.425906140689109e-05,-3.1595830512212914e-05,-0.0002071164940797,0.0,0.0,0.0,-3.1595830512212914e-05,0.0013783107580981,0.0001819345934,0.0,0.0,0.0,-0.0002071164940797,0.0001819345934,0.0030670688734108,0.0,0.0,0.0,0.0,0.0,0.0,0.0,0.0,0.0,0.0,0.0,0.0,0.0,0.0,0.0,0.0,0.0,0.0,0.0,0.0,0.0,0,0,0,1,13,,17
1.300071551,0,1735643777088230371,map,0.9672484501089232,-0.2238859820948269,0.0214330556176436,-0.4984319223184374,0.5137619981929331,-0.4845014500321416,0.5028643683375315,0.0,0.0,0.0,1,0.0001232134090969,0,1735643777088253974,map,0.963541680020221,-0.2507451939447365,0.1486047772217441,-0.5150755120957486,0.4861102746072664,-0.4757698216757826,0.5215717539736455,0.0,0.0,0.0,16,1.4683235960433194e-08,0,1735643777088270664,map,0.9659099897159296,0.0519114629259025,0.0275098584939597,-0.4989957885498468,0.4893147486620213,-0.4907787792631921,0.5202984427963157,0.0,0.0,0.0,17,0.2084050774574279,0,1735643777088284730,map,0.9912916759385728,-0.2633005006773899,0.2402255690502298,-0.4953687140668864,0.4835568775867798,-0.4973716548182811,0.5228805028355606,0.0,0.0,0.0,121,1.0734076388158045e-12,0,1735643777088297367,map,0.9882432281866718,0.2033673971025827,0.2456660960478104,-0.5174403560480793,0.4828871116320805,-0.4850697731251173,0.5135979269358587,0.0,0.0,0.0,122,2.399067611236205e-09,0,1735643777088310956,map,0.979522647490748,0.2021631804984102,0.1474801691887189,-0.4847211474662206,0.4995456980745043,-0.4804327829189219,0.5335577249286783,0.0,0.0,0.0,124,9.457350529373798e-07,0,1735643777088322877,map,0.9813454539417366,-0.0305386304957857,0.2460178070798073,-0.5116177488301099,0.487541723509102,-0.4869369793669487,0.5132667192062791,0.0,0.0,0.0,125,4.318506853451254e-06,0,1735643777088343858,map,0.976256979189852,-0.0248521713338533,0.1481542217532956,-0.5624825471233217,0.4411450412280743,-0.4305537766699895,0.5510243934498276,0.0,0.0,0.0,126,0.0075278216972947,0,1735644242188269615,map,0.9778348897131944,0.3323108367038895,0.0236866888449329,-0.5048316125816678,0.5008597989971155,-0.4885623364586405,0.5055604297023609,0.0,0.0,0.0,0,1.187899605070708e-12,0.948820702368284,-0.0295521947597823,-0.0215818327936882,1.0,1.4272931749903342e-05,-6.313745397387127e-05,-0.0002006462444145,0.0,0.0,0.0,-6.313745397387127e-05,0.0023863733907521,0.0004414480727251,0.0,0.0,0.0,-0.0002006462444145,0.0004414480727251,0.0029151051784881,0.0,0.0,0.0,0.0,0.0,0.0,0.0,0.0,0.0,0.0,0.0,0.0,0.0,0.0,0.0,0.0,0.0,0.0,0.0,0.0,0.0,0,0,0,1,14,,17
1.398850174,0,1735643777088230371,map,0.9588636663020004,-0.2235244920823846,0.0243322413128793,-0.4994919789763905,0.5016957398252186,-0.4852549912060819,0.5131634642967685,0.0,0.0,0.0,1,0.000774085172452,0,1735643777088253974,map,0.9620350799121852,-0.2529365645209481,0.1500277962149095,-0.5094130413796574,0.4885216431127146,-0.4872920792713048,0.5141900300105292,0.0,0.0,0.0,16,4.2053006410469607e-08,0,1735643777088270664,map,0.9631908398948288,0.0508940193662318,0.0284480161282142,-0.5020083288415834,0.4910992930473876,-0.4894335563102541,0.5169757403394613,0.0,0.0,0.0,17,0.4832322299480438,0,1735643777088284730,map,0.9851797735854996,-0.2641440427165582,0.2414725266917599,-0.4901179337832654,0.4821074000856468,-0.4990521287634383,0.5275451056955802,0.0,0.0,0.0,121,1.4284583715537537e-12,0,1735643777088297367,map,0.9800945253310184,0.199666110621859,0.2464247183749403,-0.5193960613657685,0.4910214109304319,-0.486278845626812,0.5026515589764641,0.0,0.0,0.0,122,1.4964947467888123e-06,0,1735643777088310956,map,0.9751631288754968,0.2006253587846139,0.1489488618325395,-0.4887321885750698,0.4990180917495767,-0.4793098354593195,0.5313980368699093,0.0,0.0,0.0,124,0.0003214909229427,0,1735643777088322877,map,0.9727534528003594,-0.0312080300000329,0.2456811976565516,0.5282170566738176,-0.5061291561215456,0.4736955366823777,-0.4903392263420657,0.0,0.0,0.0,125,2.385311290709069e-06,0,1735643777088343858,map,0.9689836677591654,-0.0253605305606649,0.1492673973296325,-0.4998846911820451,0.5096565117651666,-0.5021669142254676,0.4880511507971948,0.0,0.0,0.0,126,0.0058202566578984,0,1735644242188269615,map,0.9778348897131944,0.3323108367038895,0.0236866888449329,-0.5048316125816678,0.5008597989971155,-0.4885623364586405,0.5055604297023609,0.0,0.0,0.0,0,8.009965313249269e-08,0.9483688225315406,-0.0185722223993226,-0.0171309231742309,1.0,1.618013838254712e-05,-0.0001283910840232,-0.000215427696491,0.0,0.0,0.0,-0.0001283910840232,0.0039151189338791,0.0010962103056177,0.0,0.0,0.0,-0.000215427696491,0.0010962103056177,0.0029981131834236,0.0,0.0,0.0,0.0,0.0,0.0,0.0,0.0,0.0,0.0,0.0,0.0,0.0,0.0,0.0,0.0,0.0,0.0,0.0,0.0,0.0,0,0,0,1,15,,17
1.499266731,0,1735643777088230371,map,0.959675825121391,-0.2231597614115378,0.0249532025379751,-0.4969123055595472,0.495826523151557,-0.4910854799901816,0.5158190291815016,0.0,0.0,0.0,1,0.0007079552742652,0,1735643777088253974,map,0.9590386819914392,-0.251164309172279,0.1509995497713869,-0.5114758306093266,0.4878498636319547,-0.4785367985650987,0.5209582686510018,0.0,0.0,0.0,16,1.5985806456342292e-08,0,1735643777088270664,map,0.9625905936890428,0.051508358994534,0.0294172642217834,-0.4949017798930385,0.4939794703670849,-0.4946417570223659,0.5161259955905964,0.0,0.0,0.0,17,0.6399449706077576,0,1735643777088284730,map,0.981616749620784,-0.2627104668703782,0.2419599628720171,-0.499618379076009,0.4860669623307117,-0.4866801630604632,0.526557501421732,0.0,0.0,0.0,121,2.435701651221784e-13,0,1735643777088297367,map,0.9817544440625012,0.2014844554917604,0.2480156622871644,-0.5121138267482729,0.4791826148329364,-0.4948483148946143,0.5130775724401438,0.0,0.0,0.0,122,2.5533505322528072e-05,0,1735643777088310956,map,0.9746105656305324,0.2011208856803214,0.1499328295212412,-0.4919023923624235,0.4982763445930436,-0.4773661155707759,0.5309183670885643,0.0,0.0,0.0,124,0.0028466880321502,0,1735643777088322877,map,0.9767781385077854,-0.0318393214629,0.2484715273686164,-0.4869833160476684,0.4877674408312958,-0.508836215832622,0.5157672721424297,0.0,0.0,0.0,125,1.7185144542963826e-06,0,1735643777088343858,map,0.9663330280555352,-0.0263479118267587,0.1505588105907532,0.4676887341351339,-0.5198236346631038,0.5352865336387912,-0.4738343209537309,0.0,0.0,0.0,126,0.0053832489065825,0,1735644242188269615,map,0.9778348897131944,0.3323108367038895,0.0236866888449329,-0.5048316125816678,0.5008597989971155,-0.4885623364586405,0.5055604297023609,0.0,0.0,0.0,0,8.869286034496326e-07,0.9478605109939492,-0.0100192595082913,-0.0113199890452373,1.0,1.9044589022367904e-05,-0.0001855801870433,-0.0002462699383896,0.0,0.0,0.0,-0.0001855801870433,0.004767721613742,0.0017732077210292,0.0,0.0,0.0,-0.0002462699383896,0.0017732077210292,0.0033172354412322,0.0,0.0,0.0,0.0,0.0,0.0,0.0,0.0,0.0,0.0,0.0,0.0,0.0,0.0,0.0,0.0,0.0,0.0,0.0,0.0,0.0,0,0,0,1,16,,17
1.599972706,0,1735643777088230371,map,0.9641795488737536,-0.2247045744694601,0.0236407694314223,-0.4950752701253992,0.5024784110521683,-0.4988081971711887,0.503593393296199,0.0,0.0,0.0,1,0.0004941510851494,0,1735643777088253974,map,0.9623617366059916,-0.2523055769367023,0.1510129677463569,-0.5071903031022155,0.4847564463583804,-0.4866558924209394,0.5205143864727056,0.0,0.0,0.0,16,4.921324681106398e-09,0,1735643777088270664,map,0.9597590876215334,0.0505167908623443,0.0307839867786502,-0.4778231411828849,0.4981068196561594,-0.5092932975599972,0.5139990068303748,0.0,0.0,0.0,17,0.7139958739280701,0,1735643777088284730,map,0.9825988232342208,-0.2634241877551222,0.2421706713173499,-0.4986150830590152,0.4722624936052927,-0.4922410879701003,0.5348362809250834,0.0,0.0,0.0,121,3.538950748660334e-14,0,1735643777088297367,map,0.979825624695257,0.1996420828137545,0.247677448351155,-0.5049331765733628,0.4814077007792785,-0.4999246912633999,0.5131904284874542,0.0,0.0,0.0,122,5.927357051405125e-05,0,1735643777088310956,map,0.9751065842613836,0.2007311984615965,0.1500946485904164,-0.491129354585464,0.5004401799477916,-0.4768381959500818,0.530072559411784,0.0,0.0,0.0,124,0.0058242417871952,0,1735643777088322877,map,0.9703780318618468,-0.0326236843618409,0.2473642964756524,-0.4820353771775718,0.5129370450590847,-0.5119863347007706,0.4923489372741667,0.0,0.0,0.0,125,1.0238409231533296e-06,0,1735643777088343858,map,0.9674975169524528,-0.0268811899082403,0.1509596722656754,-0.594843589286074,0.4722604318909532,-0.4075368336581637,0.506995974310753,0.0,0.0,0.0,126,0.0042485892772674,0,1735644242188269615,map,0.9778348897131944,0.3323108367038895,0.0236866888449329,-0.5048316125816678,0.5008597989971155,-0.4885623364586405,0.5055604297023609,0.0,0.0,0.0,0,1.5468312994926237e-06,0.9475152482168534,-0.0040090478032637,-0.0074155045104518,1.0,1.983162124384153e-05,-0.0002078653435999,-0.0002533526422032,0.0,0.0,0.0,-0.0002078653435999,0.005065229716997,0.0020443698429472,0.0,0.0,0.0,-0.0002533526422032,0.0020443698429472,0.0033660239364072,0.0,0.0,0.0,0.0,0.0,0.0,0.0,0.0,0.0,0.0,0.0,0.0,0.0,0.0,0.0,0.0,0.0,0.0,0.0,0.0,0.0,0,0,0,1,17,,17
1.699991402,0,1735643777088230371,map,0.9635389976019444,-0.2269403379384477,0.0222141113715383,-0.49783417768398,0.5104937217312537,-0.4909509629062108,0.500524168871148,0.0,0.0,0.0,1,0.000503585091792,0,1735643777088253974,map,0.9565446348986044,-0.2519440109021952,0.150518494702029,-0.5112747545069046,0.4803264226387715,-0.4833765549109427,0.5236714230138716,0.0,0.0,0.0,16,5.160915694801815e-09,0,1735643777088270664,map,0.96303028970643,0.0514476030093028,0.0282970442912802,-0.4963929762698192,0.4938827365792224,-0.48893867656271,0.5202046003065667,0.0,0.0,0.0,17,0.7581982612609863,0,1735643777088284730,map,0.981938366494804,-0.2637567942065383,0.2410296235115919,-0.4983221300851275,0.4731237930666034,-0.4961162444509918,0.5307519223644274,0.0,0.0,0.0,121,3.1376190843613114e-14,0,1735643777088297367,map,0.9782780786630326,0.1991380744033624,0.2464375464112006,-0.5107089046049789,0.4834570349808366,-0.4908512404879284,0.514306105151575,0.0,0.0,0.0,122,4.699849887401797e-05,0,1735643777088310956,map,0.9733672981139389,0.2001645820049968,0.1489522157443923,-0.4881838544211427,0.4991410623368128,-0.4800480099677111,0.5311201674742119,0.0,0.0,0.0,124,0.0071431607939302,0,1735643777088322877,map,0.9738723547865816,-0.0324824857694274,0.2468865482917192,-0.4769879904132207,0.515785955724625,-0.5148659981601083,0.4912843461961593,0.0,0.0,0.0,125,5.516805003935588e-07,0,1735643777088343858,map,0.9673412522446982,-0.0270227529777,0.1495849386422622,-0.5352424593204628,0.4368631953599304,-0.4589690519745705,0.5585816570655163,0.0,0.0,0.0,126,0.0033907815814018,0,1735644242188269615,map,0.9778348897131944,0.3323108367038895,0.0236866888449329,-0.5048316125816678,0.5008597989971155,-0.4885623364586405,0.5055604297023609,0.0,0.0,0.0,0,5.223083462624345e-06,0.9473819888432278,0.0016220631165404,-0.0066096196736444,1.0,1.903175153927706e-05,-0.0002090740402933,-0.0002411031544598,0.0,0.0,0.0,-0.0002090740402933,0.005322888039302,0.0020079401979403,0.0,0.0,0.0,-0.0002411031544598,0.0020079401979403,0.0031900632629001,0.0,0.0,0.0,0.0,0.0,0.0,0.0,0.0,0.0,0.0,0.0,0.0,0.0,0.0,0.0,0.0,0.0,0.0,0.0,0.0,0.0,0,0,0,1,18,,17
1.800280769,0,1735643777088230371,map,0.9575426782130844,-0.2250613717600709,0.0230549475468975,-0.495563138170782,0.4992839304300739,-0.4945010919804261,0.5104913348243919,0.0,0.0,0.0,1,0.0004441439232323,0,1735643777088253974,map,0.9580431539594468,-0.2536438491281246,0.1493408659304339,-0.5026955396732297,0.4832309945249872,-0.4927575515585383,0.5205525868777008,0.0,0.0,0.0,16,3.362572664755703e-09,0,1735643777088270664,map,0.9588513638847138,0.0495628072837887,0.0280499531987319,-0.4910647635350612,0.5037482527361609,-0.4936038578138075,0.511320180934457,0.0,0.0,0.0,17,0.7749660611152649,0,1735643777088284730,map,0.9787225504762572,-0.2664225203537166,0.2409480967064164,-0.4985130233103695,0.4852618615473126,-0.4899281151392397,0.5253343062409911,0.0,0.0,0.0,121,1.1477908840116634e-14,0,1735643777088297367,map,0.9738281262938784,0.1969842677362059,0.2460396013383436,-0.5049349628293773,0.4847324365012015,-0.4980691667748962,0.5118615568923537,0.0,0.0,0.0,122,2.8422713512554765e-05,0,1735643777088310956,map,0.96884056221833,0.1977658929373645,0.1486580115881858,-0.4949013810403398,0.5020481008320871,-0.4761261296193993,0.5256655174052315,0.0,0.0,0.0,124,0.0066221565939486,0,1735643777088322877,map,0.967033024531997,-0.0347600535881216,0.2461879770954289,-0.5085025776820331,0.5189668440282952,-0.4865972421051295,0.4850996467384,0.0,0.0,0.0,125,2.6215911930194125e-07,0,1735643777088343858,map,0.962591653614951,-0.0285972549394605,0.1491205567147625,0.4618829851886131,-0.5058300166878332,0.5431222964769058,-0.4856112367732996,0.0,0.0,0.0,126,0.0024164989590644,0,1735644242188269615,map,0.9778348897131944,0.3323108367038895,0.0236866888449329,-0.5048316125816678,0.5008597989971155,-0.4885623364586405,0.5055604297023609,0.0,0.0,0.0,0,7.139482477214187e-06,0.9473440530705124,0.0051072641113861,-0.0067787078749133,1.0,1.8055984616958373e-05,-0.0002004499917063,-0.0002282980539031,0.0,0.0,0.0,-0.0002004499917063,0.005261375304774,0.0018916516202798,0.0,0.0,0.0,-0.0002282980539031,0.0018916516202798,0.0030226798311882,0.0,0.0,0.0,0.0,0.0,0.0,0.0,0.0,0.0,0.0,0.0,0.0,0.0,0.0,0.0,0.0,0.0,0.0,0.0,0.0,0.0,0,0,0,1,19,,17
1.899953613,0,1735643777088230371,map,0.954829515726504,-0.2254996815383605,0.023262377773304,-0.5016451843014517,0.4952533483750616,-0.4862267569958008,0.5163911025296616,0.0,0.0,0.0,1,0.000336020370014,0,1735643777088253974,map,0.9545309382937104,-0.253380392880826,0.149257396821698,-0.5075570609734641,0.4809141882252497,-0.4874763782446144,0.522947563406832,0.0,0.0,0.0,16,2.2162720547669323e-09,0,1735643777088270664,map,0.9577323885257486,0.0486078113206717,0.0278317251635355,-0.4879299100858347,0.5019564502501491,-0.5024448605793989,0.5074576701294878,0.0,0.0,0.0,17,0.7757479548454285,0,1735643777088284730,map,0.9755439408856128,-0.2671242693087065,0.2405303819962131,-0.4958577336403515,0.4885492155496213,-0.491360052008342,0.5234597131253407,0.0,0.0,0.0,121,5.6311660893884185e-15,0,1735643777088297367,map,0.973277637430686,0.1963817718343221,0.2462617798197424,-0.5091124674720328,0.4839287314109893,-0.4925479976550663,0.5138228764715274,0.0,0.0,0.0,122,1.5744419215479866e-05,0,1735643777088310956,map,0.9667914939685356,0.1964403824212038,0.1485637995939132,-0.4897655813602933,0.5034909411069645,-0.4806526735589835,0.5249757660489089,0.0,0.0,0.0,124,0.0054738456383347,0,1735643777088322877,map,0.9655381601973668,-0.0360784450460185,0.2460893208827402,-0.5292634248754472,0.4871038052252252,-0.4680292860806532,0.5133796815175413,0.0,0.0,0.0,125,1.3756655903307546e-07,0,1735643777088343858,map,0.96169471081342,-0.0297661002765007,0.148980630609638,-0.4828156052597626,0.5491510767857608,-0.5177892053855697,0.4440906720128999,0.0,0.0,0.0,126,0.0017798295011743,0,1735644242188269615,map,0.9778348897131944,0.3323108367038895,0.0236866888449329,-0.5048316125816678,0.5008597989971155,-0.4885623364586405,0.5055604297023609,0.0,0.0,0.0,0,7.795129022269975e-06,0.947356436694392,0.0076566996024171,-0.0075041784518536,1.0,1.7156099114777983e-05,-0.0001898276383667,-0.0002170538463484,0.0,0.0,0.0,-0.0001898276383667,0.005121799344671,0.0017619277709713,0.0,0.0,0.0,-0.0002170538463484,0.0017619277709713,0.0028815456832309,0.0,0.0,0.0,0.0,0.0,0.0,0.0,0.0,0.0,0.0,0.0,0.0,0.0,0.0,0.0,0.0,0.0,0.0,0.0,0.0,0.0,0,0,0,1,20,,17
1.999924769,0,1735643777088230371,map,0.9575206795950342,-0.2272697354827109,0.0222788344856849,-0.4988054804042429,0.5064723226899852,-0.4862651245977301,0.5081585457981179,0.0,0.0,0.0,1,0.0002184551703976,0,1735643777088253974,map,0.955636745392012,-0.2543269996588914,0.1493943789646193,-0.5034270125382272,0.4845001385044104,-0.4922989718237313,0.5190978531812086,0.0,0.0,0.0,16,7.87725662476646e-10,0,1735643777088270664,map,0.9576539796795984,0.0486537082690279,0.0278877855427797,-0.4931521133599602,0.4991359278731581,-0.4918538265959407,0.5155037651246951,0.0,0.0,0.0,17,0.7833454012870789,0,1735643777088284730,map,0.9747532120089292,-0.2674118292290939,0.2409893059255986,-0.4927933803675201,0.4923108872964482,-0.4939696304110521,0.5203639867889639,0.0,0.0,0.0,121,1.0556852201294125e-15,0,1735643777088297367,map,0.9732277205202636,0.1970690433061534,0.2467498534208869,-0.5091096727950288,0.4855052237436432,-0.4933424208220603,0.5115713778170182,0.0,0.0,0.0,122,1.0227487109659704e-05,0,1735643777088310956,map,0.964976108870466,0.1958189052683672,0.1489450214899435,-0.4885357403695095,0.5029683929365452,-0.4813846520251061,0.5259509890504165,0.0,0.0,0.0,124,0.0050027365796267,0,1735643777088322877,map,0.9625648905375576,-0.0363007699150537,0.2460245986604551,-0.5253963762120312,0.4970040667254564,-0.475843382490614,0.5005184121103983,0.0,0.0,0.0,125,5.9559955190024993e-08,0,1735643777088343858,map,0.9599901793587012,-0.0302411367159848,0.1494874528140711,-0.5669141179770724,0.4850739608629776,-0.4362765477166874,0.5029656143747695,0.0,0.0,0.0,126,0.0011942799901589,0,1735644242188269615,map,0.9778348897131944,0.3323108367038895,0.0236866888449329,-0.5048316125816678,0.5008597989971155,-0.4885623364586405,0.5055604297023609,0.0,0.0,0.0,0,6.747366569470614e-06,0.9472679058432556,0.0101658530419439,-0.0067079673022735,1.0,1.649589624613322e-05,-0.0001852309768085,-0.0002081277339183,0.0,0.0,0.0,-0.0001852309768085,0.0050038211574437,0.0017179827674353,0.0,0.0,0.0,-0.0002081277339183,0.0017179827674353,0.002757008266019,0.0,0.0,0.0,0.0,0.0,0.0,0.0,0.0,0.0,0.0,0.0,0.0,0.0,0.0,0.0,0.0,0.0,0.0,0.0,0.0,0.0,0,0,0,1,21,,17
2.10008859,0,1735643777088230371,map,0.9562322108203136,-0.2269573861984616,0.0230096306802164,-0.4984485125446327,0.5031461949847499,-0.4879589904314818,0.5101852707316247,0.0,0.0,0.0,1,0.0001402047346346,0,1735643777088253974,map,0.9563279251432786,-0.2551743858485619,0.1499134473500537,-0.5039462448323159,0.4893380757631724,-0.4893420589271867,0.5168469592565152,0.0,0.0,0.0,16,2.4705734680274816e-10,0,1735643777088270664,map,0.9551426146155992,0.0481359841602582,0.0291927046763499,-0.4849981482472844,0.5032239169390308,-0.5058404807323491,0.5056361277338787,0.0,0.0,0.0,17,0.7838360071182251,0,1735643777088284730,map,0.973433068645774,-0.2675892344565226,0.2416275697971088,-0.4933502432867839,0.4885668829218504,-0.4981443764756871,0.51938436494233,0.0,0.0,0.0,121,1.7585319839373494e-16,0,1735643777088297367,map,0.9698224642305768,0.1951548945086658,0.2470085068927566,-0.5153440674444436,0.4871235401974171,-0.491360490104323,0.5056639373138968,0.0,0.0,0.0,122,7.67789788369555e-06,0,1735643777088310956,map,0.9642613724744588,0.1956463661635264,0.1496235246308105,-0.4885883316736687,0.501698063889317,-0.4815595818226014,0.5269543281887851,0.0,0.0,0.0,124,0.0046174661256372,0,1735643777088322877,map,0.9652955025298215,-0.0365002019707766,0.247572960975462,-0.4960816186446596,0.5108260370558286,-0.4958258620238135,0.497108139198177,0.0,0.0,0.0,125,2.440865642938661e-08,0,1735643777088343858,map,0.9591995049477386,-0.0302320877323693,0.1500402017192061,-0.4703317106108932,0.5411731324122864,-0.532161118032203,0.4502491168271416,0.0,0.0,0.0,126,0.0008602021844126,0,1735644242188269615,map,0.9778348897131944,0.3323108367038895,0.0236866888449329,-0.5048316125816678,0.5008597989971155,-0.4885623364586405,0.5055604297023609,0.0,0.0,0.0,0,4.755624104291201e-06,0.9471581017614606,0.0120770591657592,-0.0054661747760169,1.0,1.599927844435505e-05,-0.0001812184098581,-0.0002015308140272,0.0,0.0,0.0,-0.0001812184098581,0.0048530816269981,0.0016897323927372,0.0,0.0,0.0,-0.0002015308140272,0.0016897323927372,0.0026640727307163,0.0,0.0,0.0,0.0,0.0,0.0,0.0,0.0,0.0,0.0,0.0,0.0,0.0,0.0,0.0,0.0,0.0,0.0,0.0,0.0,0.0,0,0,0,1,22,,17
2.199665532,0,1735643777088230371,map,0.9552992461857864,-0.228151007163138,0.0232681090393117,-0.4996186387584749,0.5089204222349247,-0.4827560675038685,0.5082595782919929,0.0,0.0,0.0,1,9.67620944720693e-05,0,1735643777088253974,map,0.9526312775034972,-0.2546788719170064,0.1504334343020855,-0.5055818080980894,0.4828380503050268,-0.4895669847343966,0.5211320561584921,0.0,0.0,0.0,16,1.1122002624430748e-10,0,1735643777088270664,map,0.9527636725124988,0.0472038785983778,0.0300721759959215,-0.4870898199129146,0.496603111261207,-0.5028005830289309,0.5131475722720121,0.0,0.0,0.0,17,0.7846120595932007,0,1735643777088284730,map,0.9719864714918548,-0.2692014821788195,0.2425601743730198,-0.4902992287625118,0.4900679650787807,-0.496879892802303,0.5220636244819217,0.0,0.0,0.0,121,3.268090676779016e-17,0,1735643777088297367,map,0.9687010741993428,0.1950232803957282,0.2482014774960905,-0.5119867720427124,0.4868183584878287,-0.4925177976823843,0.5082358213060085,0.0,0.0,0.0,122,4.667774646804901e-06,0,1735643777088310956,map,0.961625987638576,0.1945559038949627,0.1503772320933942,-0.4866443273692238,0.5030668160894289,-0.4821030524532164,0.5269513488020418,0.0,0.0,0.0,124,0.0043378137052059,0,1735643777088322877,map,0.9598867281646826,-0.0375318715473235,0.2475534707141914,0.5120539405927756,-0.5096339026263771,0.4866579144695662,-0.4911599754676179,0.0,0.0,0.0,125,9.800801059611786e-09,0,1735643777088343858,map,0.9549933671112428,-0.031325282218434,0.1506593410904138,-0.5100510702933988,0.4425080672061289,-0.4892735809594681,0.5519473517693086,0.0,0.0,0.0,126,0.0005431738100014,0,1735644242188269615,map,0.9778348897131944,0.3323108367038895,0.0236866888449329,-0.5048316125816678,0.5008597989971155,-0.4885623364586405,0.5055604297023609,0.0,0.0,0.0,0,5.385741133068223e-06,0.9470706696663838,0.0149730156025569,-0.0047683356334483,1.0,1.5471833809916133e-05,-0.0001789097384073,-0.0001941109025634,0.0,0.0,0.0,-0.0001789097384073,0.0048265824790424,0.001660725825615,0.0,0.0,0.0,-0.0001941109025634,0.001660725825615,0.0025589570298705,0.0,0.0,0.0,0.0,0.0,0.0,0.0,0.0,0.0,0.0,0.0,0.0,0.0,0.0,0.0,0.0,0.0,0.0,0.0,0.0,0.0,0,0,0,1,23,,17
2.299837548,0,1735643777088230371,map,0.9535639983194408,-0.2265006777640826,0.0234050254754391,-0.5010220290210077,0.5011816278314878,-0.4877903674312525,0.5097592174754044,0.0,0.0,0.0,1,0.000111359229777,0,1735643777088253974,map,0.9526312775034972,-0.2546788719170064,0.1504334343020855,-0.5055818080980894,0.4828380503050268,-0.4895669847343966,0.5211320561584921,0.0,0.0,0.0,16,1.0190178562075047e-10,0,1735643777088270664,map,0.9545667328839268,0.0488143346640171,0.02867762444805,-0.4954191186387203,0.5018485771710952,-0.4932338641287175,0.5093410034105198,0.0,0.0,0.0,17,0.8003388047218323,0,1735643777088284730,map,0.9719864714918548,-0.2692014821788195,0.2425601743730198,-0.4902992287625118,0.4900679650787807,-0.496879892802303,0.5220636244819217,0.0,0.0,0.0,121,2.32406203458838e-17,0,1735643777088297367,map,0.9657867425291466,0.1947910135821275,0.2474248288696151,-0.5135657644101463,0.4879591456034438,-0.4931662989048243,0.5049089813741652,0.0,0.0,0.0,122,3.158376102874172e-06,0,1735643777088310956,map,0.9607150592319638,0.1955509172661252,0.1500308596127222,-0.4886000664279048,0.50200968003736,-0.4800428831272122,0.5280294372422323,0.0,0.0,0.0,124,0.0041833934374153,0,1735643777088322877,map,0.9630512301974944,-0.0366871071921405,0.2484068169929418,-0.5012793468111549,0.4990834806696293,-0.4969141575203092,0.5027037058140227,0.0,0.0,0.0,125,4.909291195787091e-09,0,1735643777088343858,map,0.9559887376532348,-0.030457429444554,0.1505456071349018,-0.5520578226195678,0.4823410085580676,-0.4505872251130255,0.5094609548460723,0.0,0.0,0.0,126,0.0004283394955564,0,1735644242188269615,map,0.9778348897131944,0.3323108367038895,0.0236866888449329,-0.5048316125816678,0.5008597989971155,-0.4885623364586405,0.5055604297023609,0.0,0.0,0.0,0,1.0831919098563958e-05,0.9469912203603584,0.0187586130655693,-0.0043785551137816,1.0,1.4972354489078084e-05,-0.0001783727170742,-0.0001867352075011,0.0,0.0,0.0,-0.0001783727170742,0.0049550820832442,0.0016254666155812,0.0,0.0,0.0,-0.0001867352075011,0.0016254666155812,0.0024558281839234,0.0,0.0,0.0,0.0,0.0,0.0,0.0,0.0,0.0,0.0,0.0,0.0,0.0,0.0,0.0,0.0,0.0,0.0,0.0,0.0,0.0,0,0,0,1,24,,17
2.400002591,0,1735643777088230371,map,0.9552462836981684,-0.2286114650100109,0.0225041975567417,-0.5015770331589279,0.5048574483683339,-0.4855734790718841,0.5076985651511436,0.0,0.0,0.0,1,7.559108053101227e-05,0,1735643777088253974,map,0.9526312775034972,-0.2546788719170064,0.1504334343020855,-0.5055818080980894,0.4828380503050268,-0.4895669847343966,0.5211320561584921,0.0,0.0,0.0,16,4.6960803301576703e-11,0,1735643777088270664,map,0.95461690304961,0.0484779749818367,0.0286203839786162,-0.4919389568205767,0.499967484588058,-0.4948589334912808,0.5129748659153248,0.0,0.0,0.0,17,0.802179753780365,0,1735643777088284730,map,0.9719864714918548,-0.2692014821788195,0.2425601743730198,-0.4902992287625118,0.4900679650787807,-0.496879892802303,0.5220636244819217,0.0,0.0,0.0,121,6.1545703460711864e-18,0,1735643777088297367,map,0.9639708983521016,0.1934487534325537,0.2474513167884287,-0.515392985377299,0.4884794351013655,-0.4913936631629331,0.504271930519874,0.0,0.0,0.0,122,1.9752917523874203e-06,0,1735643777088310956,map,0.9588423272677618,0.1941814747101153,0.1502903590090951,-0.4917679853680665,0.5037025919963883,-0.4791366642006668,0.524286185591239,0.0,0.0,0.0,124,0.0037508157547563,0,1735643777088322877,map,0.9615975404737694,-0.0376308567664648,0.2485621574140589,-0.5122458685954977,0.4896349318627003,-0.4837017089729113,0.5137065897410104,0.0,0.0,0.0,125,2.0046126980588493e-09,0,1735643777088343858,map,0.9572696459949236,-0.031328430951077,0.1505751472131944,-0.5309549684590331,0.4742827638970522,-0.4685192998885628,0.523098792744518,0.0,0.0,0.0,126,0.0002949835907202,0,1735644242188269615,map,0.9778348897131944,0.3323108367038895,0.0236866888449329,-0.5048316125816678,0.5008597989971155,-0.4885623364586405,0.5055604297023609,0.0,0.0,0.0,0,1.069080644811038e-05,0.9469331763366444,0.02100219070799,-0.0039832462389422,1.0,1.4454318918048516e-05,-0.0001743632389644,-0.000179816486826,0.0,0.0,0.0,-0.0001743632389644,0.0048776861752161,0.0015817336986405,0.0,0.0,0.0,-0.000179816486826,0.0015817336986405,0.0023613455151231,0.0,0.0,0.0,0.0,0.0,0.0,0.0,0.0,0.0,0.0,0.0,0.0,0.0,0.0,0.0,0.0,0.0,0.0,0.0,0.0,0.0,0,0,0,1,25,,17
2.499367724,0,1735643777088230371,map,0.9552462836981684,-0.2286114650100109,0.0225041975567417,-0.5015770331589279,0.5048574483683339,-0.4855734790718841,0.5076985651511436,0.0,0.0,0.0,1,5.2991970733273774e-05,0,1735643777088253974,map,0.9526312775034972,-0.2546788719170064,0.1504334343020855,-0.5055818080980894,0.4828380503050268,-0.4895669847343966,0.5211320561584921,0.0,0.0,0.0,16,2.116243985605948e-11,0,1735643777088270664,map,0.9524008278502788,0.0472990271339144,0.0280970935981037,-0.4904493818138894,0.4998246584804696,-0.5005915842237579,0.5089624548604779,0.0,0.0,0.0,17,0.798033595085144,0,1735643777088284730,map,0.9719864714918548,-0.2692014821788195,0.2425601743730198,-0.4902992287625118,0.4900679650787807,-0.496879892802303,0.5220636244819217,0.0,0.0,0.0,121,1.6900459001291697e-18,0,1735643777088297367,map,0.9646634103413452,0.1936177951025671,0.2470910251337655,-0.5163797195495525,0.4857575133394815,-0.4894595392235707,0.5077607536381867,0.0,0.0,0.0,122,1.196568177874724e-06,0,1735643777088310956,map,0.957246630106579,0.1929143136540813,0.1493366900945615,-0.4859831321215051,0.5035705890056149,-0.4823786824664709,0.5268281160718569,0.0,0.0,0.0,124,0.0032245924230664,0,1735643777088322877,map,0.9604418950191564,-0.0389176889555987,0.2477634393398429,-0.5101592417927708,0.4859036481722254,-0.4880127554696968,0.5152462937326396,0.0,0.0,0.0,125,9.806851997140598e-10,0,1735643777088343858,map,0.9535383767577612,-0.0323108322744094,0.1496099415061723,-0.5256260121934421,0.4785033294391874,-0.4746099215891741,0.5191312756426357,0.0,0.0,0.0,126,0.0002189314109273,0,1735644242188269615,map,0.9778348897131944,0.3323108367038895,0.0236866888449329,-0.5048316125816678,0.5008597989971155,-0.4885623364586405,0.5055604297023609,0.0,0.0,0.0,0,8.50615651870612e-06,0.9469397841968388,0.0221016940397648,-0.0043151222254247,1.0,1.3899475170455377e-05,-0.0001674753264352,-0.0001729552928549,0.0,0.0,0.0,-0.0001674753264352,0.0047203055501993,0.0015117753183325,0.0,0.0,0.0,-0.0001729552928549,0.0015117753183325,0.0022732780755323,0.0,0.0,0.0,0.0,0.0,0.0,0.0,0.0,0.0,0.0,0.0,0.0,0.0,0.0,0.0,0.0,0.0,0.0,0.0,0.0,0.0,0,0,0,1,26,,17
