%time,field.boxes0.header.seq,field.boxes0.header.stamp,field.boxes0.header.frame_id,field.boxes0.pose.position.x,field.boxes0.pose.position.y,field.boxes0.pose.position.z,field.boxes0.pose.orientation.x,field.boxes0.pose.orientation.y,field.boxes0.pose.orientation.z,field.boxes0.pose.orientation.w,field.boxes0.scale.x,field.boxes0.scale.y,field.boxes0.scale.z,field.boxes0.id,field.boxes0.pdf,field.boxes1.header.seq,field.boxes1.header.stamp,field.boxes1.header.frame_id,field.boxes1.pose.position.x,field.boxes1.pose.position.y,field.boxes1.pose.position.z,field.boxes1.pose.orientation.x,field.boxes1.pose.orientation.y,field.boxes1.pose.orientation.z,field.boxes1.pose.orientation.w,field.boxes1.scale.x,field.boxes1.scale.y,field.boxes1.scale.z,field.boxes1.id,field.boxes1.pdf,field.boxes2.header.seq,field.boxes2.header.stamp,field.boxes2.header.frame_id,field.boxes2.pose.position.x,field.boxes2.pose.position.y,field.boxes2.pose.position.z,field.boxes2.pose.orientation.x,field.boxes2.pose.orientation.y,field.boxes2.pose.orientation.z,field.boxes2.pose.orientation.w,field.boxes2.scale.x,field.boxes2.scale.y,field.boxes2.scale.z,field.boxes2.id,field.boxes2.pdf,field.boxes3.header.seq,field.boxes3.header.stamp,field.boxes3.header.frame_id,field.boxes3.pose.position.x,field.boxes3.pose.position.y,field.boxes3.pose.position.z,field.boxes3.pose.orientation.x,field.boxes3.pose.orientation.y,field.boxes3.pose.orientation.z,field.boxes3.pose.orientation.w,field.boxes3.scale.x,field.boxes3.scale.y,field.boxes3.scale.z,field.boxes3.id,field.boxes3.pdf,field.boxes4.header.seq,field.boxes4.header.stamp,field.boxes4.header.frame_id,field.boxes4.pose.position.x,field.boxes4.pose.position.y,field.boxes4.pose.position.z,field.boxes4.pose.orientation.x,field.boxes4.pose.orientation.y,field.boxes4.pose.orientation.z,field.boxes4.pose.orientation.w,field.boxes4.scale.x,field.boxes4.scale.y,field.boxes4.scale.z,field.boxes4.id,field.boxes4.pdf,field.boxes5.header.seq,field.boxes5.header.stamp,field.boxes5.header.frame_id,field.boxes5.pose.position.x,field.boxes5.pose.position.y,field.boxes5.pose.position.z,field.boxes5.pose.orientation.x,field.boxes5.pose.orientation.y,field.boxes5.pose.orientation.z,field.boxes5.pose.orientation.w,field.boxes5.scale.x,field.boxes5.scale.y,field.boxes5.scale.z,field.boxes5.id,field.boxes5.pdf,field.boxes6.header.seq,field.boxes6.header.stamp,field.boxes6.header.frame_id,field.boxes6.pose.position.x,field.boxes6.pose.position.y,field.boxes6.pose.position.z,field.boxes6.pose.orientation.x,field.boxes6.pose.orientation.y,field.boxes6.pose.orientation.z,field.boxes6.pose.orientation.w,field.boxes6.scale.x,field.boxes6.scale.y,field.boxes6.scale.z,field.boxes6.id,field.boxes6.pdf,field.boxes7.header.seq,field.boxes7.header.stamp,field.boxes7.header.frame_id,field.boxes7.pose.position.x,field.boxes7.pose.position.y,field.boxes7.pose.position.z,field.boxes7.pose.orientation.x,field.boxes7.pose.orientation.y,field.boxes7.pose.orientation.z,field.boxes7.pose.orientation.w,field.boxes7.scale.x,field.boxes7.scale.y,field.boxes7.scale.z,field.boxes7.id,field.boxes7.pdf,field.boxes8.header.seq,field.boxes8.header.stamp,field.boxes8.header.frame_id,field.boxes8.pose.position.x,field.boxes8.pose.position.y,field.boxes8.pose.position.z,field.boxes8.pose.orientation.x,field.boxes8.pose.orientation.y,field.boxes8.pose.orientation.z,field.boxes8.pose.orientation.w,field.boxes8.scale.x,field.boxes8.scale.y,field.boxes8.scale.z,field.boxes8.id,field.boxes8.pdf,field.pose.pose.position.x,field.pose.pose.position.y,field.pose.pose.position.z,field.pose.pose.orientation.w,field.pose.covariance0,field.pose.covariance1,field.pose.covariance2,field.pose.covariance3,field.pose.covariance4,field.pose.covariance5,field.pose.covariance6,field.pose.covariance7,field.pose.covariance8,field.pose.covariance9,field.pose.covariance10,field.pose.covariance11,field.pose.covariance12,field.pose.covariance13,field.pose.covariance14,field.pose.covariance15,field.pose.covariance16,field.pose.covariance17,field.pose.covariance18,field.pose.covariance19,field.pose.covariance20,field.pose.covariance21,field.pose.covariance22,field.pose.covariance23,field.pose.covariance24,field.pose.covariance25,field.pose.covariance26,field.pose.covariance27,field.pose.covariance28,field.pose.covariance29,field.pose.covariance30,field.pose.covariance31,field.pose.covariance32,field.pose.covariance33,field.pose.covariance34,field.pose.covariance35,field.buttons0,field.buttons1,field.buttons2,field.buttons3,intersection_length,vacuum,desired_box
0.0,0,1735643777088230371,map,0.9772612720568912,-0.2186485958518645,0.0254615937130057,-0.4814794881372136,0.494344618944181,-0.5200776769777992,0.5033091595962016,0.0,0.0,0.0,1,0.1111111119389534,0,1735643777088253974,map,0.9857679876722056,-0.2484859114665133,0.1503986296363212,-0.4801125870503757,0.4724999359255757,-0.5140352673170462,0.5310399780246443,0.0,0.0,0.0,16,0.1111111119389534,0,1735643777088270664,map,0.9949194944285288,0.0591537396858953,0.0257186377458987,-0.5088993002193839,0.5027695163186118,-0.487456606047484,0.5006299760478174,0.0,0.0,0.0,17,0.1111111119389534,0,1735643777088284730,map,1.010864201666827,-0.2530943868794245,0.2385617885334695,0.3649129370153077,-0.5583141048584497,0.6127381151004943,-0.4238819541075831,0.0,0.0,0.0,121,0.1111111119389534,0,1735643777088297367,map,1.0123605719421265,0.2116989836131076,0.2435956171424381,-0.4961613445761549,0.4812192212517543,-0.504713588417468,0.517219658281662,0.0,0.0,0.0,122,0.1111111119389534,0,1735643777088310956,map,1.008045017362838,0.209342453211914,0.1458976991921926,-0.4767805884165002,0.4907493030931676,-0.4876629781058836,0.5422455272362199,0.0,0.0,0.0,124,0.1111111119389534,0,1735643777088322877,map,1.0055271671440127,-0.0228346686499569,0.2443249817001877,-0.4677313882163496,0.5318933979296031,-0.5284001598520442,0.4680919063436592,0.0,0.0,0.0,125,0.1111111119389534,0,1735643777088343858,map,1.0165268743541018,-0.0161749059885648,0.1458697881512179,0.6639376107656373,-0.4649429385571744,0.3402129328118958,-0.4767285110460303,0.0,0.0,0.0,126,0.1111111119389534,0,1735644242188269615,map,0.9718766578000196,0.3302688078371563,0.0294146984533171,-0.4929023397317683,0.4914412211222476,-0.478736668946814,0.5351112141177106,0.0,0.0,0.0,0,0.1111111119389534,0.8871986311814635,-0.1685665258445878,0.9318378537754592,1.0,0.0,0.0,0.0,0.0,0.0,0.0,0.0,0.0,0.0,0.0,0.0,0.0,0.0,0.0,0.0,0.0,0.0,0.0,0.0,0.0,0.0,0.0,0.0,0.0,0.0,0.0,0.0,0.0,0.0,0.0,0.0,0.0,0.0,0.0,0.0,0.0,0,0,0,1,1,,121
0.097985258,0,1735643777088230371,map,0.9797878846994976,-0.2187913847622107,0.0251921653702885,-0.4793981335311301,0.4981080437608885,-0.5215591873733975,0.5000418186251742,0.0,0.0,0.0,1,0.0,0,1735643777088253974,map,0.9868913655904248,-0.2485173755693634,0.1504255642164889,-0.4736675239982845,0.4734105842561364,-0.5224401293775056,0.527804705018451,0.0,0.0,0.0,16,0.0,0,1735643777088270664,map,0.9875975843447292,0.0571916462380673,0.0284493885931104,-0.503621412169333,0.4843912930036549,-0.4827632878634255,0.5278921825127837,0.0,0.0,0.0,17,0.0,0,1735643777088284730,map,1.015567783437919,-0.2539997062410826,0.2389107782845817,-0.4878158615917113,0.4968690032081386,-0.497197462166447,0.5176403794582993,0.0,0.0,0.0,121,0.0,0,1735643777088297367,map,1.0256576349356197,0.2184488693353271,0.243820054084986,-0.5052900514287944,0.4880800876848822,-0.4939016146744424,0.5123680190591361,0.0,0.0,0.0,122,0.0,0,1735643777088310956,map,1.0153785325179787,0.2132004804259354,0.1453585165317419,-0.4971927263097028,0.5011678751630019,-0.4729953664530179,0.5271674659188506,0.0,0.0,0.0,124,0.0,0,1735643777088322877,map,1.0090333796679212,-0.0220815402547356,0.244195525664798,-0.5088830869218137,0.4993889457935784,-0.4900450814842199,0.5015022460340824,0.0,0.0,0.0,125,0.0,0,1735643777088343858,map,1.010964367717103,-0.0166167433870865,0.146413401612361,-0.4819176524771079,0.4624652456910662,-0.5115672193882207,0.5405370041044922,0.0,0.0,0.0,126,0.0,0,1735644242188269615,map,0.9704950857031184,0.3295010515165649,0.0303975376303118,-0.4923837045366939,0.4989796070636336,-0.4863826498024485,0.5215453548949438,0.0,0.0,0.0,0,0.0,0.8962603305803873,-0.2232113994103464,0.8075328462132091,1.0,8.211439599645727e-05,-0.0004951754179451,-0.00112641461231,0.0,0.0,0.0,-0.0004951754179451,0.0029860622070177,0.0067926314218298,0.0,0.0,0.0,-0.00112641461231,0.0067926314218298,0.015451734905051,0.0,0.0,0.0,0.0,0.0,0.0,0.0,0.0,0.0,0.0,0.0,0.0,0.0,0.0,0.0,0.0,0.0,0.0,0.0,0.0,0.0,0,0,0,1,2,,121
0.198999109,0,1735643777088230371,map,0.9818628554032822,-0.2198009384804116,0.0239620514114985,-0.4815894833382619,0.4953232908737278,-0.51956859388999,0.5027672257607742,0.0,0.0,0.0,1,0.0,0,1735643777088253974,map,0.9854634664297331,-0.249069573028902,0.1502088297428467,-0.5046261734339509,0.5102176563290491,-0.4930603908962516,0.4918554860777054,0.0,0.0,0.0,16,0.0,0,1735643777088270664,map,0.9886949091384069,0.0566914837109978,0.0274847675328017,-0.501783131410757,0.4843921910590714,-0.4854570892128519,0.5271710432161392,0.0,0.0,0.0,17,0.0,0,1735643777088284730,map,1.0078006758709308,-0.2531643580353648,0.2377779809244115,0.3632784309292909,-0.5477293695540296,0.6222717370153652,-0.4252048972688081,0.0,0.0,0.0,121,0.0,0,1735643777088297367,map,1.0111602022194903,0.2108063655606005,0.2427556154879276,-0.4939505124326868,0.4996509187544083,-0.5054102631581343,0.5009214674475306,0.0,0.0,0.0,122,0.0,0,1735643777088310956,map,1.010292585009437,0.2097783026097748,0.1450140321883596,-0.4759372251291914,0.5006076772830007,-0.4870563757940941,0.5344640287053629,0.0,0.0,0.0,124,0.0,0,1735643777088322877,map,1.0097511994168693,-0.0224418903679121,0.2436860714100372,-0.5066259810351943,0.5193128352872132,-0.4913457736460797,0.4818958654794814,0.0,0.0,0.0,125,0.0,0,1735643777088343858,map,0.9957588872578524,-0.0199188445179935,0.1478581148294559,0.460089519340239,-0.4844668738563463,0.5520949270644162,-0.498799231995062,0.0,0.0,0.0,126,0.0,0,1735644242188269615,map,0.9704950857031184,0.3295010515165649,0.0303975376303118,-0.4923837045366939,0.4989796070636336,-0.4863826498024485,0.5215453548949438,0.0,0.0,0.0,0,0.0,0.9053201102798348,-0.2709323398660246,0.681790636762095,1.0,0.0002189021470693,-0.0011947993604545,-0.003029336507971,0.0,0.0,0.0,-0.0011947993604545,0.0065452844539606,0.0165294939278506,0.0,0.0,0.0,-0.003029336507971,0.0165294939278506,0.041923363078663,0.0,0.0,0.0,0.0,0.0,0.0,0.0,0.0,0.0,0.0,0.0,0.0,0.0,0.0,0.0,0.0,0.0,0.0,0.0,0.0,0.0,0,0,0,1,3,,121
0.299916388,0,1735643777088230371,map,0.9880914381725792,-0.2215271224616309,0.0210422753571631,0.4824337526680294,-0.5017934129448133,0.5161418816063416,-0.4990577151629895,0.0,0.0,0.0,1,0.0,0,1735643777088253974,map,0.990448653683384,-0.2506896659945208,0.1487382590511506,-0.5036850356460281,0.508910503374857,-0.4942264815978552,0.4930027072019115,0.0,0.0,0.0,16,0.0,0,1735643777088270664,map,1.004527251790685,0.0611253686205099,0.0211900890078667,-0.5088623585504736,0.5033227222661361,-0.4871613012004194,0.5003990446771153,0.0,0.0,0.0,17,0.0,0,1735643777088284730,map,1.0173794861769576,-0.2557756021002647,0.2369178249878782,-0.4956063413725127,0.5045689987207168,-0.4995704819528382,0.5002137677860679,0.0,0.0,0.0,121,0.0,0,1735643777088297367,map,1.0133943027826935,0.2118830814777277,0.2421298316036842,-0.4932543087831302,0.491085953939599,-0.5062592971782021,0.5091525279626364,0.0,0.0,0.0,122,0.0,0,1735643777088310956,map,1.005279214527769,0.2075296290739361,0.1448562541295157,-0.4656267142839739,0.4949976705593047,-0.4997696575773775,0.5370282659702031,0.0,0.0,0.0,124,0.0,0,1735643777088322877,map,1.005505734425026,-0.0245547454852961,0.2426807889340506,-0.619491017881799,0.4180933823990305,-0.3672335167228016,0.5536861444476594,0.0,0.0,0.0,125,0.0,0,1735643777088343858,map,0.9991079914993212,-0.0208218185727082,0.1470721112610703,-0.4744616488974059,0.4714730774625262,-0.5247794412875152,0.5265033893105838,0.0,0.0,0.0,126,0.0,0,1735644242188269615,map,0.9704950857031184,0.3295010515165649,0.0303975376303118,-0.4923837045366939,0.4989796070636336,-0.4863826498024485,0.5215453548949438,0.0,0.0,0.0,0,0.0,0.912510764294333,-0.3136351060910436,0.5830123770785508,1.0,0.0003192931257706,-0.0018172819724992,-0.0044028432495941,0.0,0.0,0.0,-0.0018172819724992,0.0103795420702763,0.0250514352400297,0.0,0.0,0.0,-0.0044028432495941,0.0250514352400297,0.0607139560673263,0.0,0.0,0.0,0.0,0.0,0.0,0.0,0.0,0.0,0.0,0.0,0.0,0.0,0.0,0.0,0.0,0.0,0.0,0.0,0.0,0.0,0,0,0,1,4,,121
0.398937206,0,1735643777088230371,map,0.9874814455080244,-0.2222276607162459,0.0214335728805352,-0.5588805885011748,0.7113186757593115,-0.3292283814152153,0.2707155373880811,0.0,0.0,0.0,1,0.0,0,1735643777088253974,map,0.9899587230326792,-0.2514123908018516,0.1482920809472643,-0.4969807746375639,0.4916662000489225,-0.4991306255544723,0.5119990976590697,0.0,0.0,0.0,16,0.0,0,1735643777088270664,map,1.003342099648426,0.0597045684486801,0.0209648183243989,-0.5048312526004659,0.5011457718404134,-0.4776574744485049,0.5155983503346354,0.0,0.0,0.0,17,0.0,0,1735643777088284730,map,1.0133964641735205,-0.2557161482279557,0.2366074936162929,-0.3963097947904127,0.5856175057705688,-0.5774567610846716,0.4080862317768628,0.0,0.0,0.0,121,0.0,0,1735643777088297367,map,1.0152627855295415,0.2123343553036479,0.2418426205591621,0.5071792058736925,-0.4986522001362728,0.4962548911240928,-0.4978416610369202,0.0,0.0,0.0,122,0.0,0,1735643777088310956,map,1.007052042709461,0.2077484662446178,0.1438997551892309,-0.4707183880369088,0.5004334668959352,-0.4998938893097566,0.5273486928069646,0.0,0.0,0.0,124,0.0,0,1735643777088322877,map,1.0196080467338575,-0.0220538762006312,0.241741350151121,-0.5020695116781636,0.5094691517454346,-0.4968295123476835,0.491454804151308,0.0,0.0,0.0,125,0.0,0,1735643777088343858,map,1.017731155048326,-0.0171310384712603,0.1430958489631555,0.5075787949010055,-0.5072238839421512,0.494608315720797,-0.4903573314893117,0.0,0.0,0.0,126,0.0,0,1735644242188269615,map,0.9704950857031184,0.3295010515165649,0.0303975376303118,-0.4923837045366939,0.4989796070636336,-0.4863826498024485,0.5215453548949438,0.0,0.0,0.0,0,0.0,0.9190351788282646,-0.3527793761578862,0.4934705533578676,1.0,0.0004257064406588,-0.0024753993561763,-0.0058591065039872,0.0,0.0,0.0,-0.0024753993561763,0.0144327291724846,0.0340613455120239,0.0,0.0,0.0,-0.0058591065039872,0.0340613455120239,0.0806421176347646,0.0,0.0,0.0,0.0,0.0,0.0,0.0,0.0,0.0,0.0,0.0,0.0,0.0,0.0,0.0,0.0,0.0,0.0,0.0,0.0,0.0,0,0,0,1,5,,121
0.500267678,0,1735643777088230371,map,0.987877933368047,-0.2226270375699021,0.0202791875705909,-0.5013602665561455,0.4937354431387675,-0.4871460347751566,0.5172542277354124,0.0,0.0,0.0,1,1.1812564369790876e-19,0,1735643777088253974,map,0.9833855981952476,-0.2506061184294033,0.1491624967223467,0.5096397217889979,-0.5095652158116609,0.4867923023690886,-0.4936029772639644,0.0,0.0,0.0,16,3.9672945484348077e-11,0,1735643777088270664,map,0.9978864364260308,0.0585313186290911,0.0223841014883267,-0.5152303165179859,0.4995798743703456,-0.4728260539794873,0.5112662640377057,0.0,0.0,0.0,17,0.0,0,1735643777088284730,map,1.014222074829891,-0.2559324648246805,0.2360333316558304,0.4004450821051528,-0.5645379240158159,0.5822479027661183,-0.4265302431131551,0.0,0.0,0.0,121,7.338880436691397e-08,0,1735643777088297367,map,1.020906026751493,0.2156336669286027,0.2412955326385619,0.5095281722648279,-0.4997451335641495,0.4940789428713001,-0.4965096588774407,0.0,0.0,0.0,122,0.0,0,1735643777088310956,map,1.0113216370895803,0.2105084304455995,0.1430050126371224,-0.4892469674767935,0.509307288625223,-0.4789488884410147,0.5213937598678198,0.0,0.0,0.0,124,0.0,0,1735643777088322877,map,1.0085070587570517,-0.0239355088969214,0.2418828090813497,-0.5023515628784823,0.5012253689634341,-0.4953592787488013,0.501034152267571,0.0,0.0,0.0,125,1.985637906078477e-37,0,1735643777088343858,map,1.0145361685728893,-0.0175750948734673,0.1431336205300279,-0.5279274494469367,0.4877024544643741,-0.4743504312056042,0.5083606912861524,0.0,0.0,0.0,126,1.401298464324817e-45,0,1735644242188269615,map,0.9704950857031184,0.3295010515165649,0.0303975376303118,-0.4923837045366939,0.4989796070636336,-0.4863826498024485,0.5215453548949438,0.0,0.0,0.0,0,0.0,0.9234734089011872,-0.3640804041400735,0.429314654229848,1.0,0.0004532447981166,-0.002313615608041,-0.0063062819576495,0.0,0.0,0.0,-0.002313615608041,0.0126658404776747,0.0320095926496939,0.0,0.0,0.0,-0.0063062819576495,0.0320095926496939,0.0877816616602604,0.0,0.0,0.0,0.0,0.0,0.0,0.0,0.0,0.0,0.0,0.0,0.0,0.0,0.0,0.0,0.0,0.0,0.0,0.0,0.0,0.0,0,0,0,1,6,,121
0.599637106,0,1735643777088230371,map,0.9877086108766692,-0.2220132214751579,0.0206431820576033,0.4842544989331602,-0.5061071603555582,0.5139837474001251,-0.4951503104193225,0.0,0.0,0.0,1,5.062908257968957e-06,0,1735643777088253974,map,0.990285788956074,-0.2514623487298206,0.1479893586834715,-0.505960421600091,0.5094488700298234,-0.4916625829101393,0.4926802260754176,0.0,0.0,0.0,16,0.001741447369568,0,1735643777088270664,map,0.9854082237947944,0.0547461671260255,0.0271796217384889,-0.4853023189559243,0.504140396490966,-0.4984356291035136,0.5117480273358354,0.0,0.0,0.0,17,2.0013295142551408e-22,0,1735643777088284730,map,1.0136718374395597,-0.2554635615700178,0.2368339445587556,-0.503084026313294,0.5391224348464184,-0.4761569944582486,0.4790907840296678,0.0,0.0,0.0,121,0.0142585067078471,0,1735643777088297367,map,1.0246303342164356,0.2192778132072252,0.2414805864899756,0.5087347261313735,-0.4958231631061463,0.4976486312069209,-0.4976888678816618,0.0,0.0,0.0,122,1.0442473032478931e-30,0,1735643777088310956,map,1.017523137065322,0.2150752822319857,0.1422629317772464,-0.4955605499796226,0.5068593119235586,-0.4689092362111053,0.5269131877417649,0.0,0.0,0.0,124,1.8734507337787437e-33,0,1735643777088322877,map,1.013241462392747,-0.0216786818467621,0.2419343648542065,-0.5040704696844338,0.5042128081637574,-0.4944594482277255,0.4971843317463509,0.0,0.0,0.0,125,4.293818772760361e-12,0,1735643777088343858,map,0.9983522313920552,-0.0201264275225387,0.146144176788202,0.7096897433754292,-0.446340620888684,0.2987672104400024,-0.4559152029251936,0.0,0.0,0.0,126,3.9426801938264456e-14,0,1735644242188269615,map,0.9704950857031184,0.3295010515165649,0.0303975376303118,-0.4923837045366939,0.4989796070636336,-0.4863826498024485,0.5215453548949438,0.0,0.0,0.0,0,0.0,0.9257419573488372,-0.3578562021730784,0.3939812766433482,1.0,0.0004193734135988,-0.0018983796703461,-0.0058863174083727,0.0,0.0,0.0,-0.0018983796703461,0.0110888788359054,0.0261172612300908,0.0,0.0,0.0,-0.0058863174083727,0.0261172612300908,0.0827321097102441,0.0,0.0,0.0,0.0,0.0,0.0,0.0,0.0,0.0,0.0,0.0,0.0,0.0,0.0,0.0,0.0,0.0,0.0,0.0,0.0,0.0,0,0,0,1,7,,121
0.700078353,0,1735643777088230371,map,0.9798896727270135,-0.2209253433244001,0.022195803175201,0.4641791699803737,-0.5229169393258241,0.5314113583303592,-0.4782233170391486,0.0,0.0,0.0,1,0.0002716438320931,0,1735643777088253974,map,0.9762645200424392,-0.2488444563263831,0.1498924899050572,-0.4568085472946594,0.6774548795739265,-0.4769731569240769,0.3238478729803543,0.0,0.0,0.0,16,0.0153307737782597,0,1735643777088270664,map,0.9888792288659248,0.0575512798391809,0.0247808287766861,-0.5004883741405741,0.5017367757151294,-0.4922857010616954,0.5053972534307104,0.0,0.0,0.0,17,1.1605038268164579e-16,0,1735643777088284730,map,1.0119008808612728,-0.2550325737431527,0.2362721986636489,-0.4982342318714399,0.5293819684858736,-0.4793886306100371,0.4916339313710263,0.0,0.0,0.0,121,0.0678239911794662,0,1735643777088297367,map,1.0152824376481229,0.2165546089492673,0.2411630909994628,-0.5019145470612748,0.4957979837361109,-0.4975199242897717,0.5047178139378301,0.0,0.0,0.0,122,6.864131802906419e-23,0,1735643777088310956,map,1.0038549755258608,0.2097721570465425,0.1437415073671087,-0.4768182046039729,0.5048109145490158,-0.4898531773166575,0.5271187769214879,0.0,0.0,0.0,124,1.4943376350383522e-24,0,1735643777088322877,map,0.9999593402138188,-0.0235942790839119,0.2418302446070129,-0.512126209074717,0.5332872318394506,-0.4847888966279817,0.4672378409782321,0.0,0.0,0.0,125,7.897231313336306e-09,0,1735643777088343858,map,0.9990180059465386,-0.0185817932024868,0.1452144063175014,0.5049984871487582,-0.5014627091894102,0.4966889369754206,-0.4968015490677431,0.0,0.0,0.0,126,1.9799299699752027e-10,0,1735644242188269615,map,0.9704950857031184,0.3295010515165649,0.0303975376303118,-0.4923837045366939,0.4989796070636336,-0.4863826498024485,0.5215453548949438,0.0,0.0,0.0,0,1.352911516247804e-37,0.9272907450804584,-0.3525258811454086,0.3696295447284937,1.0,0.0003837429409623,-0.00160329346086,-0.0054145373777603,0.0,0.0,0.0,-0.00160329346086,0.0099016552372234,0.021943985735528,0.0,0.0,0.0,-0.0054145373777603,0.021943985735528,0.0765416439272342,0.0,0.0,0.0,0.0,0.0,0.0,0.0,0.0,0.0,0.0,0.0,0.0,0.0,0.0,0.0,0.0,0.0,0.0,0.0,0.0,0.0,0,0,0,1,8,,121
0.80039222,0,1735643777088230371,map,0.9734888715429072,-0.2209702884181888,0.0256518125452449,-0.4874264875246282,0.4753743049039649,-0.4918330459807584,0.5427107372972876,0.0,0.0,0.0,1,0.0012036908883601,0,1735643777088253974,map,0.986725365296066,-0.2511306882620645,0.1489270337804813,-0.5057247568753905,0.5090805445793044,-0.491964865444047,0.4930010553566663,0.0,0.0,0.0,16,0.0380373448133468,0,1735643777088270664,map,0.9885628398808508,0.0571100669407599,0.0255513249390327,-0.4822620465541806,0.5071762629972081,-0.5047123330233757,0.5054315162310933,0.0,0.0,0.0,17,1.3402210995183164e-14,0,1735643777088284730,map,1.0062962478300683,-0.2544122915862585,0.2374366061254252,0.399076795647517,-0.5603054903255549,0.5865029413318184,-0.427562590150115,0.0,0.0,0.0,121,0.1222328394651413,0,1735643777088297367,map,1.0050265319440146,0.2108083653866542,0.2425841592384781,0.4919578242597479,-0.4997238016618558,0.5084873677785147,-0.499694124452064,0.0,0.0,0.0,122,5.2096487675791776e-20,0,1735643777088310956,map,1.004619227766289,0.2102189898498112,0.1442591940961055,-0.4770760442777628,0.5028184649152073,-0.4894305605954397,0.5291783873816379,0.0,0.0,0.0,124,7.552604288812923e-22,0,1735643777088322877,map,1.008494793817699,-0.021931118520822,0.2424108143932804,-0.5038617177076462,0.5063289771266675,-0.494926668541115,0.4947746245689609,0.0,0.0,0.0,125,8.305904941607879e-08,0,1735643777088343858,map,1.0071382056597031,-0.0170993277328445,0.1446681994301043,0.5084787355538184,-0.5024505967715152,0.49223827004031,-0.4966832580239254,0.0,0.0,0.0,126,3.3769838037045474e-09,0,1735644242188269615,map,0.9704950857031184,0.3295010515165649,0.0303975376303118,-0.4923837045366939,0.4989796070636336,-0.4863826498024485,0.5215453548949438,0.0,0.0,0.0,0,1.6177955898252738e-33,0.9281910745390912,-0.3472256646311134,0.3550074353194141,1.0,0.0003475895814836,-0.001386974214467,-0.0049182398403514,0.0,0.0,0.0,-0.001386974214467,0.0090262096827636,0.0188857623321364,0.0,0.0,0.0,-0.0049182398403514,0.0188857623321364,0.069747465492777,0.0,0.0,0.0,0.0,0.0,0.0,0.0,0.0,0.0,0.0,0.0,0.0,0.0,0.0,0.0,0.0,0.0,0.0,0.0,0.0,0.0,0,0,0,1,9,,121
0.899094455,0,1735643777088230371,map,0.9783282567809392,-0.221068222462922,0.0238561142973564,-0.4994287035468253,0.4892462203159086,-0.4856771736027643,0.5247159126816769,0.0,0.0,0.0,1,0.0066386885009706,0,1735643777088253974,map,0.9894234043326332,-0.2512096036542698,0.1484719182499104,-0.5021559429078524,0.5048965465242484,-0.4889261939445511,0.5038552006133395,0.0,0.0,0.0,16,0.0995269045233726,0,1735643777088270664,map,0.9913609044701556,0.0589521232912332,0.0245088155731881,-0.4949371053145949,0.4941392712114359,-0.4882462805209501,0.5219954137604073,0.0,0.0,0.0,17,1.2804578577996216e-11,0,1735643777088284730,map,1.0019531117259683,-0.2537263443349395,0.237731061863294,-0.5257880850904524,0.5081374223007585,-0.4492848769967088,0.5133092137654538,0.0,0.0,0.0,121,0.2401577830314636,0,1735643777088297367,map,1.0113663995459792,0.2158971922294405,0.2422198422592861,-0.4942402535420936,0.4808547579857767,-0.5039284771563531,0.5201551339859739,0.0,0.0,0.0,122,3.062968016664892e-16,0,1735643777088310956,map,1.0035290736771991,0.2112427556397573,0.1445415258642024,-0.4884646831241122,0.5035267595135409,-0.4796111083349755,0.5271017364379952,0.0,0.0,0.0,124,1.9346730478016977e-17,0,1735643777088322877,map,0.9977537848533338,-0.0232460476961408,0.2429379562784229,-0.5120993501392105,0.5358932353385537,-0.4846925510413576,0.4643768156038766,0.0,0.0,0.0,125,4.134005848754896e-06,0,1735643777088343858,map,1.0024987130713447,-0.0170595290265452,0.145229474194006,-0.4861776914138163,0.4793952715500972,-0.5131986019297792,0.5200371342166455,0.0,0.0,0.0,126,3.120760823094315e-07,0,1735644242188269615,map,0.9704950857031184,0.3295010515165649,0.0303975376303118,-0.4923837045366939,0.4989796070636336,-0.4863826498024485,0.5215453548949438,0.0,0.0,0.0,0,9.34860877998746e-27,0.9287024974176618,-0.3381536668068242,0.3454181606186813,1.0,0.0003151846035818,-0.0012065201478452,-0.004470553426554,0.0,0.0,0.0,-0.0012065201478452,0.0088642990152024,0.0162142411859287,0.0,0.0,0.0,-0.004470553426554,0.0162142411859287,0.0636003066470743,0.0,0.0,0.0,0.0,0.0,0.0,0.0,0.0,0.0,0.0,0.0,0.0,0.0,0.0,0.0,0.0,0.0,0.0,0.0,0.0,0.0,0,0,0,1,10,,121
0.999044865,0,1735643777088230371,map,0.9789200883240944,-0.2209558283786106,0.0239597826023541,-0.4867071709079096,0.4945467213045442,-0.5125291070231822,0.5058197155981216,0.0,0.0,0.0,1,0.0144919976592063,0,1735643777088253974,map,0.981794302952718,-0.2500225343319284,0.1506619621956775,-0.5074056237073252,0.4960569288818397,-0.4861193471344786,0.5100539546754315,0.0,0.0,0.0,16,0.1550476998090744,0,1735643777088270664,map,0.9848872288267664,0.057128537239866,0.0272839747513804,-0.4864179290339971,0.4814730097269152,-0.4933733898964561,0.5368091256311351,0.0,0.0,0.0,17,3.948596172254071e-10,0,1735643777088284730,map,1.008653053281274,-0.2546281681677022,0.2381745304939104,-0.4941895970590714,0.5313689541271671,-0.4781847411327682,0.4947353131687502,0.0,0.0,0.0,121,0.341178297996521,0,1735643777088297367,map,1.0129301994477309,0.2183661332323466,0.2429610328506882,-0.5087947220665213,0.4880240301122149,-0.4976561006949038,0.5052710977994171,0.0,0.0,0.0,122,1.6217245374285788e-14,0,1735643777088310956,map,0.9993988384773816,0.2098454415689872,0.1456698365024392,-0.4726580733276727,0.5006983635304515,-0.4909000492019901,0.5337720826060357,0.0,0.0,0.0,124,2.2837160222784203e-15,0,1735643777088322877,map,1.0041967489482186,-0.0212993644939493,0.2434642317695195,0.5074171209767141,-0.5030850137026707,0.4915652462168893,-0.4977920680758337,0.0,0.0,0.0,125,2.082504943246022e-05,0,1735643777088343858,map,1.0110799411203824,-0.0145916347429288,0.144078459672907,-0.5162973278826013,0.4749701675623025,-0.4794936844484979,0.5271870784846013,0.0,0.0,0.0,126,1.9914598397008376e-06,0,1735644242188269615,map,0.9704950857031184,0.3295010515165649,0.0303975376303118,-0.4923837045366939,0.4989796070636336,-0.4863826498024485,0.5215453548949438,0.0,0.0,0.0,0,8.627289726389116e-24,0.9289984782119264,-0.330323484946831,0.3393222391602716,1.0,0.0002874075041073,-0.0010736606635795,-0.0040821822354358,0.0,0.0,0.0,-0.0010736606635795,0.0086715711297897,0.0142628975236994,0.0,0.0,0.0,-0.0040821822354358,0.0142628975236994,0.0581900631725203,0.0,0.0,0.0,0.0,0.0,0.0,0.0,0.0,0.0,0.0,0.0,0.0,0.0,0.0,0.0,0.0,0.0,0.0,0.0,0.0,0.0,0,0,0,1,11,,121
1.098712728,0,1735643777088230371,map,0.9748384614085842,-0.2212463599019382,0.0240002450634252,0.4685889872897309,-0.5086680009035836,0.5308361513383613,-0.4897899613914238,0.0,0.0,0.0,1,0.017916802316904,0,1735643777088253974,map,0.9727687935338284,-0.2497677891873782,0.1509683286484856,-0.4972291708780356,0.46309354336748,-0.496842177819653,0.5398660686306537,0.0,0.0,0.0,16,0.1782173961400985,0,1735643777088270664,map,0.982573400393438,0.0563453470727368,0.0266362819975646,-0.4920209390781153,0.5015066363643704,-0.4981405193129327,0.5081953484732288,0.0,0.0,0.0,17,5.314808593226417e-10,0,1735643777088284730,map,1.0041873253847018,-0.2548093914082495,0.2373699710797947,-0.4866421190372075,0.5022978203295566,-0.498618500984284,0.5121093029298909,0.0,0.0,0.0,121,0.3791228532791137,0,1735643777088297367,map,1.0006998429702811,0.2118817135443386,0.2423105007304991,0.5083776489993699,-0.5036994915035349,0.4974402569535995,-0.4902980512085385,0.0,0.0,0.0,122,3.2130765062476924e-14,0,1735643777088310956,map,1.0008438778743898,0.2120162166325582,0.1439241456315171,-0.4842828292137265,0.5050070926740362,-0.4849828172189753,0.524623336004044,0.0,0.0,0.0,124,1.7739120905562377e-15,0,1735643777088322877,map,0.9980978651940262,-0.0225430556663239,0.2425736827831844,-0.4769931922241293,0.5191764795251507,-0.5179090717300395,0.4844620429914346,0.0,0.0,0.0,125,2.626780224090908e-05,0,1735643777088343858,map,0.9910102848839673,-0.0189585630332236,0.1463886547024358,0.488286993536549,-0.5000846672308423,0.5167008590473121,-0.4944808993312337,0.0,0.0,0.0,126,3.534527195370174e-06,0,1735644242188269615,map,0.9704950857031184,0.3295010515165649,0.0303975376303118,-0.4923837045366939,0.4989796070636336,-0.4863826498024485,0.5215453548949438,0.0,0.0,0.0,0,8.19036412567526e-24,0.9295020767543954,-0.3269664815761951,0.3310603069134137,1.0,0.0002662466051768,-0.0009655925395649,-0.0037877680498952,0.0,0.0,0.0,-0.0009655925395649,0.0080729043902423,0.0127692340516504,0.0,0.0,0.0,-0.0037877680498952,0.0127692340516504,0.0540917460104454,0.0,0.0,0.0,0.0,0.0,0.0,0.0,0.0,0.0,0.0,0.0,0.0,0.0,0.0,0.0,0.0,0.0,0.0,0.0,0.0,0.0,0,0,0,1,12,,121
1.199064296,0,1735643777088230371,map,0.9774166746316368,-0.2219258057547933,0.0221926762376334,-0.4871920757884506,0.4957701651190517,-0.5067252388449646,0.5099856439001808,0.0,0.0,0.0,1,0.0335511341691017,0,1735643777088253974,map,0.975231317447153,-0.2502947870456132,0.1500669352471683,-0.5217797575591919,0.4812480721477165,-0.4754551844687603,0.5197004379614795,0.0,0.0,0.0,16,0.2495529055595398,0,1735643777088270664,map,0.9907350789993434,0.0598571334310882,0.0224354240874754,-0.4990036701901063,0.4999615481174176,-0.4937730809408452,0.507170515782438,0.0,0.0,0.0,17,2.8532938234349103e-09,0,1735643777088284730,map,0.999525712265104,-0.2544136731716666,0.2366870752598533,-0.4827117542869529,0.4865491758224899,-0.5051903401740062,0.5244444507996436,0.0,0.0,0.0,121,0.4649515151977539,0,1735643777088297367,map,1.0044383494345634,0.2152386597343855,0.2413191327760247,-0.4993670817624006,0.4941621366333172,-0.504340152628465,0.5020730134321051,0.0,0.0,0.0,122,2.1143198682734707e-13,0,1735643777088310956,map,0.9998811397363824,0.2120912553269264,0.1433412589691309,-0.4945525836019932,0.5088237217003544,-0.4726361802715371,0.5226195589393152,0.0,0.0,0.0,124,2.4942038790777037e-14,0,1735643777088322877,map,0.9983823685921184,-0.0225728851258648,0.2420963347367632,-0.4853804278344213,0.5094080934452839,-0.5090330297384809,0.4957767736017667,0.0,0.0,0.0,125,7.13849367457442e-05,0,1735643777088343858,map,0.9894530765138904,-0.0194012808110084,0.1456232060073554,-0.4766524847324123,0.4880853808417619,-0.5303867370160726,0.5032543879633963,0.0,0.0,0.0,126,1.289518149860669e-05,0,1735644242188269615,map,0.9704950857031184,0.3295010515165649,0.0303975376303118,-0.4923837045366939,0.4989796070636336,-0.4863826498024485,0.5215453548949438,0.0,0.0,0.0,0,4.951354007855126e-22,0.9303498533123438,-0.3228985413342923,0.3174871038938248,1.0,0.0002543907981927,-0.0008499317378529,-0.0036344857968617,0.0,0.0,0.0,-0.0008499317378529,0.0076504893985793,0.0111244055331477,0.0,0.0,0.0,-0.0036344857968617,0.0111244055331477,0.0521416245537121,0.0,0.0,0.0,0.0,0.0,0.0,0.0,0.0,0.0,0.0,0.0,0.0,0.0,0.0,0.0,0.0,0.0,0.0,0.0,0.0,0.0,0,0,0,1,13,,121
1.300097654,0,1735643777088230371,map,0.970742043810224,-0.2212793545376112,0.0242801692518794,-0.497597090612419,0.4870435980022148,-0.4839635413952966,0.5300612791548132,0.0,0.0,0.0,1,0.0356570966541767,0,1735643777088253974,map,0.9799641230338634,-0.2511690242784041,0.148916631632041,0.4813155837340763,-0.5159262354895907,0.5183282619432354,-0.483209314127087,0.0,0.0,0.0,16,0.2655592858791351,0,1735643777088270664,map,0.9802418419438552,0.0572029597518563,0.0260056830122419,-0.4995016885905951,0.4989813690483892,-0.4907937827969812,0.5105263158795738,0.0,0.0,0.0,17,2.623569139714732e-09,0,1735643777088284730,map,0.9900952163248744,-0.2531907494469418,0.2375510914499007,0.5466536634797233,-0.5400899521660859,0.4278367758487996,-0.4758448371105194,0.0,0.0,0.0,121,0.4774738252162933,0,1735643777088297367,map,0.996307060292612,0.2123722769132638,0.2421790110375058,0.508375079561096,-0.5064509270247229,0.4981732000259317,-0.4867090504325674,0.0,0.0,0.0,122,1.1690582041919836e-13,0,1735643777088310956,map,0.9918259467322376,0.2091485624586902,0.1446241690149657,-0.4789594159296189,0.5037400849390667,-0.4872523370396863,0.5286104092498606,0.0,0.0,0.0,124,1.4328776948052853e-14,0,1735643777088322877,map,0.9935401181072988,-0.0223661853668068,0.242361614635126,0.5050470045253261,-0.5046791375014513,0.4936884345524615,-0.4964858718835077,0.0,0.0,0.0,125,5.83299515710678e-05,0,1735643777088343858,map,0.9928417667002094,-0.0187547073560381,0.1454187940851166,0.5000924868281362,-0.5034869718582117,0.5042764931559024,-0.4920503960342721,0.0,0.0,0.0,126,1.0106250556418672e-05,0,1735644242188269615,map,0.9704950857031184,0.3295010515165649,0.0303975376303118,-0.4923837045366939,0.4989796070636336,-0.4863826498024485,0.5215453548949438,0.0,0.0,0.0,0,1.1098075130061149e-22,0.9308691216842232,-0.3212984842702686,0.3093622055638098,1.0,0.0002397253422397,-0.0007784211606611,-0.0034297267039721,0.0,0.0,0.0,-0.0007784211606611,0.0071373082440151,0.0101608012253464,0.0,0.0,0.0,-0.0034297267039721,0.0101608012253464,0.0492754044472255,0.0,0.0,0.0,0.0,0.0,0.0,0.0,0.0,0.0,0.0,0.0,0.0,0.0,0.0,0.0,0.0,0.0,0.0,0.0,0.0,0.0,0,0,0,1,14,,121
1.39937019,0,1735643777088230371,map,0.9741999785672598,-0.222679680665891,0.0238088653975047,-0.4874142719060681,0.4933963272561027,-0.5041009415380134,0.5146548673946006,0.0,0.0,0.0,1,0.0287888329476118,0,1735643777088253974,map,0.9805531963930592,-0.2523190313271963,0.1497850342475395,0.5282238088651037,-0.5233551343551173,0.458093231562949,-0.4870622160344547,0.0,0.0,0.0,16,0.2466298043727874,0,1735643777088270664,map,0.9839530339403204,0.0582629803016781,0.0252080642286373,-0.5034915401123502,0.4908518105069706,-0.4859425655246996,0.5190574073920875,0.0,0.0,0.0,17,5.474078967893091e-10,0,1735643777088284730,map,0.9977511163389358,-0.2551866825484782,0.2382023195387161,0.4218630318682349,-0.546978667252389,0.5626582788988217,-0.4541603033074957,0.0,0.0,0.0,121,0.4651665687561035,0,1735643777088297367,map,0.9968135151799572,0.2127720589577953,0.2432353648425177,-0.4908768867256415,0.4960875841290144,-0.509465134902243,0.5033709042749879,0.0,0.0,0.0,122,1.3231149303353368e-14,0,1735643777088310956,map,0.9930394091510842,0.2101769056176082,0.1453728771427391,-0.4833911359381274,0.506344722860311,-0.4825996128262098,0.5263512563183964,0.0,0.0,0.0,124,1.28476845708789e-15,0,1735643777088322877,map,0.9873385826899518,-0.0247106520321861,0.24403587654745,-0.5143493878436901,0.531335872499345,-0.4832472016040428,0.4686139562177409,0.0,0.0,0.0,125,3.370514968992211e-05,0,1735643777088343858,map,0.9926322879586492,-0.0182124941612607,0.1463238681349898,0.737195731364991,-0.4168483925992532,0.2656419541868182,-0.4606671503596312,0.0,0.0,0.0,126,4.2041242522827815e-06,0,1735644242188269615,map,0.9704950857031184,0.3295010515165649,0.0303975376303118,-0.4923837045366939,0.4989796070636336,-0.4863826498024485,0.5215453548949438,0.0,0.0,0.0,0,2.931712807402053e-24,0.93099549569295,-0.3224648277574499,0.3077142489153927,1.0,0.0002239672382182,-0.0007285899536454,-0.0032039938814708,0.0,0.0,0.0,-0.0007285899536454,0.0066805326942353,0.0095103236460466,0.0,0.0,0.0,-0.0032039938814708,0.0095103236460466,0.046028398139688,0.0,0.0,0.0,0.0,0.0,0.0,0.0,0.0,0.0,0.0,0.0,0.0,0.0,0.0,0.0,0.0,0.0,0.0,0.0,0.0,0.0,0,0,0,1,15,,121
1.499058452,0,1735643777088230371,map,0.9703473255495304,-0.222540847961645,0.0244865183300615,-0.491702779710583,0.4979162172836263,-0.506267286206778,0.5039853687436524,0.0,0.0,0.0,1,0.0223562624305486,0,1735643777088253974,map,0.9695369838470104,-0.2511318149677213,0.151610831202018,-0.5093927915381062,0.4808814365348658,-0.4762839127772895,0.5314373550614738,0.0,0.0,0.0,16,0.2152179181575775,0,1735643777088270664,map,0.9761415734054276,0.0550835686660289,0.0276195746950954,-0.4886919665127552,0.5014470494376929,-0.5017755723747183,0.5078900407018748,0.0,0.0,0.0,17,2.3473620269776063e-10,0,1735643777088284730,map,0.9889118686690712,-0.2541077729570789,0.2383907467075412,-0.4414313940166662,0.6442609716467063,-0.5025802193720588,0.3707819411531226,0.0,0.0,0.0,121,0.4209856390953064,0,1735643777088297367,map,1.0003724630299928,0.2161207376200967,0.2426880050908201,0.4945844919834464,-0.4992756750878051,0.5061008954605215,-0.4999718633774814,0.0,0.0,0.0,122,1.377763251454874e-15,0,1735643777088310956,map,0.9877246020068716,0.2077265221403832,0.1458931316993541,-0.4766500206179214,0.5027140752926331,-0.49083765344837,0.5283575629295999,0.0,0.0,0.0,124,2.5730348955501443e-16,0,1735643777088322877,map,0.9908374139477896,-0.0231022076336732,0.2434843029288969,-0.5160029109543328,0.5311250959654095,-0.4818627136529365,0.4684607278240276,0.0,0.0,0.0,125,1.5498553693760186e-05,0,1735643777088343858,map,0.9991007854287148,-0.0172097595315094,0.1457827667269895,-0.5047142589886894,0.4817295269579916,-0.4898189073576881,0.5227596174392664,0.0,0.0,0.0,126,1.801066559892206e-06,0,1735644242188269615,map,0.9704950857031184,0.3295010515165649,0.0303975376303118,-0.4923837045366939,0.4989796070636336,-0.4863826498024485,0.5215453548949438,0.0,0.0,0.0,0,1.5539036345230724e-25,0.9307455671124764,-0.3238204121915239,0.3117487946927979,1.0,0.0002109062502596,-0.0006779710921428,-0.0030188694883639,0.0,0.0,0.0,-0.0006779710921428,0.0062905635382142,0.0088338909063525,0.0,0.0,0.0,-0.0030188694883639,0.0088338909063525,0.0433957866504072,0.0,0.0,0.0,0.0,0.0,0.0,0.0,0.0,0.0,0.0,0.0,0.0,0.0,0.0,0.0,0.0,0.0,0.0,0.0,0.0,0.0,0,0,0,1,16,,121
1.600426584,0,1735643777088230371,map,0.97153183994394,-0.2233558018334211,0.0266984728084192,-0.4780244813907693,0.4881859363203668,-0.5102612176312897,0.5223031462202072,0.0,0.0,0.0,1,0.0203395262360572,0,1735643777088253974,map,0.9690486241675018,-0.251866847479742,0.1543501858062129,-0.4962664395200595,0.4633273404639391,-0.4954565800582636,0.5418211640953738,0.0,0.0,0.0,16,0.2020116448402404,0,1735643777088270664,map,0.9764145848292952,0.0551647656085986,0.0299973614175118,-0.4774667915461677,0.4985098234747872,-0.5033437615650056,0.5197677140447803,0.0,0.0,0.0,17,1.4919397661738998e-10,0,1735643777088284730,map,0.9990545868783474,-0.2561942914468904,0.239954644803608,-0.443465031071417,0.48828962664975,-0.5512572476993435,0.5109084591020394,0.0,0.0,0.0,121,0.4071782231330871,0,1735643777088297367,map,1.0003724630299928,0.2161207376200967,0.2426880050908201,0.4945844919834464,-0.4992756750878051,0.5061008954605215,-0.4999718633774814,0.0,0.0,0.0,122,5.30457612531117e-16,0,1735643777088310956,map,0.9877246020068716,0.2077265221403832,0.1458931316993541,-0.4766500206179214,0.5027140752926331,-0.49083765344837,0.5283575629295999,0.0,0.0,0.0,124,1.0605643946033931e-16,0,1735643777088322877,map,1.0029447571115353,-0.0198203065172732,0.2451090826632126,-0.500985911600354,0.5014258139645061,-0.4936529806737539,0.5038769732185765,0.0,0.0,0.0,125,8.402746971114539e-06,0,1735643777088343858,map,0.9957273568449324,-0.0166120374665529,0.1465442888289498,-0.4929458593132169,0.4778660397889585,-0.5042251796901791,0.5238371845991644,0.0,0.0,0.0,126,1.1716829249053262e-06,0,1735644242188269615,map,0.9704950857031184,0.3295010515165649,0.0303975376303118,-0.4923837045366939,0.4989796070636336,-0.4863826498024485,0.5215453548949438,0.0,0.0,0.0,0,4.8707920770031916e-26,0.9302432588819748,-0.325652437163594,0.3196684996984339,1.0,0.0002025370171792,-0.0006233665801125,-0.0029049390583445,0.0,0.0,0.0,-0.0006233665801125,0.0059742314368801,0.0080821047073343,0.0,0.0,0.0,-0.0029049390583445,0.0080821047073343,0.041846640956051,0.0,0.0,0.0,0.0,0.0,0.0,0.0,0.0,0.0,0.0,0.0,0.0,0.0,0.0,0.0,0.0,0.0,0.0,0.0,0.0,0.0,0,0,0,1,17,,121
1.699936288,0,1735643777088230371,map,0.9666701898272976,-0.2224474461747516,0.0283434247915106,-0.4758468581303706,0.4909687079266648,-0.5222423929993295,0.5096885111502998,0.0,0.0,0.0,1,0.0168955009430646,0,1735643777088253974,map,0.9742848420900884,-0.2519909157502663,0.152524103213941,-0.4929590762817755,0.4830077427048123,-0.4978832221439581,0.5251734634443841,0.0,0.0,0.0,16,0.1877124607563018,0,1735643777088270664,map,0.983473309250844,0.0597878355465483,0.0254800502338108,-0.4918313092020055,0.4890565928208757,-0.4896552306607445,0.5283591272928383,0.0,0.0,0.0,17,3.2371418046128746e-11,0,1735643777088284730,map,0.9965949063384048,-0.2553215460699025,0.2391822252053174,0.4320680786637108,-0.509244644570042,0.5578550920222377,-0.4927319389703103,0.0,0.0,0.0,121,0.3917925655841827,0,1735643777088297367,map,1.0003724630299928,0.2161207376200967,0.2426880050908201,0.4945844919834464,-0.4992756750878051,0.5061008954605215,-0.4999718633774814,0.0,0.0,0.0,122,1.462627111863368e-16,0,1735643777088310956,map,0.9877246020068716,0.2077265221403832,0.1458931316993541,-0.4766500206179214,0.5027140752926331,-0.49083765344837,0.5283575629295999,0.0,0.0,0.0,124,2.5708758548897077e-17,0,1735643777088322877,map,0.996150037639762,-0.0204553832832113,0.2446353565609307,-0.498773290259225,0.4855545551402067,-0.4959088515612894,0.5191689415303511,0.0,0.0,0.0,125,5.968076493445551e-06,0,1735643777088343858,map,1.0030486449389546,-0.0129043067595817,0.1436812390323678,-0.5050856643416025,0.4786454014150644,-0.4865889810916019,0.5282217478115131,0.0,0.0,0.0,126,4.94047981192125e-07,0,1735644242188269615,map,0.9704950857031184,0.3295010515165649,0.0303975376303118,-0.4923837045366939,0.4989796070636336,-0.4863826498024485,0.5215453548949438,0.0,0.0,0.0,0,4.504139234943385e-27,0.9298837449482354,-0.3227547513842413,0.3244456790577124,1.0,0.0001934822152347,-0.0006064449964653,-0.0027727504183448,0.0,0.0,0.0,-0.0006064449964653,0.0057850715992764,0.0078684258900717,0.0,0.0,0.0,-0.0027727504183448,0.0078684258900717,0.0399097920943259,0.0,0.0,0.0,0.0,0.0,0.0,0.0,0.0,0.0,0.0,0.0,0.0,0.0,0.0,0.0,0.0,0.0,0.0,0.0,0.0,0.0,0,0,0,1,18,,121
1.798966144,0,1735643777088230371,map,0.965619564895124,-0.2211651683409584,0.0268418960780893,-0.4836710443219131,0.4892580396041773,-0.5058138396186652,0.5204241070679283,0.0,0.0,0.0,1,0.0186005681753158,0,1735643777088253974,map,0.9685199586990764,-0.2501503914058532,0.1522607088671775,-0.4871615379216522,0.4917732887570367,-0.511140376011106,0.5094783454143306,0.0,0.0,0.0,16,0.2013964653015136,0,1735643777088270664,map,0.9739083322251404,0.0578692101751595,0.0278797473088125,-0.4890810075453188,0.492159648215669,-0.4947568507921725,0.5232535784119365,0.0,0.0,0.0,17,1.391604470546426e-10,0,1735643777088284730,map,0.9909125999149662,-0.2533809213505056,0.2384622266563953,-0.5153941383612913,0.6030766127506406,-0.4487542182776565,0.4114451760247596,0.0,0.0,0.0,121,0.4180341362953186,0,1735643777088297367,map,1.0003724630299928,0.2161207376200967,0.2426880050908201,0.4945844919834464,-0.4992756750878051,0.5061008954605215,-0.4999718633774814,0.0,0.0,0.0,122,1.1146332075441545e-15,0,1735643777088310956,map,0.9877246020068716,0.2077265221403832,0.1458931316993541,-0.4766500206179214,0.5027140752926331,-0.49083765344837,0.5283575629295999,0.0,0.0,0.0,124,1.9339620364343718e-16,0,1735643777088322877,map,0.9931168962250864,-0.0189722467574559,0.2431599464529023,-0.5114721943031492,0.5003896940245042,-0.4867627843048103,0.5010672014656454,0.0,0.0,0.0,125,1.1577981240407098e-05,0,1735643777088343858,map,0.9855090334753528,-0.0159503783085139,0.1459008308532589,-0.483001620407294,0.4789907764560726,-0.5146840523893971,0.5218980714372925,0.0,0.0,0.0,126,1.5307114153984005e-06,0,1735644242188269615,map,0.9704950857031184,0.3295010515165649,0.0303975376303118,-0.4923837045366939,0.4989796070636336,-0.4863826498024485,0.5215453548949438,0.0,0.0,0.0,0,8.275192804004004e-26,0.9296662255139924,-0.3175787359569081,0.3266113499090398,1.0,0.0001841506054255,-0.0005947927498096,-0.0026352955447705,0.0,0.0,0.0,-0.0005947927498096,0.0059628345893548,0.0076560700349128,0.0,0.0,0.0,-0.0026352955447705,0.0076560700349128,0.0378936990651936,0.0,0.0,0.0,0.0,0.0,0.0,0.0,0.0,0.0,0.0,0.0,0.0,0.0,0.0,0.0,0.0,0.0,0.0,0.0,0.0,0.0,0,0,0,1,19,,121
1.899537649,0,1735643777088230371,map,0.965619564895124,-0.2211651683409584,0.0268418960780893,-0.4836710443219131,0.4892580396041773,-0.5058138396186652,0.5204241070679283,0.0,0.0,0.0,1,0.02699357829988,0,1735643777088253974,map,0.9662866322333106,-0.2500536687683526,0.1527518738135475,-0.4898754443506772,0.4917542154686181,-0.5067699193309169,0.5112573612696514,0.0,0.0,0.0,16,0.2478942424058914,0,1735643777088270664,map,0.9789021787692336,0.0603142604755157,0.0251604454653895,-0.4923281347783736,0.4900159129711755,-0.4898268854966356,0.5268463105928889,0.0,0.0,0.0,17,1.0194469712843102e-09,0,1735643777088284730,map,0.989136652645219,-0.2534197513551965,0.2381554524536669,-0.5068969580640726,0.6024107626603056,-0.4558737208938447,0.4151335899861871,0.0,0.0,0.0,121,0.4877130389213562,0,1735643777088297367,map,1.0003724630299928,0.2161207376200967,0.2426880050908201,0.4945844919834464,-0.4992756750878051,0.5061008954605215,-0.4999718633774814,0.0,0.0,0.0,122,3.720978806651641e-14,0,1735643777088310956,map,0.9877246020068716,0.2077265221403832,0.1458931316993541,-0.4766500206179214,0.5027140752926331,-0.49083765344837,0.5283575629295999,0.0,0.0,0.0,124,7.372703521909413e-15,0,1735643777088322877,map,0.9865629731710932,-0.0209074892304824,0.243244643752664,-0.4990744827137406,0.5028519696948252,-0.4959400774582194,0.5021035718343205,0.0,0.0,0.0,125,4.8686131776776165e-05,0,1735643777088343858,map,0.9831033458410776,-0.0165336862842546,0.1459643617920253,-0.4896136429044859,0.4870962667710557,-0.5124360896791591,0.5103184903311183,0.0,0.0,0.0,126,6.956427569093648e-06,0,1735644242188269615,map,0.9704950857031184,0.3295010515165649,0.0303975376303118,-0.4923837045366939,0.4989796070636336,-0.4863826498024485,0.5215453548949438,0.0,0.0,0.0,0,2.113231831797893e-23,0.9296253572199834,-0.3119819656568359,0.3260391559631959,1.0,0.0001749748092859,-0.0005693989909474,-0.0025030864603142,0.0,0.0,0.0,-0.0005693989909474,0.0062598457779306,0.0072124202096096,0.0,0.0,0.0,-0.0025030864603142,0.0072124202096096,0.0360052348242554,0.0,0.0,0.0,0.0,0.0,0.0,0.0,0.0,0.0,0.0,0.0,0.0,0.0,0.0,0.0,0.0,0.0,0.0,0.0,0.0,0.0,0,0,0,1,20,,121
1.999835274,0,1735643777088230371,map,0.965619564895124,-0.2211651683409584,0.0268418960780893,-0.4836710443219131,0.4892580396041773,-0.5058138396186652,0.5204241070679283,0.0,0.0,0.0,1,0.0383976846933364,0,1735643777088253974,map,0.9662179180364928,-0.2503222680716627,0.1507739616874319,-0.5439239315116826,0.7035434782193986,-0.3575941628251181,0.2851311026479369,0.0,0.0,0.0,16,0.2942677140235901,0,1735643777088270664,map,0.9789021787692336,0.0603142604755157,0.0251604454653895,-0.4923281347783736,0.4900159129711755,-0.4898268854966356,0.5268463105928889,0.0,0.0,0.0,17,6.362694371375711e-09,0,1735643777088284730,map,0.9857744097733352,-0.2535692554712792,0.2360082318948385,0.4696231206872546,-0.5162659324163363,0.5176561835973429,-0.4949299820436107,0.0,0.0,0.0,121,0.548980712890625,0,1735643777088297367,map,1.0003724630299928,0.2161207376200967,0.2426880050908201,0.4945844919834464,-0.4992756750878051,0.5061008954605215,-0.4999718633774814,0.0,0.0,0.0,122,4.510199722376762e-13,0,1735643777088310956,map,0.9877246020068716,0.2077265221403832,0.1458931316993541,-0.4766500206179214,0.5027140752926331,-0.49083765344837,0.5283575629295999,0.0,0.0,0.0,124,1.0771242974156117e-13,0,1735643777088322877,map,0.974877911169325,-0.0233497074505859,0.2422258614810306,-0.5019167928648222,0.5161484027771057,-0.4984108475086625,0.4829668585282333,0.0,0.0,0.0,125,0.0001438744220649,0,1735643777088343858,map,0.9761714692113206,-0.0185110877789375,0.1466700145140521,0.4921544737924633,-0.4951667385844613,0.5143192865252878,-0.4980658053247687,0.0,0.0,0.0,126,2.480957300576847e-05,0,1735644242188269615,map,0.9704950857031184,0.3295010515165649,0.0303975376303118,-0.4923837045366939,0.4989796070636336,-0.4863826498024485,0.5215453548949438,0.0,0.0,0.0,0,1.3424188145326644e-21,0.929787125545509,-0.3074613614752415,0.3226563995686822,1.0,0.0001671660553333,-0.0005276589419068,-0.0023948363237179,0.0,0.0,0.0,-0.0005276589419068,0.0063704751270764,0.0065631295741525,0.0,0.0,0.0,-0.0023948363237179,0.0065631295741525,0.0345195606491167,0.0,0.0,0.0,0.0,0.0,0.0,0.0,0.0,0.0,0.0,0.0,0.0,0.0,0.0,0.0,0.0,0.0,0.0,0.0,0.0,0.0,0,0,0,1,21,,121
2.098660132,0,1735643777088230371,map,0.965619564895124,-0.2211651683409584,0.0268418960780893,-0.4836710443219131,0.4892580396041773,-0.5058138396186652,0.5204241070679283,0.0,0.0,0.0,1,0.0479946061968803,0,1735643777088253974,map,0.9677833969635674,-0.2513010359381015,0.1483685774579725,-0.5069189268116231,0.5107579706102585,-0.4903527989446904,0.4916438036478752,0.0,0.0,0.0,16,0.3299078941345215,0,1735643777088270664,map,0.9789021787692336,0.0603142604755157,0.0251604454653895,-0.4923281347783736,0.4900159129711755,-0.4898268854966356,0.5268463105928889,0.0,0.0,0.0,17,1.2648275315996216e-08,0,1735643777088284730,map,0.9815918233731036,-0.2537784613478233,0.2354169284678134,-0.4945990676559221,0.5122551898955604,-0.4839455060636586,0.5086876545187089,0.0,0.0,0.0,121,0.5919601321220398,0,1735643777088297367,map,1.0003724630299928,0.2161207376200967,0.2426880050908201,0.4945844919834464,-0.4992756750878051,0.5061008954605215,-0.4999718633774814,0.0,0.0,0.0,122,8.215106654836657e-13,0,1735643777088310956,map,0.9877246020068716,0.2077265221403832,0.1458931316993541,-0.4766500206179214,0.5027140752926331,-0.49083765344837,0.5283575629295999,0.0,0.0,0.0,124,2.280200496734136e-13,0,1735643777088322877,map,0.9767890076187328,-0.0222827505355076,0.2409796199240346,-0.4985556313337091,0.5047152996655029,-0.4964700044725135,0.5002222340201108,0.0,0.0,0.0,125,0.0001812222471926,0,1735643777088343858,map,0.9714322377109664,-0.0190265976580305,0.1451048863887253,0.493898625537798,-0.4981609593887419,0.5134381547712366,-0.4942479817438508,0.0,0.0,0.0,126,3.791538620134816e-05,0,1735644242188269615,map,0.9704950857031184,0.3295010515165649,0.0303975376303118,-0.4923837045366939,0.4989796070636336,-0.4863826498024485,0.5215453548949438,0.0,0.0,0.0,0,4.357720348971113e-21,0.9301442914656812,-0.3050614959730586,0.3167927903019203,1.0,0.0001622465156578,-0.0004856742909695,-0.0023299600365704,0.0,0.0,0.0,-0.0004856742909695,0.0062018545188456,0.0059692961570509,0.0,0.0,0.0,-0.0023299600365704,0.0059692961570509,0.0336725098968188,0.0,0.0,0.0,0.0,0.0,0.0,0.0,0.0,0.0,0.0,0.0,0.0,0.0,0.0,0.0,0.0,0.0,0.0,0.0,0.0,0.0,0,0,0,1,22,,121
2.200215619,0,1735643777088230371,map,0.965619564895124,-0.2211651683409584,0.0268418960780893,-0.4836710443219131,0.4892580396041773,-0.5058138396186652,0.5204241070679283,0.0,0.0,0.0,1,0.0670191273093223,0,1735643777088253974,map,0.9600511007704664,-0.2501283907491345,0.1507566104633009,-0.5070093493198901,0.4904626764586585,-0.4781893192873184,0.5231852995094204,0.0,0.0,0.0,16,0.389323353767395,0,1735643777088270664,map,0.9789021787692336,0.0603142604755157,0.0251604454653895,-0.4923281347783736,0.4900159129711755,-0.4898268854966356,0.5268463105928889,0.0,0.0,0.0,17,8.232798620610994e-08,0,1735643777088284730,map,0.983818714976354,-0.2536248213569794,0.2353536679134188,-0.4916435296078026,0.6201577631675295,-0.4666128437322147,0.3949220716064932,0.0,0.0,0.0,121,0.657918393611908,0,1735643777088297367,map,1.0003724630299928,0.2161207376200967,0.2426880050908201,0.4945844919834464,-0.4992756750878051,0.5061008954605215,-0.4999718633774814,0.0,0.0,0.0,122,1.0712607884100224e-11,0,1735643777088310956,map,0.9877246020068716,0.2077265221403832,0.1458931316993541,-0.4766500206179214,0.5027140752926331,-0.49083765344837,0.5283575629295999,0.0,0.0,0.0,124,3.6356746606347464e-12,0,1735643777088322877,map,0.976312375440622,-0.0216900502045188,0.2411236374583858,0.5099951403054768,-0.5083259622286282,0.4867416790768285,-0.4945626460203053,0.0,0.0,0.0,125,0.0004512779705692,0,1735643777088343858,map,0.972355606950286,-0.0178192291819454,0.144836410677038,-0.4919822253950809,0.4888990379913484,-0.5114788765849427,0.5072677590324887,0.0,0.0,0.0,126,0.0001084067407646,0,1735644242188269615,map,0.9704950857031184,0.3295010515165649,0.0303975376303118,-0.4923837045366939,0.4989796070636336,-0.4863826498024485,0.5215453548949438,0.0,0.0,0.0,0,3.344896867856645e-19,0.930334755511978,-0.3004345178040533,0.3129572362417981,1.0,0.0001559904034894,-0.0004451700117968,-0.0022447291994985,0.0,0.0,0.0,-0.0004451700117968,0.0064032050636821,0.005319326993678,0.0,0.0,0.0,-0.0022447291994985,0.005319326993678,0.0325321401762506,0.0,0.0,0.0,0.0,0.0,0.0,0.0,0.0,0.0,0.0,0.0,0.0,0.0,0.0,0.0,0.0,0.0,0.0,0.0,0.0,0.0,0,0,0,0,23,,121
2.299242951,0,1735643777088230371,map,0.965619564895124,-0.2211651683409584,0.0268418960780893,-0.4836710443219131,0.4892580396041773,-0.5058138396186652,0.5204241070679283,0.0,0.0,0.0,1,0.0868107080459594,0,1735643777088253974,map,0.96174124213455,-0.2505838022850013,0.1504966238550796,-0.5091051505330434,0.4990714439097694,-0.4781650908071422,0.5129305854674125,0.0,0.0,0.0,16,0.4429312944412231,0,1735643777088270664,map,0.9789021787692336,0.0603142604755157,0.0251604454653895,-0.4923281347783736,0.4900159129711755,-0.4898268854966356,0.5268463105928889,0.0,0.0,0.0,17,3.507973076466442e-07,0,1735643777088284730,map,0.9820739449001408,-0.2538423116283141,0.2357173510943491,-0.479356567797118,0.5169121327938646,-0.5069511559009819,0.4960036828602419,0.0,0.0,0.0,121,0.7167852520942688,0,1735643777088297367,map,1.0003724630299928,0.2161207376200967,0.2426880050908201,0.4945844919834464,-0.4992756750878051,0.5061008954605215,-0.4999718633774814,0.0,0.0,0.0,122,7.520162964569366e-11,0,1735643777088310956,map,0.9877246020068716,0.2077265221403832,0.1458931316993541,-0.4766500206179214,0.5027140752926331,-0.49083765344837,0.5283575629295999,0.0,0.0,0.0,124,3.0182641108655866e-11,0,1735643777088322877,map,0.9805961281652772,-0.0198554790101381,0.2406191873516924,0.5194169615661636,-0.5059699755068514,0.4753104497086273,-0.4982774130148321,0.0,0.0,0.0,125,0.0008475745562463,0,1735643777088343858,map,0.9744131593886184,-0.0168686330465431,0.1441794746324825,-0.4964689181013431,0.4915065700080145,-0.5039736628222182,0.5078882280382128,0.0,0.0,0.0,126,0.0002448209561407,0,1735644242188269615,map,0.9704950857031184,0.3295010515165649,0.0303975376303118,-0.4923837045366939,0.4989796070636336,-0.4863826498024485,0.5215453548949438,0.0,0.0,0.0,0,9.277905077397912e-18,0.9305299603439106,-0.2961065049185661,0.3091138960577603,1.0,0.0001503672166514,-0.0004071897336633,-0.0021684543034038,0.0,0.0,0.0,-0.0004071897336633,0.006567233850045,0.0047151057746254,0.0,0.0,0.0,-0.0021684543034038,0.0047151057746254,0.0315163734022889,0.0,0.0,0.0,0.0,0.0,0.0,0.0,0.0,0.0,0.0,0.0,0.0,0.0,0.0,0.0,0.0,0.0,0.0,0.0,0.0,0.0,0,0,0,0,24,,121
2.399835885,0,1735643777088230371,map,0.965619564895124,-0.2211651683409584,0.0268418960780893,-0.4836710443219131,0.4892580396041773,-0.5058138396186652,0.5204241070679283,0.0,0.0,0.0,1,0.1005361154675483,0,1735643777088253974,map,0.9606695083451672,-0.250968264413245,0.1503259194116016,-0.500075157790051,0.5000300445551983,-0.4948143115568358,0.5050283043374078,0.0,0.0,0.0,16,0.479281485080719,0,1735643777088270664,map,0.9789021787692336,0.0603142604755157,0.0251604454653895,-0.4923281347783736,0.4900159129711755,-0.4898268854966356,0.5268463105928889,0.0,0.0,0.0,17,8.448193398180592e-07,0,1735643777088284730,map,0.9769077433341028,-0.2536795958502919,0.2360447058298105,-0.488679926474269,0.5135284333113402,-0.4934078441593867,0.5040130722152851,0.0,0.0,0.0,121,0.7559202909469604,0,1735643777088297367,map,1.0003724630299928,0.2161207376200967,0.2426880050908201,0.4945844919834464,-0.4992756750878051,0.5061008954605215,-0.4999718633774814,0.0,0.0,0.0,122,2.4929658337669025e-10,0,1735643777088310956,map,0.9877246020068716,0.2077265221403832,0.1458931316993541,-0.4766500206179214,0.5027140752926331,-0.49083765344837,0.5283575629295999,0.0,0.0,0.0,124,1.0992649845942282e-10,0,1735643777088322877,map,0.9722619024255056,-0.0224294165499995,0.24137095896285,-0.4977647216592392,0.4919829557140245,-0.4949985170879595,0.5149364244633639,0.0,0.0,0.0,125,0.0015308908186852,0,1735643777088343858,map,0.9692755093941084,-0.0182490982002189,0.1451700782969485,-0.4998274015035505,0.4914718155602405,-0.4994474751275899,0.509097478686357,0.0,0.0,0.0,126,0.0004590947355609,0,1735644242188269615,map,0.9704950857031184,0.3295010515165649,0.0303975376303118,-0.4923837045366939,0.4989796070636336,-0.4863826498024485,0.5215453548949438,0.0,0.0,0.0,0,6.806746837968207e-17,0.9306554102207552,-0.2922320744918059,0.3064125260528104,1.0,0.0001447302321038,-0.0003792370206396,-0.0020898494080941,0.0,0.0,0.0,-0.0003792370206396,0.0066648135632066,0.0042753110602536,0.0,0.0,0.0,-0.0020898494080941,0.0042753110602536,0.0304308560638848,0.0,0.0,0.0,0.0,0.0,0.0,0.0,0.0,0.0,0.0,0.0,0.0,0.0,0.0,0.0,0.0,0.0,0.0,0.0,0.0,0.0,0,0,0,0,25,,121
2.500017602,0,1735643777088230371,map,0.965619564895124,-0.2211651683409584,0.0268418960780893,-0.4836710443219131,0.4892580396041773,-0.5058138396186652,0.5204241070679283,0.0,0.0,0.0,1,0.1157392561435699,0,1735643777088253974,map,0.961401900865378,-0.2514943973175542,0.1486817782901238,-0.495871631894338,0.505748790417219,-0.4989256269900884,0.4994023472176651,0.0,0.0,0.0,16,0.5107343196868896,0,1735643777088270664,map,0.9789021787692336,0.0603142604755157,0.0251604454653895,-0.4923281347783736,0.4900159129711755,-0.4898268854966356,0.5268463105928889,0.0,0.0,0.0,17,1.6170447452168446e-06,0,1735643777088284730,map,0.9757798974018852,-0.2539892261800592,0.2354121821834838,-0.4839457777686489,0.521422059954378,-0.5002974748960018,0.4935766973688236,0.0,0.0,0.0,121,0.7900099754333496,0,1735643777088297367,map,1.0003724630299928,0.2161207376200967,0.2426880050908201,0.4945844919834464,-0.4992756750878051,0.5061008954605215,-0.4999718633774814,0.0,0.0,0.0,122,5.163102168026511e-10,0,1735643777088310956,map,0.9877246020068716,0.2077265221403832,0.1458931316993541,-0.4766500206179214,0.5027140752926331,-0.49083765344837,0.5283575629295999,0.0,0.0,0.0,124,2.5461582842112307e-10,0,1735643777088322877,map,0.9690302455509148,-0.0229987432674763,0.2411196710947674,-0.5045251176948428,0.5021711376021808,-0.4913498801059842,0.5018504254199373,0.0,0.0,0.0,125,0.0021308595314621,0,1735643777088343858,map,0.9700537397432571,-0.0168993872147775,0.1433521602191706,-0.501997289724902,0.492370773321334,-0.4977806450920881,0.5077245040959805,0.0,0.0,0.0,126,0.0006242295494303,0,1735644242188269615,map,0.9704950857031184,0.3295010515165649,0.0303975376303118,-0.4923837045366939,0.4989796070636336,-0.4863826498024485,0.5215453548949438,0.0,0.0,0.0,0,2.5486392878780364e-16,0.9308748162510712,-0.2891240888512658,0.3024646164504009,1.0,0.0001403671598686,-0.0003476032115925,-0.0020311254640536,0.0,0.0,0.0,-0.0003476032115925,0.0066499639485514,0.0038041248606136,0.0,0.0,0.0,-0.0020311254640536,0.0038041248606136,0.0296500882786861,0.0,0.0,0.0,0.0,0.0,0.0,0.0,0.0,0.0,0.0,0.0,0.0,0.0,0.0,0.0,0.0,0.0,0.0,0.0,0.0,0.0,0,0,0,0,26,,121
