%time,field.boxes0.header.seq,field.boxes0.header.stamp,field.boxes0.header.frame_id,field.boxes0.pose.position.x,field.boxes0.pose.position.y,field.boxes0.pose.position.z,field.boxes0.pose.orientation.x,field.boxes0.pose.orientation.y,field.boxes0.pose.orientation.z,field.boxes0.pose.orientation.w,field.boxes0.scale.x,field.boxes0.scale.y,field.boxes0.scale.z,field.boxes0.id,field.boxes0.pdf,field.boxes1.header.seq,field.boxes1.header.stamp,field.boxes1.header.frame_id,field.boxes1.pose.position.x,field.boxes1.pose.position.y,field.boxes1.pose.position.z,field.boxes1.pose.orientation.x,field.boxes1.pose.orientation.y,field.boxes1.pose.orientation.z,field.boxes1.pose.orientation.w,field.boxes1.scale.x,field.boxes1.scale.y,field.boxes1.scale.z,field.boxes1.id,field.boxes1.pdf,field.boxes2.header.seq,field.boxes2.header.stamp,field.boxes2.header.frame_id,field.boxes2.pose.position.x,field.boxes2.pose.position.y,field.boxes2.pose.position.z,field.boxes2.pose.orientation.x,field.boxes2.pose.orientation.y,field.boxes2.pose.orientation.z,field.boxes2.pose.orientation.w,field.boxes2.scale.x,field.boxes2.scale.y,field.boxes2.scale.z,field.boxes2.id,field.boxes2.pdf,field.boxes3.header.seq,field.boxes3.header.stamp,field.boxes3.header.frame_id,field.boxes3.pose.position.x,field.boxes3.pose.position.y,field.boxes3.pose.position.z,field.boxes3.pose.orientation.x,field.boxes3.pose.orientation.y,field.boxes3.pose.orientation.z,field.boxes3.pose.orientation.w,field.boxes3.scale.x,field.boxes3.scale.y,field.boxes3.scale.z,field.boxes3.id,field.boxes3.pdf,field.boxes4.header.seq,field.boxes4.header.stamp,field.boxes4.header.frame_id,field.boxes4.pose.position.x,field.boxes4.pose.position.y,field.boxes4.pose.position.z,field.boxes4.pose.orientation.x,field.boxes4.pose.orientation.y,field.boxes4.pose.orientation.z,field.boxes4.pose.orientation.w,field.boxes4.scale.x,field.boxes4.scale.y,field.boxes4.scale.z,field.boxes4.id,field.boxes4.pdf,field.boxes5.header.seq,field.boxes5.header.stamp,field.boxes5.header.frame_id,field.boxes5.pose.position.x,field.boxes5.pose.position.y,field.boxes5.pose.position.z,field.boxes5.pose.orientation.x,field.boxes5.pose.orientation.y,field.boxes5.pose.orientation.z,field.boxes5.pose.orientation.w,field.boxes5.scale.x,field.boxes5.scale.y,field.boxes5.scale.z,field.boxes5.id,field.boxes5.pdf,field.boxes6.header.seq,field.boxes6.header.stamp,field.boxes6.header.frame_id,field.boxes6.pose.position.x,field.boxes6.pose.position.y,field.boxes6.pose.position.z,field.boxes6.pose.orientation.x,field.boxes6.pose.orientation.y,field.boxes6.pose.orientation.z,field.boxes6.pose.orientation.w,field.boxes6.scale.x,field.boxes6.scale.y,field.boxes6.scale.z,field.boxes6.id,field.boxes6.pdf,field.boxes7.header.seq,field.boxes7.header.stamp,field.boxes7.header.frame_id,field.boxes7.pose.position.x,field.boxes7.pose.position.y,field.boxes7.pose.position.z,field.boxes7.pose.orientation.x,field.boxes7.pose.orientation.y,field.boxes7.pose.orientation.z,field.boxes7.pose.orientation.w,field.boxes7.scale.x,field.boxes7.scale.y,field.boxes7.scale.z,field.boxes7.id,field.boxes7.pdf,field.boxes8.header.seq,field.boxes8.header.stamp,field.boxes8.header.frame_id,field.boxes8.pose.position.x,field.boxes8.pose.position.y,field.boxes8.pose.position.z,field.boxes8.pose.orientation.x,field.boxes8.pose.orientation.y,field.boxes8.pose.orientation.z,field.boxes8.pose.orientation.w,field.boxes8.scale.x,field.boxes8.scale.y,field.boxes8.scale.z,field.boxes8.id,field.boxes8.pdf,field.pose.pose.position.x,field.pose.pose.position.y,field.pose.pose.position.z,field.pose.pose.orientation.w,field.pose.covariance0,field.pose.covariance1,field.pose.covariance2,field.pose.covariance3,field.pose.covariance4,field.pose.covariance5,field.pose.covariance6,field.pose.covariance7,field.pose.covariance8,field.pose.covariance9,field.pose.covariance10,field.pose.covariance11,field.pose.covariance12,field.pose.covariance13,field.pose.covariance14,field.pose.covariance15,field.pose.covariance16,field.pose.covariance17,field.pose.covariance18,field.pose.covariance19,field.pose.covariance20,field.pose.covariance21,field.pose.covariance22,field.pose.covariance23,field.pose.covariance24,field.pose.covariance25,field.pose.covariance26,field.pose.covariance27,field.pose.covariance28,field.pose.covariance29,field.pose.covariance30,field.pose.covariance31,field.pose.covariance32,field.pose.covariance33,field.pose.covariance34,field.pose.covariance35,field.buttons0,field.buttons1,field.buttons2,field.buttons3,intersection_length,vacuum,desired_box
0.0,0,1735643777088230371,map,0.9786007647830872,-0.2202030022895616,0.0230766768616484,-0.4943455357525796,0.4857550778300592,-0.4943351269163007,0.524687790919946,0.0,0.0,0.0,1,0.1111111119389534,0,1735643777088253974,map,0.985600341601372,-0.2497216083787604,0.1488856881306532,-0.4542819566539738,0.6616468062039711,-0.4848621337325894,0.3475055668201625,0.0,0.0,0.0,16,0.1111111119389534,0,1735643777088270664,map,0.991687999321933,0.0583481323531153,0.0247147541727152,-0.5067504038305466,0.502900804096209,-0.4892661732519273,0.5009125883508814,0.0,0.0,0.0,17,0.1111111119389534,0,1735643777088284730,map,1.0034399239754357,-0.2545616704546365,0.2377847148491013,-0.4797391256676536,0.4583724601714544,-0.5107835495366714,0.5466673802073092,0.0,0.0,0.0,121,0.1111111119389534,0,1735643777088297367,map,1.0050964964436055,0.2058850873335834,0.2431466597149658,-0.4979562592537439,0.5046918242174199,-0.502376388690792,0.4949178624015397,0.0,0.0,0.0,122,0.1111111119389534,0,1735643777088310956,map,1.0042876186836511,0.208941927690308,0.1456770123779646,-0.4806803104723939,0.4879174759332813,-0.4873746773254626,0.5416169307776116,0.0,0.0,0.0,124,0.1111111119389534,0,1735643777088322877,map,1.00157575028947,-0.0243649848099907,0.2438922126447171,0.5062743189950449,-0.5015691827194806,0.4922186846568748,-0.4998354082564297,0.0,0.0,0.0,125,0.1111111119389534,0,1735643777088343858,map,1.0078992344216315,-0.0180426850006713,0.1453937935307872,-0.4997965349815749,0.4598051819387351,-0.4921231643171679,0.5446075737860758,0.0,0.0,0.0,126,0.1111111119389534,0,1735644242188269615,map,0.9725488570868532,0.3264452355847295,0.0283655561644267,-0.498462453991667,0.4921816875310753,-0.4834963620365701,0.5249034542819,0.0,0.0,0.0,0,0.1111111119389534,0.9405143498238548,-0.0745305757481462,0.1124901719863537,1.0,0.0,0.0,0.0,0.0,0.0,0.0,0.0,0.0,0.0,0.0,0.0,0.0,0.0,0.0,0.0,0.0,0.0,0.0,0.0,0.0,0.0,0.0,0.0,0.0,0.0,0.0,0.0,0.0,0.0,0.0,0.0,0.0,0.0,0.0,0.0,0.0,0,0,0,1,1,,16
0.100894626,0,1735643777088230371,map,0.9818945540625864,-0.2203073099299582,0.0225224831329173,-0.4831025416725596,0.5184387407250264,-0.513781541190295,0.4835925291783225,0.0,0.0,0.0,1,0.0,0,1735643777088253974,map,0.9747146215782172,-0.2477835881124133,0.1502040726450856,-0.497195844252542,0.4549458824950489,-0.4962731891029714,0.5472964993825274,0.0,0.0,0.0,16,0.0,0,1735643777088270664,map,0.9862817924131108,0.0562763127471928,0.0267107868887807,-0.4818775431991283,0.5060308776955899,-0.508249427344314,0.5033977590168427,0.0,0.0,0.0,17,0.0,0,1735643777088284730,map,1.007062488879372,-0.2547778970637057,0.238342134508902,-0.3954224199114656,0.6180547494083327,-0.5622636260483135,0.3814564868869918,0.0,0.0,0.0,121,0.0,0,1735643777088297367,map,1.0090621894111338,0.2070849417999787,0.2436696884813867,-0.5006531494195305,0.4825438769603485,-0.4999814915539176,0.5162522047293361,0.0,0.0,0.0,122,0.0,0,1735643777088310956,map,1.0120155610578894,0.2120809726249969,0.1454718934358902,-0.5031575143957316,0.504066819730256,-0.4667130619970038,0.5243358415324236,0.0,0.0,0.0,124,0.0,0,1735643777088322877,map,1.0031690671207871,-0.0243824624913946,0.2443092318266423,0.5112700022010297,-0.5065738409320188,0.486919880301531,-0.4948686277183908,0.0,0.0,0.0,125,0.0,0,1735643777088343858,map,1.0068154189519407,-0.0184464975623634,0.1460606704965843,-0.4962270641516357,0.4787573144237015,-0.4986400098519251,0.5252697166828912,0.0,0.0,0.0,126,0.0,0,1735644242188269615,map,0.9725488570868532,0.3264452355847295,0.0283655561644267,-0.498462453991667,0.4921816875310753,-0.4834963620365701,0.5249034542819,0.0,0.0,0.0,0,0.0,0.9376342356626612,-0.1214138532778088,0.1656022580767484,1.0,8.295057581508573e-06,0.0001350291915363,-0.0001529688712794,0.0,0.0,0.0,0.0001350291915363,0.0021980417119233,-0.0024900686723553,0.0,0.0,0.0,-0.0001529688712794,-0.0024900686723553,0.0028208936888735,0.0,0.0,0.0,0.0,0.0,0.0,0.0,0.0,0.0,0.0,0.0,0.0,0.0,0.0,0.0,0.0,0.0,0.0,0.0,0.0,0.0,0,0,0,1,2,,16
0.200294759,0,1735643777088230371,map,0.9785557438111464,-0.2207213712880396,0.0242597691037458,-0.4844262867329734,0.485583636097402,-0.5015829838292236,0.5272136335580692,0.0,0.0,0.0,1,0.0,0,1735643777088253974,map,0.9786371354793754,-0.2489086934512026,0.1500503321706884,-0.5124351849656921,0.4857505154947157,-0.4745264515716567,0.5256246423681131,0.0,0.0,0.0,16,2.842928361412175e-26,0,1735643777088270664,map,0.9976365758044776,0.0590838915685187,0.0240749388207322,-0.5082989882468759,0.5026057882912436,-0.4883016039590536,0.5005807664047386,0.0,0.0,0.0,17,3.176705079543929e-11,0,1735643777088284730,map,1.0078915149485204,-0.2555681330815915,0.2388522303532351,0.3494031037953452,-0.5537123947554503,0.6306439352957406,-0.4166632715119794,0.0,0.0,0.0,121,1.4042027089711249e-12,0,1735643777088297367,map,1.0175121928283608,0.2108144730118879,0.244492832852127,-0.5113265715997116,0.4830287585327903,-0.5004896301787158,0.5047162427443057,0.0,0.0,0.0,122,0.0,0,1735643777088310956,map,1.0059567526193542,0.2086581294632234,0.1465059566420627,-0.4801374110758699,0.4986809313870801,-0.4885072111440246,0.5311742650172,0.0,0.0,0.0,124,0.0,0,1735643777088322877,map,0.9959124537864024,-0.026841397912859,0.2442522362115053,-0.5852343940060258,0.3926624441122063,-0.3905390867627612,0.5922804494213333,0.0,0.0,0.0,125,2.608031108418022e-23,0,1735643777088343858,map,1.0014115147943166,-0.0193329068529322,0.1470731834453299,-0.5259461866500262,0.537198910281457,-0.4833234963275474,0.44854914718281,0.0,0.0,0.0,126,1.5636081318604054e-09,0,1735644242188269615,map,0.9725488570868532,0.3264452355847295,0.0283655561644267,-0.498462453991667,0.4921816875310753,-0.4834963620365701,0.5249034542819,0.0,0.0,0.0,0,0.0,0.9337716417724627,-0.1571812928960611,0.2310925191123639,1.0,3.536930150886759e-05,0.0003663296484992,-0.0006079038118069,0.0,0.0,0.0,0.0003663296484992,0.0040239806149728,-0.0063448836959201,0.0,0.0,0.0,-0.0006079038118069,-0.0063448836959201,0.0104585443736084,0.0,0.0,0.0,0.0,0.0,0.0,0.0,0.0,0.0,0.0,0.0,0.0,0.0,0.0,0.0,0.0,0.0,0.0,0.0,0.0,0.0,0,0,0,1,3,,16
0.299954122,0,1735643777088230371,map,0.9766205187372544,-0.2207980396300811,0.0253407495331306,-0.5448027083391167,0.7229204964664085,-0.330409313349123,0.2672183572049003,0.0,0.0,0.0,1,0.0013534429017454,0,1735643777088253974,map,0.9642348850859824,-0.2468967882751283,0.1524384014791726,-0.5013999146793364,0.4494977253389689,-0.482275302282927,0.5603217408619425,0.0,0.0,0.0,16,0.1231741905212402,0,1735643777088270664,map,0.992723103322807,0.0573161820347726,0.0253821409717265,-0.5012326188363803,0.490721680389581,-0.4855006242974551,0.5217731672066234,0.0,0.0,0.0,17,0.0091552892699837,0,1735643777088284730,map,1.0156794760199177,-0.2579185901766725,0.2391164292228243,0.4783461213585065,-0.5036112213392333,0.5175734930172934,-0.4996783017585982,0.0,0.0,0.0,121,0.5299739837646484,0,1735643777088297367,map,1.0139515477738053,0.2091094318010247,0.244385446450114,-0.5106956055664191,0.4916800831954554,-0.4888326393817671,0.5084125735257867,0.0,0.0,0.0,122,8.179971977551048e-11,0,1735643777088310956,map,1.004606186109605,0.2082177475477516,0.1468186030232379,-0.4789857122668161,0.4980731709107358,-0.4875267711294791,0.5336791651312986,0.0,0.0,0.0,124,3.610871246451097e-08,0,1735643777088322877,map,1.0008098795170108,-0.0260160211245839,0.2448398952265784,0.5496062183067115,-0.5273245534343534,0.4491145398031416,-0.4670738167369987,0.0,0.0,0.0,125,0.0165264587849378,0,1735643777088343858,map,1.0015473350198227,-0.0197338872544472,0.1472521302088858,0.5023323982026836,-0.506790020021671,0.5092388045850681,-0.4811464197384672,0.0,0.0,0.0,126,0.0935433357954025,0,1735644242188269615,map,0.9725488570868532,0.3264452355847295,0.0283655561644267,-0.498462453991667,0.4921816875310753,-0.4834963620365701,0.5249034542819,0.0,0.0,0.0,0,3.8469904345417305e-11,0.9341006500289974,-0.1922619327502158,0.2335867689048271,1.0,2.685171543025441e-05,0.0002401217759048,-0.0004534659725284,0.0,0.0,0.0,0.0002401217759048,0.0067099393389603,-0.0050211624079671,0.0,0.0,0.0,-0.0004534659725284,-0.0050211624079671,0.0078625721262879,0.0,0.0,0.0,0.0,0.0,0.0,0.0,0.0,0.0,0.0,0.0,0.0,0.0,0.0,0.0,0.0,0.0,0.0,0.0,0.0,0.0,0,0,0,1,4,,16
0.399521382,0,1735643777088230371,map,0.9857331127478022,-0.2225162977954566,0.0217904115494631,-0.543338739483906,0.7099537950853584,-0.3404432128876858,0.2912851555068452,0.0,0.0,0.0,1,0.0312715843319892,0,1735643777088253974,map,0.97604760725041,-0.2496627258142119,0.1506953545093902,-0.5188696624172874,0.4805596365289979,-0.4733613459012535,0.5251340261006158,0.0,0.0,0.0,16,0.524560809135437,0,1735643777088270664,map,0.9833096186121448,0.0540088553601743,0.0277401703163789,-0.4766644317297777,0.4933491320637898,-0.5109699239378827,0.5179839671713293,0.0,0.0,0.0,17,0.0042197233997285,0,1735643777088284730,map,1.0136320230699434,-0.2578471585367328,0.2386855930351869,-0.402470851457237,0.5927859985622591,-0.563036609286785,0.4118394714432703,0.0,0.0,0.0,121,0.904842495918274,0,1735643777088297367,map,1.017018814445014,0.2105692582185954,0.2440279582747425,-0.5019219517020874,0.4748971209769885,-0.4959226868948211,0.5259351362196264,0.0,0.0,0.0,122,1.5488903954974376e-06,0,1735643777088310956,map,1.0027456292028278,0.2068642916185064,0.1464171117105884,-0.4692429642525983,0.5011919431468336,-0.5014726111759984,0.526443631231742,0.0,0.0,0.0,124,1.133963633037638e-05,0,1735643777088322877,map,1.0012094904067008,-0.0264987917951284,0.2439177280920177,-0.4924367633320733,0.4987639174911413,-0.5053696504386688,0.5033310095190042,0.0,0.0,0.0,125,0.0606484785676002,0,1735643777088343858,map,0.9983819204953446,-0.0207420709294434,0.1472567025309434,0.5048349088438605,-0.5002317738901799,0.4963634608419989,-0.49853104411285,0.0,0.0,0.0,126,0.091201864182949,0,1735644242188269615,map,0.9725488570868532,0.3264452355847295,0.0283655561644267,-0.498462453991667,0.4921816875310753,-0.4834963620365701,0.5249034542819,0.0,0.0,0.0,0,1.2271553551101988e-08,0.9352892997876764,-0.2186233320930782,0.221345099942522,1.0,2.7132925339433533e-05,6.675953685453467e-05,-0.0004209770054542,0.0,0.0,0.0,6.675953685453467e-05,0.0081476449724237,-0.0027260998298199,0.0,0.0,0.0,-0.0004209770054542,-0.0027260998298199,0.006889491536961,0.0,0.0,0.0,0.0,0.0,0.0,0.0,0.0,0.0,0.0,0.0,0.0,0.0,0.0,0.0,0.0,0.0,0.0,0.0,0.0,0.0,0,0,0,1,5,,16
0.500040739,0,1735643777088230371,map,0.9850212741073648,-0.2237653118369506,0.0217703891982068,0.4813720179016666,-0.5098378765239979,0.5176982818351188,-0.4902395424970776,0.0,0.0,0.0,1,0.0606245771050453,0,1735643777088253974,map,0.977011933102083,-0.2511721466485504,0.1503886864433921,-0.4983765363736896,0.4649524779380862,-0.4885080549482501,0.5447934484757271,0.0,0.0,0.0,16,0.7421959042549133,0,1735643777088270664,map,0.9879382778545388,0.0543380934979419,0.0263676693025969,-0.4803548830533776,0.5079981988450721,-0.5065583218082484,0.5045747545247867,0.0,0.0,0.0,17,0.0016159970546141,0,1735643777088284730,map,0.9981544283771252,-0.2559027704529293,0.2381770787846892,0.3392195393230656,-0.5488009819251517,0.6446979913938184,-0.4100147390914285,0.0,0.0,0.0,121,0.9518876075744628,0,1735643777088297367,map,1.0078406145097722,0.2047584183214983,0.2439333158472173,-0.4948157617254239,0.4901697109718731,-0.5058515345056478,0.5089255755335154,0.0,0.0,0.0,122,6.580876652151346e-05,0,1735643777088310956,map,1.0067319945731614,0.2078894389880712,0.145980417674168,-0.4873385682990852,0.5061427465007792,-0.4850435212424582,0.5206279117695883,0.0,0.0,0.0,124,6.208862760104239e-05,0,1735643777088322877,map,0.996841721891025,-0.0281926673977495,0.2441908565764173,-0.4498647862950327,0.5061398185897088,-0.5385152117650206,0.5014434412646914,0.0,0.0,0.0,125,0.0966495126485824,0,1735643777088343858,map,1.006653796387152,-0.020204502593881,0.1460183866905078,0.5071517644434147,-0.5030826197308049,0.4941347630600298,-0.4955156924682904,0.0,0.0,0.0,126,0.0740865021944046,0,1735644242188269615,map,0.9725488570868532,0.3264452355847295,0.0283655561644267,-0.498462453991667,0.4921816875310753,-0.4834963620365701,0.5249034542819,0.0,0.0,0.0,0,4.12167260321894e-08,0.9364821738247888,-0.2469215299694837,0.2094501638214499,1.0,2.97255134582792e-05,-0.0001131479803403,-0.0004217599735715,0.0,0.0,0.0,-0.0001131479803403,0.0107936441589474,-0.0005887235777767,0.0,0.0,0.0,-0.0004217599735715,-0.0005887235777767,0.0064486904740894,0.0,0.0,0.0,0.0,0.0,0.0,0.0,0.0,0.0,0.0,0.0,0.0,0.0,0.0,0.0,0.0,0.0,0.0,0.0,0.0,0.0,0,0,0,1,6,,16
0.599612186,0,1735643777088230371,map,0.9822925853688624,-0.2239571940900144,0.0221739051467264,-0.5634271829239651,0.6977232804438468,-0.3272866220005161,0.2976835577060537,0.0,0.0,0.0,1,0.0540037341415882,0,1735643777088253974,map,0.9746488932355812,-0.251410218453345,0.1502733133070268,-0.5072304544875156,0.4953584553608547,-0.4878877315909565,0.5092178591781007,0.0,0.0,0.0,16,0.7693942785263062,0,1735643777088270664,map,0.9918001997338796,0.0538675285927428,0.0259475424370372,0.7823984027466525,-0.4183959643611657,0.205548889782391,-0.4129736193693295,0.0,0.0,0.0,17,0.0007328799692913,0,1735643777088284730,map,1.0046953434527732,-0.2593007426781449,0.2387277480418475,-0.4923328204381932,0.4770808000372371,-0.4946031587854405,0.5342003551802154,0.0,0.0,0.0,121,0.9037180542945862,0,1735643777088297367,map,1.014375717859343,0.2070835519474592,0.2447182756035486,-0.5092215658539118,0.4943700125759813,-0.4934886683310145,0.502753042520676,0.0,0.0,0.0,122,0.0003893187385983,0,1735643777088310956,map,1.0028451314684017,0.2046547434649997,0.1467113057328572,-0.479928098323122,0.5042841027451693,-0.4981969040325858,0.5168814264130588,0.0,0.0,0.0,124,0.00018021161668,0,1735643777088322877,map,0.9957697373339178,-0.0297609370617695,0.2445698207605826,-0.5012476516264177,0.5453718674576037,-0.4915949566743055,0.4578806793228941,0.0,0.0,0.0,125,0.1253957599401474,0,1735643777088343858,map,0.9974858181816422,-0.0234262404218589,0.1474774306081456,0.4819607898809144,-0.5170152588217489,0.5247090610615682,-0.4744358970427224,0.0,0.0,0.0,126,0.0692034438252449,0,1735644242188269615,map,0.9725488570868532,0.3264452355847295,0.0283655561644267,-0.498462453991667,0.4921816875310753,-0.4834963620365701,0.5249034542819,0.0,0.0,0.0,0,6.538733288152798e-08,0.9375844912398842,-0.2775658942441059,0.1994098185377655,1.0,3.276963363740306e-05,-0.0002996628816355,-0.0004279144335343,0.0,0.0,0.0,-0.0002996628816355,0.0148861573641579,0.0013414597803742,0.0,0.0,0.0,-0.0004279144335343,0.0013414597803742,0.0061323001782845,0.0,0.0,0.0,0.0,0.0,0.0,0.0,0.0,0.0,0.0,0.0,0.0,0.0,0.0,0.0,0.0,0.0,0.0,0.0,0.0,0.0,0,0,0,1,7,,16
0.698665345,0,1735643777088230371,map,0.9840426506779704,-0.2256599087244759,0.0215448906215363,0.4834190233539022,-0.5119408991613001,0.5127826644112704,-0.4911990459118961,0.0,0.0,0.0,1,0.0349138416349887,0,1735643777088253974,map,0.9809703020890282,-0.2539292290228292,0.1503204868863749,-0.5056830599501793,0.4829428235511678,-0.4864590817520693,0.5238400842249304,0.0,0.0,0.0,16,0.7202028632164001,0,1735643777088270664,map,0.9939724605836978,0.0561429914713812,0.0241224748804965,-0.5032850513256311,0.5073706256258176,-0.4930670262201144,0.4961492850127631,0.0,0.0,0.0,17,0.0003568322572391,0,1735643777088284730,map,1.007361704338416,-0.2596865042014836,0.2390036981946677,0.3866734835138851,-0.5801468174865525,0.5913876752718041,-0.4051837914380005,0.0,0.0,0.0,121,0.8399634957313538,0,1735643777088297367,map,1.014375717859343,0.2070835519474592,0.2447182756035486,-0.5092215658539118,0.4943700125759813,-0.4934886683310145,0.502753042520676,0.0,0.0,0.0,122,0.0011707114754244,0,1735643777088310956,map,1.0020725368689338,0.2067896460849162,0.1464527116182917,-0.476785321116287,0.5025590463377401,-0.4923711477350863,0.5269542820683534,0.0,0.0,0.0,124,0.0003150592092424,0,1735643777088322877,map,1.005088861538106,-0.0268701089208129,0.2448180652123105,-0.4960847959973189,0.5078269915735969,-0.5017560716276078,0.4942190469765801,0.0,0.0,0.0,125,0.1351806223392486,0,1735643777088343858,map,1.004054729249184,-0.0208665875984215,0.1466009018085428,-0.5051294283666753,0.5083354503254361,-0.4970127285079077,0.4893032579510546,0.0,0.0,0.0,126,0.0590316653251647,0,1735644242188269615,map,0.9725488570868532,0.3264452355847295,0.0283655561644267,-0.498462453991667,0.4921816875310753,-0.4834963620365701,0.5249034542819,0.0,0.0,0.0,0,9.400214651122953e-08,0.938493161818484,-0.3085822012928982,0.1923518436111788,1.0,3.4453204975617165e-05,-0.0004594902611354,-0.0004193187484645,0.0,0.0,0.0,-0.0004594902611354,0.019759466814253,0.0027061635300873,0.0,0.0,0.0,-0.0004193187484645,0.0027061635300873,0.0057144677264492,0.0,0.0,0.0,0.0,0.0,0.0,0.0,0.0,0.0,0.0,0.0,0.0,0.0,0.0,0.0,0.0,0.0,0.0,0.0,0.0,0.0,0,0,0,1,8,,16
0.799383638,0,1735643777088230371,map,0.9850394554090705,-0.2266674168475032,0.0211203112221443,-0.571722291652155,0.7046484476549807,-0.3111775301288641,0.2824406684391142,0.0,0.0,0.0,1,0.0247982386499643,0,1735643777088253974,map,0.9780341159367716,-0.2548045729843487,0.1500201246161975,-0.5140176482206343,0.4737018837787314,-0.4762380360348976,0.5334695077095153,0.0,0.0,0.0,16,0.6512173414230347,0,1735643777088270664,map,0.987423464394185,0.053281116515988,0.0254317255220736,-0.4915386475911462,0.5028126776156602,-0.4985594283687589,0.5069592345917503,0.0,0.0,0.0,17,0.0004446155799087,0,1735643777088284730,map,1.0036059929157737,-0.2598579506244062,0.2388209615873803,-0.393602391117024,0.6008710425378374,-0.5722840572617317,0.395628747376255,0.0,0.0,0.0,121,0.8048546314239502,0,1735643777088297367,map,1.014375717859343,0.2070835519474592,0.2447182756035486,-0.5092215658539118,0.4943700125759813,-0.4934886683310145,0.502753042520676,0.0,0.0,0.0,122,0.0011045673163607,0,1735643777088310956,map,1.0020725368689338,0.2067896460849162,0.1464527116182917,-0.476785321116287,0.5025590463377401,-0.4923711477350863,0.5269542820683534,0.0,0.0,0.0,124,0.000405012484407,0,1735643777088322877,map,1.000112012755551,-0.0277872624094756,0.2444611444308271,-0.4807490069333382,0.5242129031757743,-0.5153971198041059,0.4779613304172919,0.0,0.0,0.0,125,0.1130593419075012,0,1735643777088343858,map,0.9959950344096912,-0.0230901374666867,0.14696489743167,-0.698738937648778,0.3997267177465621,-0.296155272617801,0.5140763587578144,0.0,0.0,0.0,126,0.058167640119791,0,1735644242188269615,map,0.9725488570868532,0.3264452355847295,0.0283655561644267,-0.498462453991667,0.4921816875310753,-0.4834963620365701,0.5249034542819,0.0,0.0,0.0,0,2.213377712223519e-07,0.9385584915086148,-0.3294537795380894,0.1957913493968515,1.0,3.06592148367384e-05,-0.0004193440575904,-0.0003709301616354,0.0,0.0,0.0,-0.0004193440575904,0.0210489527291193,0.0018311753803673,0.0,0.0,0.0,-0.0003709301616354,0.0018311753803673,0.0051741684683523,0.0,0.0,0.0,0.0,0.0,0.0,0.0,0.0,0.0,0.0,0.0,0.0,0.0,0.0,0.0,0.0,0.0,0.0,0.0,0.0,0.0,0,0,0,1,9,,16
0.899272314,0,1735643777088230371,map,0.9793651193421948,-0.2245608145112503,0.0238899931649443,-0.5661305979539961,0.7077792906776095,-0.3285561735532241,0.2656980665496349,0.0,0.0,0.0,1,0.0175091288983821,0,1735643777088253974,map,0.9743128380862692,-0.2527639883027291,0.1520259080828777,-0.5282845252157715,0.4823014840188068,-0.4618358972338419,0.5244123787221427,0.0,0.0,0.0,16,0.6002457737922668,0,1735643777088270664,map,0.9841860178564436,0.0516151257153045,0.0292007189056807,-0.4922608899021721,0.5012839835523827,-0.4963843162478943,0.5098982199318677,0.0,0.0,0.0,17,0.0002775634638965,0,1735643777088284730,map,0.9987989917069864,-0.2592849765315909,0.2409380442911605,0.3630050437056779,-0.5689692710623676,0.613831913115468,-0.4095261765406476,0.0,0.0,0.0,121,0.7512674927711487,0,1735643777088297367,map,1.014375717859343,0.2070835519474592,0.2447182756035486,-0.5092215658539118,0.4943700125759813,-0.4934886683310145,0.502753042520676,0.0,0.0,0.0,122,0.0006059039733372,0,1735643777088310956,map,1.0020725368689338,0.2067896460849162,0.1464527116182917,-0.476785321116287,0.5025590463377401,-0.4923711477350863,0.5269542820683534,0.0,0.0,0.0,124,0.0002206676435889,0,1735643777088322877,map,0.9928832274393636,-0.029349944911663,0.2472068159162247,-0.4830608199414437,0.5427726104965045,-0.5101839124553063,0.4601766106660643,0.0,0.0,0.0,125,0.0861735865473747,0,1735643777088343858,map,0.9884865031603258,-0.0245482107877276,0.1504729821528527,0.4695438169041181,-0.5093304098543963,0.5407174028848559,-0.4772167514056075,0.0,0.0,0.0,126,0.0466093495488166,0,1735644242188269615,map,0.9725488570868532,0.3264452355847295,0.0283655561644267,-0.498462453991667,0.4921816875310753,-0.4834963620365701,0.5249034542819,0.0,0.0,0.0,0,7.844079163987773e-08,0.9386387046235358,-0.3412878849049134,0.1970942060068947,1.0,2.765120064731251e-05,-0.0003859529059153,-0.000332896589789,0.0,0.0,0.0,-0.0003859529059153,0.0202044719047052,0.0015092945607205,0.0,0.0,0.0,-0.000332896589789,0.0015092945607205,0.0046720285396341,0.0,0.0,0.0,0.0,0.0,0.0,0.0,0.0,0.0,0.0,0.0,0.0,0.0,0.0,0.0,0.0,0.0,0.0,0.0,0.0,0.0,0,0,0,1,10,,16
0.999995196,0,1735643777088230371,map,0.9785829297958456,-0.224829722205275,0.021626804939408,0.4734078717383465,-0.5118388738433992,0.5176253021616389,-0.4959536276316184,0.0,0.0,0.0,1,0.0112090930342674,0,1735643777088253974,map,0.9779541961302152,-0.2538370357955081,0.1497774251296882,-0.5013641656601385,0.4952968754493679,-0.4882801067529715,0.514681956077064,0.0,0.0,0.0,16,0.5550740957260132,0,1735643777088270664,map,0.9808465514092946,0.0541712539672737,0.0264076120536352,-0.4815594765848855,0.50574775164485,-0.5068079794798337,0.5054358061643821,0.0,0.0,0.0,17,9.932585089700297e-05,0,1735643777088284730,map,0.9954935585540124,-0.2576825118968461,0.2386372707697782,0.5492023891461251,-0.5135491704235654,0.4324411813713784,-0.497633007313203,0.0,0.0,0.0,121,0.7162219882011414,0,1735643777088297367,map,1.014375717859343,0.2070835519474592,0.2447182756035486,-0.5092215658539118,0.4943700125759813,-0.4934886683310145,0.502753042520676,0.0,0.0,0.0,122,0.0002773565647657,0,1735643777088310956,map,1.0020725368689338,0.2067896460849162,0.1464527116182917,-0.476785321116287,0.5025590463377401,-0.4923711477350863,0.5269542820683534,0.0,0.0,0.0,124,9.045543993124738e-05,0,1735643777088322877,map,1.0007523784401178,-0.0239048436859833,0.2447245497749667,-0.5044048955133301,0.5331505247710722,-0.4912809570639404,0.469008785146777,0.0,0.0,0.0,125,0.0596058256924152,0,1735643777088343858,map,0.9942798534938452,-0.0195775825691387,0.1462522151510892,0.4787026712511724,-0.4937757880845929,0.5273784649231821,-0.4988999683039666,0.0,0.0,0.0,126,0.0276791732758283,0,1735644242188269615,map,0.9725488570868532,0.3264452355847295,0.0283655561644267,-0.498462453991667,0.4921816875310753,-0.4834963620365701,0.5249034542819,0.0,0.0,0.0,0,1.4547474336268353e-08,0.9388440072914168,-0.3461056272712219,0.1950358621080083,1.0,2.5558946988311947e-05,-0.0003607572317145,-0.0003068590983831,0.0,0.0,0.0,-0.0003607572317145,0.0185998081466314,0.0014712516703524,0.0,0.0,0.0,-0.0003068590983831,0.0014712516703524,0.0042896664684554,0.0,0.0,0.0,0.0,0.0,0.0,0.0,0.0,0.0,0.0,0.0,0.0,0.0,0.0,0.0,0.0,0.0,0.0,0.0,0.0,0.0,0,0,0,1,11,,16
1.100506359,0,1735643777088230371,map,0.9744171743152374,-0.2249406806255914,0.0239193367807547,-0.4899755542772057,0.5016968831399585,-0.498475305587386,0.5096533757152578,0.0,0.0,0.0,1,0.0139587139710783,0,1735643777088253974,map,0.9832875948949242,-0.2549681348205838,0.1496892691569026,0.5144781679551792,-0.5124454542288075,0.4803625995918169,-0.4918980016742347,0.0,0.0,0.0,16,0.5628923177719116,0,1735643777088270664,map,0.975240020105462,0.0517185779826468,0.0291557960050762,-0.4865258257606991,0.5020766402615392,-0.500377259067334,0.5107193620569099,0.0,0.0,0.0,17,7.710279169259593e-05,0,1735643777088284730,map,0.9970693777490104,-0.2579314186946062,0.2393739595982919,-0.4971169992933299,0.4985217386263883,-0.4813856902206445,0.5221288944133547,0.0,0.0,0.0,121,0.6621554493904114,0,1735643777088297367,map,1.014375717859343,0.2070835519474592,0.2447182756035486,-0.5092215658539118,0.4943700125759813,-0.4934886683310145,0.502753042520676,0.0,0.0,0.0,122,0.0001279316056752,0,1735643777088310956,map,1.0020725368689338,0.2067896460849162,0.1464527116182917,-0.476785321116287,0.5025590463377401,-0.4923711477350863,0.5269542820683534,0.0,0.0,0.0,124,3.855292379739694e-05,0,1735643777088322877,map,0.9962927792402754,-0.0244303285683483,0.2452907395679689,-0.4904745469822456,0.5270309503005197,-0.5031260232462997,0.4780557508494754,0.0,0.0,0.0,125,0.0444002710282802,0,1735643777088343858,map,0.9922999110997832,-0.0194692862686458,0.1473104316228405,0.4841308665308671,-0.497922241604768,0.5211784056955943,-0.4960481980855827,0.0,0.0,0.0,126,0.0209372676908969,0,1735644242188269615,map,0.9725488570868532,0.3264452355847295,0.0283655561644267,-0.498462453991667,0.4921816875310753,-0.4834963620365701,0.5249034542819,0.0,0.0,0.0,0,3.6288392291083933e-09,0.9393161078109326,-0.350666875001503,0.1889227351524556,1.0,2.5880702645081543e-05,-0.0003543811707258,-0.0003130336213786,0.0,0.0,0.0,-0.0003543811707258,0.017278678923839,0.0016553657154499,0.0,0.0,0.0,-0.0003130336213786,0.0016553657154499,0.0043432677956726,0.0,0.0,0.0,0.0,0.0,0.0,0.0,0.0,0.0,0.0,0.0,0.0,0.0,0.0,0.0,0.0,0.0,0.0,0.0,0.0,0.0,0,0,0,1,12,,16
1.199156707,0,1735643777088230371,map,0.969914277610695,-0.2252895305855252,0.024106379538697,-0.4842906520239368,0.4989932852559888,-0.505460432129738,0.5108600759336006,0.0,0.0,0.0,1,0.0097638024017214,0,1735643777088253974,map,0.97724770020588,-0.2548294807739384,0.149934009295486,0.5474227487820195,-0.5236726342933887,0.4386285265443639,-0.4834256115574364,0.0,0.0,0.0,16,0.5266293883323669,0,1735643777088270664,map,0.9872520691191968,0.0585388687445175,0.0229705578009052,-0.5080284816820324,0.5024825209723174,-0.4883186117718402,0.5009623851292394,0.0,0.0,0.0,17,1.926017830555793e-05,0,1735643777088284730,map,0.9938206792848708,-0.2579416610319441,0.2389102083654029,-0.4879793330111426,0.4852332489745063,-0.4939760361367777,0.531425009165209,0.0,0.0,0.0,121,0.623553454875946,0,1735643777088297367,map,1.014375717859343,0.2070835519474592,0.2447182756035486,-0.5092215658539118,0.4943700125759813,-0.4934886683310145,0.502753042520676,0.0,0.0,0.0,122,6.277230568230152e-05,0,1735643777088310956,map,1.0020725368689338,0.2067896460849162,0.1464527116182917,-0.476785321116287,0.5025590463377401,-0.4923711477350863,0.5269542820683534,0.0,0.0,0.0,124,1.698945379757788e-05,0,1735643777088322877,map,0.9837929499564122,-0.0277011064522739,0.2446732712626179,-0.4867789773593728,0.5185333515710562,-0.5103936565822484,0.4833918760488767,0.0,0.0,0.0,125,0.0351009927690029,0,1735643777088343858,map,0.9872693490924755,-0.0202633537425026,0.147023607870287,0.4810912162904959,-0.4936843142220208,0.525159960672563,-0.4990331203493979,0.0,0.0,0.0,126,0.0148805910721421,0,1735644242188269615,map,0.9725488570868532,0.3264452355847295,0.0283655561644267,-0.498462453991667,0.4921816875310753,-0.4834963620365701,0.5249034542819,0.0,0.0,0.0,0,7.78030695425258e-10,0.9394476774240552,-0.3563398707391491,0.1881510554410689,1.0,2.409760612185712e-05,-0.0003360778069233,-0.0002901724672547,0.0,0.0,0.0,-0.0003360778069233,0.0163357443435237,0.0015805627197468,0.0,0.0,0.0,-0.0002901724672547,0.0015805627197468,0.0040163161478521,0.0,0.0,0.0,0.0,0.0,0.0,0.0,0.0,0.0,0.0,0.0,0.0,0.0,0.0,0.0,0.0,0.0,0.0,0.0,0.0,0.0,0,0,0,1,13,,16
1.298524461,0,1735643777088230371,map,0.969146270553104,-0.2247988378936652,0.0238693957532713,-0.49463786185906,0.509866586202062,-0.4956797679163836,0.4996709092678028,0.0,0.0,0.0,1,0.0075832996517419,0,1735643777088253974,map,0.9722387355153572,-0.2540995362767616,0.1509145715555576,0.5526518710013384,-0.5235541483628926,0.432739177875083,-0.4829117591679908,0.0,0.0,0.0,16,0.5073837637901306,0,1735643777088270664,map,0.9694509385651248,0.0519320116032729,0.0293321607068693,-0.4873835591271098,0.4956377469173029,-0.4958420865354052,0.5205200431717751,0.0,0.0,0.0,17,1.590241299709305e-05,0,1735643777088284730,map,0.9868094549401982,-0.256474332881467,0.2395136908341188,-0.4152435403482415,0.5823158746865879,-0.5531029776618334,0.4272682066204619,0.0,0.0,0.0,121,0.5685780048370361,0,1735643777088297367,map,1.014375717859343,0.2070835519474592,0.2447182756035486,-0.5092215658539118,0.4943700125759813,-0.4934886683310145,0.502753042520676,0.0,0.0,0.0,122,3.0464803785434924e-05,0,1735643777088310956,map,1.0020725368689338,0.2067896460849162,0.1464527116182917,-0.476785321116287,0.5025590463377401,-0.4923711477350863,0.5269542820683534,0.0,0.0,0.0,124,7.065238150971709e-06,0,1735643777088322877,map,0.9783850710838636,-0.0272796113086284,0.2452226337408805,-0.4822474351472173,0.5208375950979067,-0.5152567485264917,0.4802875117306998,0.0,0.0,0.0,125,0.0259760599583387,0,1735643777088343858,map,0.9830729963308896,-0.0193809682850311,0.1477871546582757,-0.4895979424152877,0.4954664228254903,-0.5143771495729409,0.5002229769137416,0.0,0.0,0.0,126,0.0103884749114513,0,1735644242188269615,map,0.9725488570868532,0.3264452355847295,0.0283655561644267,-0.498462453991667,0.4921816875310753,-0.4834963620365701,0.5249034542819,0.0,0.0,0.0,0,1.4949794180374454e-10,0.9397117968221228,-0.3611245529823209,0.1852037896993614,1.0,2.3283216275387045e-05,-0.0003285007054081,-0.0002795654531482,0.0,0.0,0.0,-0.0003285007054081,0.015466516856029,0.0016509878734054,0.0,0.0,0.0,-0.0002795654531482,0.0016509878734054,0.0038423593025847,0.0,0.0,0.0,0.0,0.0,0.0,0.0,0.0,0.0,0.0,0.0,0.0,0.0,0.0,0.0,0.0,0.0,0.0,0.0,0.0,0.0,0,0,0,1,14,,16
1.398254158,0,1735643777088230371,map,0.9667135946662896,-0.2249802119176751,0.0257740833590012,-0.4904333311619384,0.5054366218821507,-0.5004972829321602,0.5034991943621061,0.0,0.0,0.0,1,0.0058504957705736,0,1735643777088253974,map,0.973901293934729,-0.2546198040648692,0.1513153401928165,0.5464504663472934,-0.5275480733709758,0.4403636107039718,-0.47871161306068,0.0,0.0,0.0,16,0.4717264473438263,0,1735643777088270664,map,0.9694589393668742,0.052070945500226,0.030170553117593,-0.4898670459074962,0.4986009926919695,-0.4991830466154161,0.5120972694637194,0.0,0.0,0.0,17,8.32770274428185e-06,0,1735643777088284730,map,0.9847561245204132,-0.256759319083644,0.2404969168549913,-0.5023516144856862,0.4694578181426206,-0.4757409707276455,0.548564254376379,0.0,0.0,0.0,121,0.534412145614624,0,1735643777088297367,map,1.014375717859343,0.2070835519474592,0.2447182756035486,-0.5092215658539118,0.4943700125759813,-0.4934886683310145,0.502753042520676,0.0,0.0,0.0,122,1.4820532669546084e-05,0,1735643777088310956,map,1.0020725368689338,0.2067896460849162,0.1464527116182917,-0.476785321116287,0.5025590463377401,-0.4923711477350863,0.5269542820683534,0.0,0.0,0.0,124,3.3268854622292565e-06,0,1735643777088322877,map,0.9862188642633396,-0.0238986626029293,0.246490333945315,-0.5005244741807169,0.5041076217821743,-0.4959203909806549,0.4994133780915681,0.0,0.0,0.0,125,0.0178799983114004,0,1735643777088343858,map,0.9823191947409424,-0.0192626154282034,0.1486098050428069,0.4924103904121792,-0.5017977590492124,0.513249197546712,-0.4922461555410768,0.0,0.0,0.0,126,0.0075397551991045,0,1735644242188269615,map,0.9725488570868532,0.3264452355847295,0.0283655561644267,-0.498462453991667,0.4921816875310753,-0.4834963620365701,0.5249034542819,0.0,0.0,0.0,0,4.1445919612970166e-11,0.9396908848311406,-0.3652090020103313,0.186382142590654,1.0,2.173712421616361e-05,-0.0003054048629235,-0.0002612727401422,0.0,0.0,0.0,-0.0003054048629235,0.0146689738663675,0.0014735411026775,0.0,0.0,0.0,-0.0002612727401422,0.0014735411026775,0.0036056412332555,0.0,0.0,0.0,0.0,0.0,0.0,0.0,0.0,0.0,0.0,0.0,0.0,0.0,0.0,0.0,0.0,0.0,0.0,0.0,0.0,0.0,0,0,0,1,15,,16
1.498205975,0,1735643777088230371,map,0.9635649372240108,-0.2251504175352473,0.0264770945008523,-0.4762220361356501,0.4961716801623623,-0.5119566680813737,0.5147102156657597,0.0,0.0,0.0,1,0.0049474257975816,0,1735643777088253974,map,0.9738623582321816,-0.2546009441055548,0.1508891090536109,-0.5139428133339311,0.5192993512072258,-0.4799590984656501,0.4856235499419262,0.0,0.0,0.0,16,0.4311713576316833,0,1735643777088270664,map,0.9734907172268036,0.0555546087800477,0.0276745286773832,-0.4937836968240414,0.4968618975735388,-0.4934435699473687,0.5155767244242139,0.0,0.0,0.0,17,3.6222866128809983e-06,0,1735643777088284730,map,0.9889023137218202,-0.2571183950792191,0.2405978386896695,-0.5072625839739808,0.4972506155275726,-0.4722862775862998,0.5218928704831739,0.0,0.0,0.0,121,0.5406540036201477,0,1735643777088297367,map,1.014375717859343,0.2070835519474592,0.2447182756035486,-0.5092215658539118,0.4943700125759813,-0.4934886683310145,0.502753042520676,0.0,0.0,0.0,122,6.869493063277332e-06,0,1735643777088310956,map,1.0020725368689338,0.2067896460849162,0.1464527116182917,-0.476785321116287,0.5025590463377401,-0.4923711477350863,0.5269542820683534,0.0,0.0,0.0,124,1.463669150325586e-06,0,1735643777088322877,map,0.977529232429698,-0.0259962320698294,0.2464415791567048,-0.4957627697112473,0.5214457691096911,-0.4981729816985816,0.4838773257256225,0.0,0.0,0.0,125,0.0143677210435271,0,1735643777088343858,map,0.9817973083257114,-0.0180415270764356,0.1482812583244321,0.4977532572627605,-0.50148893387752,0.506605112517702,-0.4940665988038731,0.0,0.0,0.0,126,0.0051222736947238,0,1735644242188269615,map,0.9725488570868532,0.3264452355847295,0.0283655561644267,-0.498462453991667,0.4921816875310753,-0.4834963620365701,0.5249034542819,0.0,0.0,0.0,0,1.2454876539835789e-11,0.939449539424887,-0.3659899640092399,0.1901663254049475,1.0,2.125226802944969e-05,-0.0002834898351274,-0.0002586426209631,0.0,0.0,0.0,-0.0002834898351274,0.0137613115243756,0.0013371152391368,0.0,0.0,0.0,-0.0002586426209631,0.0013371152391368,0.003595089249757,0.0,0.0,0.0,0.0,0.0,0.0,0.0,0.0,0.0,0.0,0.0,0.0,0.0,0.0,0.0,0.0,0.0,0.0,0.0,0.0,0.0,0,0,0,1,16,,16
1.599200971,0,1735643777088230371,map,0.959591626143527,-0.2245011995270815,0.0290926818305232,-0.4863703903699983,0.4951419380247083,-0.5056928026297175,0.5123993500668921,0.0,0.0,0.0,1,0.0057106437161564,0,1735643777088253974,map,0.9672216806164796,-0.2534676321098013,0.1535668812035028,-0.552369446816522,0.6256727922156258,-0.4078322724354948,0.3702625944715622,0.0,0.0,0.0,16,0.4111376702785492,0,1735643777088270664,map,0.9626087644706118,0.0503856255799691,0.0332958161569287,-0.4827278739876918,0.5017194008318627,-0.5009879020468926,0.5140647473878106,0.0,0.0,0.0,17,4.020538654003758e-06,0,1735643777088284730,map,0.983869481246372,-0.2559908651944645,0.2415697700860046,-0.4940215119725981,0.4961397019534999,-0.48582453550462,0.5232233390776075,0.0,0.0,0.0,121,0.5749744772911072,0,1735643777088297367,map,1.014375717859343,0.2070835519474592,0.2447182756035486,-0.5092215658539118,0.4943700125759813,-0.4934886683310145,0.502753042520676,0.0,0.0,0.0,122,3.735552809303044e-06,0,1735643777088310956,map,1.0020725368689338,0.2067896460849162,0.1464527116182917,-0.476785321116287,0.5025590463377401,-0.4923711477350863,0.5269542820683534,0.0,0.0,0.0,124,6.144288704490464e-07,0,1735643777088322877,map,0.9735769669136974,-0.0263644453068178,0.2473818030985707,-0.4954982533126454,0.5120458635898721,-0.502499875765744,0.4896778424638298,0.0,0.0,0.0,125,0.012832261621952,0,1735643777088343858,map,0.9757534517535164,-0.0191639559983072,0.1503841341051739,-0.4896073995388799,0.4922639927542455,-0.5142752798998765,0.5034696537412436,0.0,0.0,0.0,126,0.0039080041460692,0,1735644242188269615,map,0.9725488570868532,0.3264452355847295,0.0283655561644267,-0.498462453991667,0.4921816875310753,-0.4834963620365701,0.5249034542819,0.0,0.0,0.0,0,3.603133633470201e-12,0.9390038485629713,-0.3635916800230996,0.1963414139346264,1.0,2.3180380126277296e-05,-0.0002839162545832,-0.0002874632376089,0.0,0.0,0.0,-0.0002839162545832,0.0130438508684279,0.0014954152564802,0.0,0.0,0.0,-0.0002874632376089,0.0014954152564802,0.0039937209051259,0.0,0.0,0.0,0.0,0.0,0.0,0.0,0.0,0.0,0.0,0.0,0.0,0.0,0.0,0.0,0.0,0.0,0.0,0.0,0.0,0.0,0,0,0,1,17,,16
1.699519419,0,1735643777088230371,map,0.959195386165238,-0.2232361847420798,0.0287211822351127,-0.4917810343792745,0.4903675672697454,-0.4966329465995422,0.5206215319660324,0.0,0.0,0.0,1,0.0051588783971965,0,1735643777088253974,map,0.967136039796302,-0.2524153348111205,0.1532100049220245,-0.5010017238850006,0.4994776326164667,-0.4937131393563297,0.505733826441365,0.0,0.0,0.0,16,0.3726774156093597,0,1735643777088270664,map,0.964681338693694,0.0546662885443378,0.0312915821273236,-0.4905059989517074,0.494911754800955,-0.4949561868269633,0.5191190548168494,0.0,0.0,0.0,17,1.5669306776544545e-06,0,1735643777088284730,map,0.9783987173424074,-0.2542855817180064,0.2420911655674679,-0.520791136825793,0.5519781881469962,-0.4557816516754025,0.4651448780860644,0.0,0.0,0.0,121,0.6290690302848816,0,1735643777088297367,map,1.014375717859343,0.2070835519474592,0.2447182756035486,-0.5092215658539118,0.4943700125759813,-0.4934886683310145,0.502753042520676,0.0,0.0,0.0,122,2.832242216754821e-06,0,1735643777088310956,map,1.0020725368689338,0.2067896460849162,0.1464527116182917,-0.476785321116287,0.5025590463377401,-0.4923711477350863,0.5269542820683534,0.0,0.0,0.0,124,2.7509557298799336e-07,0,1735643777088322877,map,0.9738731645829012,-0.0229812445352342,0.2477515309990012,-0.4987156733918174,0.5130877881213236,-0.4938475253296509,0.4941034512325265,0.0,0.0,0.0,125,0.0123653057962656,0,1735643777088343858,map,0.976391694801816,-0.0157692509066832,0.1498699943257391,-0.4956179305375545,0.4930319350242255,-0.5060361232190832,0.5051829569307938,0.0,0.0,0.0,126,0.0024863900616765,0,1735644242188269615,map,0.9725488570868532,0.3264452355847295,0.0283655561644267,-0.498462453991667,0.4921816875310753,-0.4834963620365701,0.5249034542819,0.0,0.0,0.0,0,7.701734215659339e-13,0.9384759626720044,-0.3583023017037435,0.2031368443377575,1.0,2.662986096635854e-05,-0.0003156103285037,-0.0003324756589003,0.0,0.0,0.0,-0.0003156103285037,0.0127948103779382,0.0020233778692854,0.0,0.0,0.0,-0.0003324756589003,0.0020233778692854,0.0045568713856924,0.0,0.0,0.0,0.0,0.0,0.0,0.0,0.0,0.0,0.0,0.0,0.0,0.0,0.0,0.0,0.0,0.0,0.0,0.0,0.0,0.0,0,0,0,1,18,,16
1.800004713,0,1735643777088230371,map,0.9594232792544788,-0.2227394841784805,0.0287247955238473,-0.4828527630683908,0.4949425600186785,-0.5024918943181658,0.5190250163758183,0.0,0.0,0.0,1,0.0037374335806816,0,1735643777088253974,map,0.9609222129153564,-0.2516547572738162,0.1548726174046739,-0.4985315986768166,0.4939374129724063,-0.4980745013625571,0.5093268776329246,0.0,0.0,0.0,16,0.361415147781372,0,1735643777088270664,map,0.9657203169541592,0.0566007350698911,0.0309337758030886,-0.4920707961342387,0.4930541959262823,-0.4942651528289234,0.5200633136170103,0.0,0.0,0.0,17,6.838704962319753e-07,0,1735643777088284730,map,0.9772217879523996,-0.2537613783482835,0.2420643496362091,-0.4256569824670023,0.495709451526377,-0.5626112321549067,0.5065144365145401,0.0,0.0,0.0,121,0.6738985180854797,0,1735643777088297367,map,1.014375717859343,0.2070835519474592,0.2447182756035486,-0.5092215658539118,0.4943700125759813,-0.4934886683310145,0.502753042520676,0.0,0.0,0.0,122,2.870612206606893e-06,0,1735643777088310956,map,1.0020725368689338,0.2067896460849162,0.1464527116182917,-0.476785321116287,0.5025590463377401,-0.4923711477350863,0.5269542820683534,0.0,0.0,0.0,124,1.754417411348186e-07,0,1735643777088322877,map,0.9776884060585704,-0.0203805192492582,0.2479777011198599,-0.5215174879179975,0.5019683700210475,-0.4749855251447507,0.5004358262525572,0.0,0.0,0.0,125,0.0130092212930321,0,1735643777088343858,map,0.9766926046271728,-0.0144639868038626,0.149435909916816,-0.5053274838702999,0.4915296772114277,-0.4935173397181303,0.5093950783657821,0.0,0.0,0.0,126,0.0019435718422755,0,1735644242188269615,map,0.9725488570868532,0.3264452355847295,0.0283655561644267,-0.498462453991667,0.4921816875310753,-0.4834963620365701,0.5249034542819,0.0,0.0,0.0,0,2.0761974225350785e-13,0.9381088717806964,-0.3520626598305681,0.2073200518817055,1.0,2.765389234121539e-05,-0.0003402285411225,-0.0003426180529559,0.0,0.0,0.0,-0.0003402285411225,0.0128221956581139,0.002386715202415,0.0,0.0,0.0,-0.0003426180529559,0.002386715202415,0.0046320221060067,0.0,0.0,0.0,0.0,0.0,0.0,0.0,0.0,0.0,0.0,0.0,0.0,0.0,0.0,0.0,0.0,0.0,0.0,0.0,0.0,0.0,0,0,0,1,19,,16
1.899873732,0,1735643777088230371,map,0.9594232792544788,-0.2227394841784805,0.0287247955238473,-0.4828527630683908,0.4949425600186785,-0.5024918943181658,0.5190250163758183,0.0,0.0,0.0,1,0.003234795294702,0,1735643777088253974,map,0.9587016242543134,-0.251575713384862,0.1540489515497934,-0.5043558900594041,0.4792354742761107,-0.4794912174038895,0.5348333093500005,0.0,0.0,0.0,16,0.3661466240882873,0,1735643777088270664,map,0.9657203169541592,0.0566007350698911,0.0309337758030886,-0.4920707961342387,0.4930541959262823,-0.4942651528289234,0.5200633136170103,0.0,0.0,0.0,17,6.229323616935289e-07,0,1735643777088284730,map,0.9780831244237264,-0.253902707588795,0.2409360326454159,-0.5164602424060012,0.5578161974328985,-0.4577506568973596,0.4610577447624885,0.0,0.0,0.0,121,0.7018059492111206,0,1735643777088297367,map,1.014375717859343,0.2070835519474592,0.2447182756035486,-0.5092215658539118,0.4943700125759813,-0.4934886683310145,0.502753042520676,0.0,0.0,0.0,122,3.5634482173918518e-06,0,1735643777088310956,map,1.0020725368689338,0.2067896460849162,0.1464527116182917,-0.476785321116287,0.5025590463377401,-0.4923711477350863,0.5269542820683534,0.0,0.0,0.0,124,2.031634664945159e-07,0,1735643777088322877,map,0.9701742289573114,-0.02307857792666,0.2466679232182609,0.5114875318588097,-0.5112473026228048,0.4872464443488013,-0.4894870813242568,0.0,0.0,0.0,125,0.0158636830747127,0,1735643777088343858,map,0.9728939747151372,-0.0154715967388767,0.1485524139806637,-0.502108799892416,0.4913677588254546,-0.4977482838730027,0.5086168740406949,0.0,0.0,0.0,126,0.0021669880952686,0,1735644242188269615,map,0.9725488570868532,0.3264452355847295,0.0283655561644267,-0.498462453991667,0.4921816875310753,-0.4834963620365701,0.5249034542819,0.0,0.0,0.0,0,1.9167363551376992e-13,0.9379971168366784,-0.346487266471831,0.2078152874427076,1.0,2.650849190689174e-05,-0.0003350555917474,-0.0003265387057336,0.0,0.0,0.0,-0.0003350555917474,0.0127717010861965,0.0023198409703928,0.0,0.0,0.0,-0.0003265387057336,0.0023198409703928,0.0044050809076631,0.0,0.0,0.0,0.0,0.0,0.0,0.0,0.0,0.0,0.0,0.0,0.0,0.0,0.0,0.0,0.0,0.0,0.0,0.0,0.0,0.0,0,0,0,1,20,,16
2.000105098,0,1735643777088230371,map,0.9594232792544788,-0.2227394841784805,0.0287247955238473,-0.4828527630683908,0.4949425600186785,-0.5024918943181658,0.5190250163758183,0.0,0.0,0.0,1,0.0046522966586053,0,1735643777088253974,map,0.958681170584295,-0.251917600018286,0.1528449391617065,-0.4945881439214685,0.4760580348764284,-0.4906209301242298,0.5366958340121019,0.0,0.0,0.0,16,0.4083848297595978,0,1735643777088270664,map,0.9657203169541592,0.0566007350698911,0.0309337758030886,-0.4920707961342387,0.4930541959262823,-0.4942651528289234,0.5200633136170103,0.0,0.0,0.0,17,1.494748630648246e-06,0,1735643777088284730,map,0.9762717092326324,-0.2542465225800474,0.2396647972187995,-0.4979789589538999,0.5148098357976469,-0.4814342523659318,0.5051819969615368,0.0,0.0,0.0,121,0.7114379405975342,0,1735643777088297367,map,1.014375717859343,0.2070835519474592,0.2447182756035486,-0.5092215658539118,0.4943700125759813,-0.4934886683310145,0.502753042520676,0.0,0.0,0.0,122,4.721739060187247e-06,0,1735643777088310956,map,1.0020725368689338,0.2067896460849162,0.1464527116182917,-0.476785321116287,0.5025590463377401,-0.4923711477350863,0.5269542820683534,0.0,0.0,0.0,124,4.058805700424273e-07,0,1735643777088322877,map,0.9700623444784628,-0.0228465420290014,0.2454599338591322,0.5135703379087573,-0.512086629768371,0.4853168723757787,-0.4883444737274584,0.0,0.0,0.0,125,0.0174483805894851,0,1735643777088343858,map,0.9697238862215628,-0.0167746592338148,0.1477878263635201,-0.4960352806926194,0.4881842348410606,-0.5040498433317682,0.5114283025000299,0.0,0.0,0.0,126,0.003269308945164,0,1735644242188269615,map,0.9725488570868532,0.3264452355847295,0.0283655561644267,-0.498462453991667,0.4921816875310753,-0.4834963620365701,0.5249034542819,0.0,0.0,0.0,0,8.241141601604551e-13,0.9380944224451184,-0.3418729294661736,0.2053792655812919,1.0,2.5435550397145503e-05,-0.0003101205461713,-0.0003157300153437,0.0,0.0,0.0,-0.0003101205461713,0.0125893669640323,0.0019845598363207,0.0,0.0,0.0,-0.0003157300153437,0.0019845598363207,0.0043139992003412,0.0,0.0,0.0,0.0,0.0,0.0,0.0,0.0,0.0,0.0,0.0,0.0,0.0,0.0,0.0,0.0,0.0,0.0,0.0,0.0,0.0,0,0,0,1,21,,16
2.09978399,0,1735643777088230371,map,0.9594232792544788,-0.2227394841784805,0.0287247955238473,-0.4828527630683908,0.4949425600186785,-0.5024918943181658,0.5190250163758183,0.0,0.0,0.0,1,0.0106717767193913,0,1735643777088253974,map,0.9561191010163366,-0.2523040792540086,0.1519182510962851,-0.4948175492887839,0.4953038735967468,-0.4972488034836803,0.5124190600962739,0.0,0.0,0.0,16,0.4881783127784729,0,1735643777088270664,map,0.9657203169541592,0.0566007350698911,0.0309337758030886,-0.4920707961342387,0.4930541959262823,-0.4942651528289234,0.5200633136170103,0.0,0.0,0.0,17,6.951058821869083e-06,0,1735643777088284730,map,0.9720718783263512,-0.2545784671867357,0.2385537379455437,-0.4781520848980058,0.5070708177933396,-0.5054583684688566,0.5086861578565771,0.0,0.0,0.0,121,0.703474760055542,0,1735643777088297367,map,1.014375717859343,0.2070835519474592,0.2447182756035486,-0.5092215658539118,0.4943700125759813,-0.4934886683310145,0.502753042520676,0.0,0.0,0.0,122,5.388219960877905e-06,0,1735643777088310956,map,1.0020725368689338,0.2067896460849162,0.1464527116182917,-0.476785321116287,0.5025590463377401,-0.4923711477350863,0.5269542820683534,0.0,0.0,0.0,124,9.541158760839608e-07,0,1735643777088322877,map,0.9632250917235796,-0.0252303817612596,0.2445215854431536,-0.4940754902783682,0.5059764896484381,-0.5009039309065842,0.4989713958049762,0.0,0.0,0.0,125,0.0188700910657644,0,1735643777088343858,map,0.9621861434718968,-0.0193439066312474,0.1481816909129655,-0.4944303024892801,0.4945707420798672,-0.5096995406773608,0.501143527636761,0.0,0.0,0.0,126,0.005909021012485,0,1735644242188269615,map,0.9725488570868532,0.3264452355847295,0.0283655561644267,-0.498462453991667,0.4921816875310753,-0.4834963620365701,0.5249034542819,0.0,0.0,0.0,0,8.450180659369533e-12,0.9383518808826568,-0.3381910359772102,0.2007392705813155,1.0,2.567137080371061e-05,-0.0002761175322671,-0.0003264653741304,0.0,0.0,0.0,-0.0002761175322671,0.0123018061440672,0.0015355892560694,0.0,0.0,0.0,-0.0003264653741304,0.0015355892560694,0.0045700289531944,0.0,0.0,0.0,0.0,0.0,0.0,0.0,0.0,0.0,0.0,0.0,0.0,0.0,0.0,0.0,0.0,0.0,0.0,0.0,0.0,0.0,0,0,0,1,22,,16
2.20039961,0,1735643777088230371,map,0.9594232792544788,-0.2227394841784805,0.0287247955238473,-0.4828527630683908,0.4949425600186785,-0.5024918943181658,0.5190250163758183,0.0,0.0,0.0,1,0.0275965183973312,0,1735643777088253974,map,0.9579521830624012,-0.2529290439398786,0.1501869344518225,-0.503001152188447,0.5136497434308378,-0.4940437501076412,0.4889525078676947,0.0,0.0,0.0,16,0.5770066976547241,0,1735643777088270664,map,0.9657203169541592,0.0566007350698911,0.0309337758030886,-0.4920707961342387,0.4930541959262823,-0.4942651528289234,0.5200633136170103,0.0,0.0,0.0,17,3.599388583097607e-05,0,1735643777088284730,map,0.9710103335249822,-0.2549167438863918,0.237768740346227,-0.4695710300132836,0.5603609614430156,-0.5115620954247962,0.4514453047574148,0.0,0.0,0.0,121,0.6877402067184448,0,1735643777088297367,map,1.014375717859343,0.2070835519474592,0.2447182756035486,-0.5092215658539118,0.4943700125759813,-0.4934886683310145,0.502753042520676,0.0,0.0,0.0,122,5.364644039218547e-06,0,1735643777088310956,map,1.0020725368689338,0.2067896460849162,0.1464527116182917,-0.476785321116287,0.5025590463377401,-0.4923711477350863,0.5269542820683534,0.0,0.0,0.0,124,2.0670361209340622e-06,0,1735643777088322877,map,0.9636647969496576,-0.0247534579468356,0.2435319600543795,-0.5063346385883887,0.5075422022236988,-0.4921554909602129,0.4937703104128435,0.0,0.0,0.0,125,0.0179644580930471,0,1735643777088343858,map,0.9603093078694972,-0.020493323474771,0.1475328118683949,0.4972684261467766,-0.4993871692353197,0.5094278268059479,-0.4937811831534401,0.0,0.0,0.0,126,0.0095585137605667,0,1735644242188269615,map,0.9725488570868532,0.3264452355847295,0.0283655561644267,-0.498462453991667,0.4921816875310753,-0.4834963620365701,0.5249034542819,0.0,0.0,0.0,0,9.336248441016436e-11,0.9386968845724674,-0.3346776879822681,0.1948222719705324,1.0,2.7173830258651152e-05,-0.0002374458256879,-0.0003571817272022,0.0,0.0,0.0,-0.0002374458256879,0.012038504518307,0.0010114780512896,0.0,0.0,0.0,-0.0003571817272022,0.0010114780512896,0.0051415712385061,0.0,0.0,0.0,0.0,0.0,0.0,0.0,0.0,0.0,0.0,0.0,0.0,0.0,0.0,0.0,0.0,0.0,0.0,0.0,0.0,0.0,0,0,0,1,23,,16
2.301318303,0,1735643777088230371,map,0.9594232792544788,-0.2227394841784805,0.0287247955238473,-0.4828527630683908,0.4949425600186785,-0.5024918943181658,0.5190250163758183,0.0,0.0,0.0,1,0.0493991002440452,0,1735643777088253974,map,0.9579961494358312,-0.2526622180360913,0.1497570159754557,-0.5093880137455594,0.5103429358478226,-0.4807670063273488,0.4989358925850276,0.0,0.0,0.0,16,0.6549049615859985,0,1735643777088270664,map,0.9657203169541592,0.0566007350698911,0.0309337758030886,-0.4920707961342387,0.4930541959262823,-0.4942651528289234,0.5200633136170103,0.0,0.0,0.0,17,0.0001306003978243,0,1735643777088284730,map,0.9679435892090884,-0.2543890898578573,0.2378690461824016,0.4436583096609093,-0.518448027914628,0.5431353887202575,-0.489267714181053,0.0,0.0,0.0,121,0.6698388457298279,0,1735643777088297367,map,1.014375717859343,0.2070835519474592,0.2447182756035486,-0.5092215658539118,0.4943700125759813,-0.4934886683310145,0.502753042520676,0.0,0.0,0.0,122,6.681090781057719e-06,0,1735643777088310956,map,1.0020725368689338,0.2067896460849162,0.1464527116182917,-0.476785321116287,0.5025590463377401,-0.4923711477350863,0.5269542820683534,0.0,0.0,0.0,124,4.808704034076072e-06,0,1735643777088322877,map,0.95980293069949,-0.025477798623497,0.2438502220870617,-0.506849294879835,0.5165398497555804,-0.4916635774284055,0.4843111629155362,0.0,0.0,0.0,125,0.0189921390265226,0,1735643777088343858,map,0.9653362284151688,-0.0162078169354591,0.1456612980648401,-0.5018595923728688,0.491103470885078,-0.5017996800499451,0.5051251444243693,0.0,0.0,0.0,126,0.0129536120221018,0,1735644242188269615,map,0.9725488570868532,0.3264452355847295,0.0283655561644267,-0.498462453991667,0.4921816875310753,-0.4834963620365701,0.5249034542819,0.0,0.0,0.0,0,7.906638122001651e-10,0.9389398103761636,-0.3296519194687532,0.1901156500043007,1.0,2.7398885091540272e-05,-0.0001994718059449,-0.0003685964334838,0.0,0.0,0.0,-0.0001994718059449,0.0121178421938606,0.000425282105379,0.0,0.0,0.0,-0.0003685964334838,0.000425282105379,0.0054368417812277,0.0,0.0,0.0,0.0,0.0,0.0,0.0,0.0,0.0,0.0,0.0,0.0,0.0,0.0,0.0,0.0,0.0,0.0,0.0,0.0,0.0,0,0,0,1,24,,16
2.399926033,0,1735643777088230371,map,0.9594232792544788,-0.2227394841784805,0.0287247955238473,-0.4828527630683908,0.4949425600186785,-0.5024918943181658,0.5190250163758183,0.0,0.0,0.0,1,0.0680538862943649,0,1735643777088253974,map,0.9507039061390924,-0.2519368650862176,0.1521150985781375,-0.5093863804531559,0.4909913378066576,-0.4779019663471345,0.5206368524885683,0.0,0.0,0.0,16,0.7315472960472107,0,1735643777088270664,map,0.9657203169541592,0.0566007350698911,0.0309337758030886,-0.4920707961342387,0.4930541959262823,-0.4942651528289234,0.5200633136170103,0.0,0.0,0.0,17,0.0003705532581079,0,1735643777088284730,map,0.9658457265574568,-0.2540864946024884,0.2390202063817086,-0.4897675996541258,0.5090245273602281,-0.4930220192407028,0.5078887844977007,0.0,0.0,0.0,121,0.656516432762146,0,1735643777088297367,map,1.014375717859343,0.2070835519474592,0.2447182756035486,-0.5092215658539118,0.4943700125759813,-0.4934886683310145,0.502753042520676,0.0,0.0,0.0,122,1.1385173820599448e-05,0,1735643777088310956,map,1.0020725368689338,0.2067896460849162,0.1464527116182917,-0.476785321116287,0.5025590463377401,-0.4923711477350863,0.5269542820683534,0.0,0.0,0.0,124,1.2961033462488558e-05,0,1735643777088322877,map,0.9587282201513748,-0.0236056210279464,0.2450388458337789,-0.5074370234227907,0.4994568115200504,-0.4892167521219614,0.5037038119066418,0.0,0.0,0.0,125,0.0210244879126548,0,1735643777088343858,map,0.9543074738215308,-0.0198728708734016,0.14905007405402,-0.4972768351083083,0.4953371962650196,-0.5055408293211686,0.5017821052511124,0.0,0.0,0.0,126,0.0231114439666271,0,1735644242188269615,map,0.9725488570868532,0.3264452355847295,0.0283655561644267,-0.498462453991667,0.4921816875310753,-0.4834963620365701,0.5249034542819,0.0,0.0,0.0,0,5.950197223825171e-09,0.9390651875495988,-0.323263468692277,0.1868830830455133,1.0,2.668019614272449e-05,-0.0001722697520835,-0.000363579538742,0.0,0.0,0.0,-0.0001722697520835,0.0126126237858692,-8.735545638511205e-05,0.0,0.0,0.0,-0.000363579538742,-8.735545638511205e-05,0.0054701558494116,0.0,0.0,0.0,0.0,0.0,0.0,0.0,0.0,0.0,0.0,0.0,0.0,0.0,0.0,0.0,0.0,0.0,0.0,0.0,0.0,0.0,0,0,0,1,25,,16
2.499959053,0,1735643777088230371,map,0.9594232792544788,-0.2227394841784805,0.0287247955238473,-0.4828527630683908,0.4949425600186785,-0.5024918943181658,0.5190250163758183,0.0,0.0,0.0,1,0.07750254124403,0,1735643777088253974,map,0.955819089997751,-0.2516923074667323,0.1508190863970349,-0.5125355571538307,0.5245463933470795,-0.4800979723199583,0.4813151990679785,0.0,0.0,0.0,16,0.7726120352745056,0,1735643777088270664,map,0.9657203169541592,0.0566007350698911,0.0309337758030886,-0.4920707961342387,0.4930541959262823,-0.4942651528289234,0.5200633136170103,0.0,0.0,0.0,17,0.0008043201523832,0,1735643777088284730,map,0.9657500293506946,-0.2537882541079846,0.2394538598861257,-0.4992936418288735,0.5086483225432078,-0.4835656738137607,0.5080816689394384,0.0,0.0,0.0,121,0.6582282185554504,0,1735643777088297367,map,1.014375717859343,0.2070835519474592,0.2447182756035486,-0.5092215658539118,0.4943700125759813,-0.4934886683310145,0.502753042520676,0.0,0.0,0.0,122,2.4527014829800464e-05,0,1735643777088310956,map,1.0020725368689338,0.2067896460849162,0.1464527116182917,-0.476785321116287,0.5025590463377401,-0.4923711477350863,0.5269542820683534,0.0,0.0,0.0,124,3.611367719713599e-05,0,1735643777088322877,map,0.9585891255071276,-0.0226228305369646,0.2453439432636826,-0.5053470006411941,0.4927973972670507,-0.4860137892137689,0.515330700505844,0.0,0.0,0.0,125,0.0265571419149637,0,1735643777088343858,map,0.9559970184896938,-0.0179090477195379,0.1488852355211496,-0.5023639296675091,0.4921932230387172,-0.4989490501421417,0.5063853855770646,0.0,0.0,0.0,126,0.0338496901094913,0,1735644242188269615,map,0.9725488570868532,0.3264452355847295,0.0283655561644267,-0.498462453991667,0.4921816875310753,-0.4834963620365701,0.5249034542819,0.0,0.0,0.0,0,3.3967335610896043e-08,0.9390842047122356,-0.3161059523745495,0.1850824893081643,1.0,2.566307606448864e-05,-0.0001622411010907,-0.0003504517649275,0.0,0.0,0.0,-0.0001622411010907,0.0134082738669915,-0.0004061901075563,0.0,0.0,0.0,-0.0003504517649275,-0.0004061901075563,0.0053408186849934,0.0,0.0,0.0,0.0,0.0,0.0,0.0,0.0,0.0,0.0,0.0,0.0,0.0,0.0,0.0,0.0,0.0,0.0,0.0,0.0,0.0,0,0,0,1,26,,16
