%time,field.boxes0.header.seq,field.boxes0.header.stamp,field.boxes0.header.frame_id,field.boxes0.pose.position.x,field.boxes0.pose.position.y,field.boxes0.pose.position.z,field.boxes0.pose.orientation.x,field.boxes0.pose.orientation.y,field.boxes0.pose.orientation.z,field.boxes0.pose.orientation.w,field.boxes0.scale.x,field.boxes0.scale.y,field.boxes0.scale.z,field.boxes0.id,field.boxes0.pdf,field.boxes1.header.seq,field.boxes1.header.stamp,field.boxes1.header.frame_id,field.boxes1.pose.position.x,field.boxes1.pose.position.y,field.boxes1.pose.position.z,field.boxes1.pose.orientation.x,field.boxes1.pose.orientation.y,field.boxes1.pose.orientation.z,field.boxes1.pose.orientation.w,field.boxes1.scale.x,field.boxes1.scale.y,field.boxes1.scale.z,field.boxes1.id,field.boxes1.pdf,field.boxes2.header.seq,field.boxes2.header.stamp,field.boxes2.header.frame_id,field.boxes2.pose.position.x,field.boxes2.pose.position.y,field.boxes2.pose.position.z,field.boxes2.pose.orientation.x,field.boxes2.pose.orientation.y,field.boxes2.pose.orientation.z,field.boxes2.pose.orientation.w,field.boxes2.scale.x,field.boxes2.scale.y,field.boxes2.scale.z,field.boxes2.id,field.boxes2.pdf,field.boxes3.header.seq,field.boxes3.header.stamp,field.boxes3.header.frame_id,field.boxes3.pose.position.x,field.boxes3.pose.position.y,field.boxes3.pose.position.z,field.boxes3.pose.orientation.x,field.boxes3.pose.orientation.y,field.boxes3.pose.orientation.z,field.boxes3.pose.orientation.w,field.boxes3.scale.x,field.boxes3.scale.y,field.boxes3.scale.z,field.boxes3.id,field.boxes3.pdf,field.boxes4.header.seq,field.boxes4.header.stamp,field.boxes4.header.frame_id,field.boxes4.pose.position.x,field.boxes4.pose.position.y,field.boxes4.pose.position.z,field.boxes4.pose.orientation.x,field.boxes4.pose.orientation.y,field.boxes4.pose.orientation.z,field.boxes4.pose.orientation.w,field.boxes4.scale.x,field.boxes4.scale.y,field.boxes4.scale.z,field.boxes4.id,field.boxes4.pdf,field.boxes5.header.seq,field.boxes5.header.stamp,field.boxes5.header.frame_id,field.boxes5.pose.position.x,field.boxes5.pose.position.y,field.boxes5.pose.position.z,field.boxes5.pose.orientation.x,field.boxes5.pose.orientation.y,field.boxes5.pose.orientation.z,field.boxes5.pose.orientation.w,field.boxes5.scale.x,field.boxes5.scale.y,field.boxes5.scale.z,field.boxes5.id,field.boxes5.pdf,field.boxes6.header.seq,field.boxes6.header.stamp,field.boxes6.header.frame_id,field.boxes6.pose.position.x,field.boxes6.pose.position.y,field.boxes6.pose.position.z,field.boxes6.pose.orientation.x,field.boxes6.pose.orientation.y,field.boxes6.pose.orientation.z,field.boxes6.pose.orientation.w,field.boxes6.scale.x,field.boxes6.scale.y,field.boxes6.scale.z,field.boxes6.id,field.boxes6.pdf,field.boxes7.header.seq,field.boxes7.header.stamp,field.boxes7.header.frame_id,field.boxes7.pose.position.x,field.boxes7.pose.position.y,field.boxes7.pose.position.z,field.boxes7.pose.orientation.x,field.boxes7.pose.orientation.y,field.boxes7.pose.orientation.z,field.boxes7.pose.orientation.w,field.boxes7.scale.x,field.boxes7.scale.y,field.boxes7.scale.z,field.boxes7.id,field.boxes7.pdf,field.boxes8.header.seq,field.boxes8.header.stamp,field.boxes8.header.frame_id,field.boxes8.pose.position.x,field.boxes8.pose.position.y,field.boxes8.pose.position.z,field.boxes8.pose.orientation.x,field.boxes8.pose.orientation.y,field.boxes8.pose.orientation.z,field.boxes8.pose.orientation.w,field.boxes8.scale.x,field.boxes8.scale.y,field.boxes8.scale.z,field.boxes8.id,field.boxes8.pdf,field.pose.pose.position.x,field.pose.pose.position.y,field.pose.pose.position.z,field.pose.pose.orientation.w,field.pose.covariance0,field.pose.covariance1,field.pose.covariance2,field.pose.covariance3,field.pose.covariance4,field.pose.covariance5,field.pose.covariance6,field.pose.covariance7,field.pose.covariance8,field.pose.covariance9,field.pose.covariance10,field.pose.covariance11,field.pose.covariance12,field.pose.covariance13,field.pose.covariance14,field.pose.covariance15,field.pose.covariance16,field.pose.covariance17,field.pose.covariance18,field.pose.covariance19,field.pose.covariance20,field.pose.covariance21,field.pose.covariance22,field.pose.covariance23,field.pose.covariance24,field.pose.covariance25,field.pose.covariance26,field.pose.covariance27,field.pose.covariance28,field.pose.covariance29,field.pose.covariance30,field.pose.covariance31,field.pose.covariance32,field.pose.covariance33,field.pose.covariance34,field.pose.covariance35,field.buttons0,field.buttons1,field.buttons2,field.buttons3,intersection_length,vacuum,desired_box
0.0,0,1735643777088230371,map,0.9868578869098914,-0.2224453010280675,0.0198814521550995,-0.4833753807107405,0.51665663758884,-0.5142684043633141,0.4847083333632214,0.0,0.0,0.0,1,0.1111111119389534,0,1735643777088253974,map,0.9765734479701748,-0.2491637434658808,0.1497472879549685,0.5328491592166883,-0.5136460858202102,0.4550021103274577,-0.4951894098637468,0.0,0.0,0.0,16,0.1111111119389534,0,1735643777088270664,map,0.9852232174736744,0.0560712707756508,0.0260148973750723,-0.4937500119174842,0.4921503330744079,-0.4942579632875867,0.5193342287131094,0.0,0.0,0.0,17,0.1111111119389534,0,1735643777088284730,map,1.0120173914126305,-0.2572120460227828,0.237440532167168,-0.4971214333559595,0.5070379774771664,-0.4983701203340646,0.4974032499413237,0.0,0.0,0.0,121,0.1111111119389534,0,1735643777088297367,map,1.00839782577312,0.2102583932837237,0.2424265820641055,-0.5082663747843577,0.4957623093626799,-0.4914448934455817,0.5043480361667037,0.0,0.0,0.0,122,0.1111111119389534,0,1735643777088310956,map,1.0031630515752616,0.20721909441504,0.1446156512505795,-0.4772472083162726,0.4952735699845631,-0.4917831442649854,0.5339368240212647,0.0,0.0,0.0,124,0.1111111119389534,0,1735643777088322877,map,0.9903192127629088,-0.0266607927850285,0.2426299245909927,-0.502762829139957,0.5544201040108321,-0.4881490578336475,0.4489525400751474,0.0,0.0,0.0,125,0.1111111119389534,0,1735643777088343858,map,0.994312769126226,-0.0211591163292796,0.1461619314434772,-0.4688770200244495,0.4727246948134558,-0.532542484441929,0.5225745930208767,0.0,0.0,0.0,126,0.1111111119389534,0,1735644242188269615,map,0.973150237375465,0.3322254862804634,0.0252813447496594,-0.5053349725530648,0.5032391847212349,-0.4882438314110248,0.502995874302149,0.0,0.0,0.0,0,0.1111111119389534,0.917730319998153,-0.2988769365519528,0.5016235146521241,1.0,0.0,0.0,0.0,0.0,0.0,0.0,0.0,0.0,0.0,0.0,0.0,0.0,0.0,0.0,0.0,0.0,0.0,0.0,0.0,0.0,0.0,0.0,0.0,0.0,0.0,0.0,0.0,0.0,0.0,0.0,0.0,0.0,0.0,0.0,0.0,0.0,0,0,0,1,1,,121
0.099138159,0,1735643777088230371,map,0.9708511120545412,-0.2197523897728021,0.0265251283314124,-0.5097975524993039,0.7485585924486378,-0.347340579177062,0.2431481260342689,0.0,0.0,0.0,1,0.0,0,1735643777088253974,map,0.9873803301743824,-0.2520055735777847,0.1500102072178454,-0.4978852299043749,0.504947355920631,-0.499768058679385,0.4973634014638287,0.0,0.0,0.0,16,0.0,0,1735643777088270664,map,0.9814703192889562,0.0542036140904651,0.0292143881577143,-0.483283506789672,0.4990641618239302,-0.5045644009108045,0.5126273303107974,0.0,0.0,0.0,17,0.0,0,1735643777088284730,map,1.0104224936278634,-0.2569847240080019,0.2390832702236963,-0.402330951270653,0.6167167122173938,-0.5560687631039908,0.3854579525984869,0.0,0.0,0.0,121,0.0,0,1735643777088297367,map,1.009583107994489,0.2101512467493962,0.2441095575249549,-0.48376034311558,0.4823925725586308,-0.5157692364334359,0.5169675339108176,0.0,0.0,0.0,122,0.0,0,1735643777088310956,map,1.0076814811609414,0.2085013992171669,0.1456118600883494,-0.4947443703183878,0.5036876053373386,-0.4707317989133983,0.5290920314648055,0.0,0.0,0.0,124,0.0,0,1735643777088322877,map,1.0054515312049384,-0.0252965803991454,0.2442224215786798,-0.5703728156397389,0.4393614594468837,-0.4120921367547752,0.5584052560253921,0.0,0.0,0.0,125,0.0,0,1735643777088343858,map,0.997263957187064,-0.0212378139705873,0.1479079090215186,-0.4744694762820978,0.4723806471677453,-0.5253184242577943,0.5251435931183788,0.0,0.0,0.0,126,0.0,0,1735644242188269615,map,0.973150237375465,0.3322254862804634,0.0252813447496594,-0.5053349725530648,0.5032391847212349,-0.4882438314110248,0.502995874302149,0.0,0.0,0.0,0,0.0,0.9184718402109032,-0.3056884446943367,0.4919470405094354,1.0,5.498522259168576e-07,-5.050870966889132e-06,-7.175301164956688e-06,0.0,0.0,0.0,-5.050870966889132e-06,4.63966431737626e-05,6.591138241249117e-05,0.0,0.0,0.0,-7.175301164956688e-06,6.591138241249117e-05,9.363415183412164e-05,0.0,0.0,0.0,0.0,0.0,0.0,0.0,0.0,0.0,0.0,0.0,0.0,0.0,0.0,0.0,0.0,0.0,0.0,0.0,0.0,0.0,0,0,0,1,2,,121
0.198383802,0,1735643777088230371,map,0.979507329069415,-0.2218658601795919,0.0228367719485461,-0.4973205659144892,0.4944892916572855,-0.4942754807261882,0.5136578085726563,0.0,0.0,0.0,1,0.0,0,1735643777088253974,map,0.9844315200621168,-0.251240808598633,0.1492299533774134,-0.4860981320110208,0.4841281570453588,-0.5105009684217554,0.5183794892274485,0.0,0.0,0.0,16,0.0,0,1735643777088270664,map,0.984104280551835,0.0549569384201108,0.0269680662691116,-0.4877154017033377,0.5033051838945152,-0.5033334600471638,0.5054433764559687,0.0,0.0,0.0,17,0.0,0,1735643777088284730,map,1.012141414903383,-0.2576803901159141,0.2374912198731807,-0.4607270835108215,0.4942186417122472,-0.530300220907685,0.5121134292409976,0.0,0.0,0.0,121,0.0,0,1735643777088297367,map,1.0140087042076076,0.2124011313397406,0.2423822422689763,-0.4985932476049761,0.4738109052130824,-0.4980646981304381,0.5280526072467757,0.0,0.0,0.0,122,0.0,0,1735643777088310956,map,1.0070347586208055,0.208720609108473,0.1442414290251553,-0.4907723878320995,0.5050315632256502,-0.4751006950012086,0.5276029881424135,0.0,0.0,0.0,124,0.0,0,1735643777088322877,map,1.0000436404065476,-0.0256818748181155,0.242796183358193,-0.4701736272570633,0.5322431124568071,-0.5265697621538775,0.4673096565013771,0.0,0.0,0.0,125,0.0,0,1735643777088343858,map,0.9990735001037168,-0.0208057964642303,0.1459776960299214,0.4837911758915892,-0.5190370789421864,0.5232450756931022,-0.4719758463899562,0.0,0.0,0.0,126,0.0,0,1735644242188269615,map,0.973150237375465,0.3322254862804634,0.0252813447496594,-0.5053349725530648,0.5032391847212349,-0.4882438314110248,0.502995874302149,0.0,0.0,0.0,0,0.0,0.919564696105006,-0.3191913382835601,0.4784192453959148,1.0,2.7552361611620845e-06,-3.2880681004113246e-05,-3.4351395358025774e-05,0.0,0.0,0.0,-3.2880681004113246e-05,0.0003955873660129,0.0004092696774377,0.0,0.0,0.0,-3.4351395358025774e-05,0.0004092696774377,0.0004284252491562,0.0,0.0,0.0,0.0,0.0,0.0,0.0,0.0,0.0,0.0,0.0,0.0,0.0,0.0,0.0,0.0,0.0,0.0,0.0,0.0,0.0,0,0,0,1,3,,121
0.298948202,0,1735643777088230371,map,0.9775385684518944,-0.2222268219206166,0.0254044627989794,-0.4812995041704052,0.4896792142058285,-0.5075309688494383,0.5205548675392776,0.0,0.0,0.0,1,0.0,0,1735643777088253974,map,0.9833090164214712,-0.2521447841651205,0.1507448061853147,-0.4942919336497097,0.4977513245214005,-0.4980719709829121,0.5097483839966732,0.0,0.0,0.0,16,0.0,0,1735643777088270664,map,0.9891078554369984,0.0551521124306095,0.0267453309846,-0.4863186893876053,0.4972500448250059,-0.5031031320502226,0.5129559082368659,0.0,0.0,0.0,17,0.0,0,1735643777088284730,map,1.0110747775436824,-0.2584087643949191,0.2388695338104091,-0.4931332467114009,0.5093033357232543,-0.492256042442375,0.5050878160161949,0.0,0.0,0.0,121,0.0,0,1735643777088297367,map,1.0147438595256977,0.2125976555925616,0.243628734076389,0.5146221704097759,-0.5036076462120819,0.4927089134234761,-0.4886525217703433,0.0,0.0,0.0,122,0.0,0,1735643777088310956,map,1.0056899881076249,0.2073286822415104,0.145786290272475,-0.4771369376143555,0.5013631827755543,-0.4867334794743445,0.5329782562919041,0.0,0.0,0.0,124,0.0,0,1735643777088322877,map,1.006405588304106,-0.0259180538014829,0.2439935347621286,-0.4815230810414514,0.4838617938027213,-0.5107451932212635,0.52264006211133,0.0,0.0,0.0,125,0.0,0,1735643777088343858,map,1.0032377949006055,-0.0213686724182117,0.146874856259234,0.6863125885724058,-0.486270390807508,0.3212049175890256,-0.4351362300562712,0.0,0.0,0.0,126,0.0,0,1735644242188269615,map,0.973150237375465,0.3322254862804634,0.0252813447496594,-0.5053349725530648,0.5032391847212349,-0.4882438314110248,0.502995874302149,0.0,0.0,0.0,0,0.0,0.91995973984288,-0.3449145961523702,0.4779421176194959,1.0,2.534605785371916e-06,-5.514594656945838e-05,-2.6329005539239326e-05,0.0,0.0,0.0,-5.514594656945838e-05,0.0022817485106656,0.0003437721005658,0.0,0.0,0.0,-2.6329005539239326e-05,0.0003437721005658,0.0003220018896122,0.0,0.0,0.0,0.0,0.0,0.0,0.0,0.0,0.0,0.0,0.0,0.0,0.0,0.0,0.0,0.0,0.0,0.0,0.0,0.0,0.0,0,0,0,1,4,,121
0.398292051,0,1735643777088230371,map,0.9858306933621664,-0.2242782412465617,0.0231838555744053,0.4820802801948216,-0.4999983575165637,0.5190846961881191,-0.4981478938139844,0.0,0.0,0.0,1,0.0,0,1735643777088253974,map,0.9762116992077386,-0.2510482625580313,0.152493744450862,-0.4852099066351233,0.4684437422147791,-0.5035165726434491,0.540002655508603,0.0,0.0,0.0,16,8.41328296233806e-31,0,1735643777088270664,map,0.9973472040516148,0.0571831197453211,0.0244910997287554,-0.507686063903991,0.4945351147983927,-0.484290280003181,0.5129842155889929,0.0,0.0,0.0,17,0.0,0,1735643777088284730,map,1.0072965242038503,-0.2580587316464154,0.2393551324493713,-0.4662218855672275,0.4636682912175464,-0.5242054774919211,0.5411630867908555,0.0,0.0,0.0,121,9.560764450944096e-18,0,1735643777088297367,map,1.009088572970398,0.2091814417109198,0.2443302830495641,-0.4888892236021048,0.492026802524152,-0.510063197896277,0.5086575339021475,0.0,0.0,0.0,122,0.0,0,1735643777088310956,map,1.0147030340163434,0.2118231818622198,0.1447875060772425,-0.4896290731667699,0.505106779600164,-0.4746003978288531,0.5290415619707924,0.0,0.0,0.0,124,0.0,0,1735643777088322877,map,1.0018890783200478,-0.0268917791129687,0.2445134043158116,-0.6136859203624018,0.462978851460038,-0.3879782051741124,0.5084418221975554,0.0,0.0,0.0,125,4.466031207179672e-36,0,1735643777088343858,map,0.9999874007082457,-0.0221366094375264,0.1481647612836237,0.68304558803262,-0.4876382504339076,0.3243650615375173,-0.4364000094370906,0.0,0.0,0.0,126,0.0,0,1735644242188269615,map,0.973150237375465,0.3322254862804634,0.0252813447496594,-0.5053349725530648,0.5032391847212349,-0.4882438314110248,0.502995874302149,0.0,0.0,0.0,0,0.0,0.9209036637514568,-0.3485053694529729,0.4645488017314106,1.0,5.591654009028678e-06,-5.767442433043859e-05,-7.16322887589288e-05,0.0,0.0,0.0,-5.767442433043859e-05,0.0018769734201177,0.0004673871248425,0.0,0.0,0.0,-7.16322887589288e-05,0.0004673871248425,0.0009751251536019,0.0,0.0,0.0,0.0,0.0,0.0,0.0,0.0,0.0,0.0,0.0,0.0,0.0,0.0,0.0,0.0,0.0,0.0,0.0,0.0,0.0,0,0,0,1,5,,121
0.4987828,0,1735643777088230371,map,0.978902403433168,-0.2225544425737208,0.0239872882973152,-0.4844009479821524,0.4940647942140567,-0.5010388665271178,0.5198228111014701,0.0,0.0,0.0,1,3.9005148572562414e-24,0,1735643777088253974,map,0.9890893255841848,-0.2531185391079465,0.148975118110516,-0.4898958142045551,0.4909007544415674,-0.5072622413329616,0.5115697010490514,0.0,0.0,0.0,16,1.0175358819419775e-12,0,1735643777088270664,map,0.995055318041633,0.0583067567497143,0.0237307644878348,-0.4981749064416635,0.4870836154756114,-0.4892682439631775,0.5245835487091023,0.0,0.0,0.0,17,0.0,0,1735643777088284730,map,1.0124241441732804,-0.2583857326306762,0.2378518173408521,-0.4546779677608447,0.4844265687678782,-0.5382752802468579,0.5185157353251826,0.0,0.0,0.0,121,1.79848115067216e-07,0,1735643777088297367,map,1.01325203158043,0.2142284978953844,0.2427723292432544,-0.5042972038031572,0.4964623650297243,-0.4978984389628199,0.501304892080455,0.0,0.0,0.0,122,0.0,0,1735643777088310956,map,1.0117634210139,0.2104103159371203,0.1447313966478097,-0.4755067571023319,0.496915156660243,-0.4805761743091528,0.5440727816365468,0.0,0.0,0.0,124,0.0,0,1735643777088322877,map,1.008233305917258,-0.0255829985711071,0.2442490042197275,0.4689842375673276,-0.517604938509688,0.5249132316663935,-0.4864206119864963,0.0,0.0,0.0,125,1.0750707487967404e-22,0,1735643777088343858,map,1.011077948438153,-0.0200461517545776,0.1455468288839083,-0.4855796527397117,0.4879874287808927,-0.516867411404628,0.5088504193030345,0.0,0.0,0.0,126,6.731833837667613e-30,0,1735644242188269615,map,0.973150237375465,0.3322254862804634,0.0252813447496594,-0.5053349725530648,0.5032391847212349,-0.4882438314110248,0.502995874302149,0.0,0.0,0.0,0,0.0,0.9219727289212898,-0.3474733512012189,0.4483002947596988,1.0,1.0374213360942117e-05,-4.254554643745443e-05,-0.000146547138292,0.0,0.0,0.0,-4.254554643745443e-05,0.0015694698251245,0.0003056454919093,0.0,0.0,0.0,-0.000146547138292,0.0003056454919093,0.0021326741887171,0.0,0.0,0.0,0.0,0.0,0.0,0.0,0.0,0.0,0.0,0.0,0.0,0.0,0.0,0.0,0.0,0.0,0.0,0.0,0.0,0.0,0,0,0,1,6,,121
0.598294728,0,1735643777088230371,map,0.9843395627551466,-0.224188291889697,0.021865102936573,-0.5626165708773687,0.7309114844819774,-0.2978527431917925,0.2459974377908579,0.0,0.0,0.0,1,1.410520056874601e-13,0,1735643777088253974,map,0.9759936241896654,-0.2515617710762367,0.1509990856614562,-0.5004315676619364,0.4872130917098562,-0.4820954455885964,0.5289382106604442,0.0,0.0,0.0,16,3.150542511320964e-07,0,1735643777088270664,map,0.9992760141887436,0.0591273539843061,0.0209356728607154,-0.5123302017754151,0.5010813983996009,-0.4798872511063003,0.5061061378330654,0.0,0.0,0.0,17,2.6624670822171524e-43,0,1735643777088284730,map,1.0012427932959804,-0.2566136962955199,0.2378370455215786,-0.3968282739681628,0.6480328659965022,-0.5414883004366423,0.3596820068588986,0.0,0.0,0.0,121,0.0001063777963281,0,1735643777088297367,map,1.0059279297541894,0.2100898044359348,0.2425489161127109,-0.4993917326044568,0.495847498219773,-0.4999715100582051,0.5047490911786064,0.0,0.0,0.0,122,0.0,0,1735643777088310956,map,1.005966101314723,0.2099254408569914,0.1438259545629854,-0.4898994184345056,0.5105407810489071,-0.482408967339018,0.516360590028332,0.0,0.0,0.0,124,0.0,0,1735643777088322877,map,0.9930578352998912,-0.0275021314188226,0.2434609793589604,-0.5035286842212847,0.5455334599476788,-0.4916875235620169,0.4550774521082616,0.0,0.0,0.0,125,5.49419936277872e-22,0,1735643777088343858,map,0.9955801789931652,-0.021665180325616,0.1462572324534678,0.4732845246549613,-0.4927048726416629,0.5357497343239155,-0.4962014604665567,0.0,0.0,0.0,126,3.402679099704925e-26,0,1735644242188269615,map,0.973150237375465,0.3322254862804634,0.0252813447496594,-0.5053349725530648,0.5032391847212349,-0.4882438314110248,0.502995874302149,0.0,0.0,0.0,0,0.0,0.9234361499447816,-0.3497077297090074,0.4268302406644285,1.0,2.1741789432798297e-05,-5.608663012852134e-05,-0.0003141302040529,0.0,0.0,0.0,-5.608663012852134e-05,0.0013752145340031,0.0005498152147971,0.0,0.0,0.0,-0.0003141302040529,0.0005498152147971,0.0045937857845948,0.0,0.0,0.0,0.0,0.0,0.0,0.0,0.0,0.0,0.0,0.0,0.0,0.0,0.0,0.0,0.0,0.0,0.0,0.0,0.0,0.0,0,0,0,1,7,,121
0.698375252,0,1735643777088230371,map,0.9821822959859964,-0.2244284613384687,0.0228433790041855,0.4763495269922042,-0.5023349136230497,0.5237997486149683,-0.4963714194436691,0.0,0.0,0.0,1,3.5193252756471342e-09,0,1735643777088253974,map,0.990527597754108,-0.2547706329336246,0.1488601258471106,-0.4849634050544409,0.5227538287473861,-0.512399681704302,0.4785242903733114,0.0,0.0,0.0,16,7.120042573660612e-05,0,1735643777088270664,map,0.9927231586452668,0.0569645454993091,0.0239407766062041,-0.4932930276376883,0.500774024943483,-0.4964320717707173,0.5093550460566579,0.0,0.0,0.0,17,1.2783635145016769e-33,0,1735643777088284730,map,1.008307574172524,-0.2587721570587644,0.2378746043951558,-0.4852617829546193,0.5176970010186386,-0.4958858283833775,0.5006076930576911,0.0,0.0,0.0,121,0.0032347165979444,0,1735643777088297367,map,1.0059279297541894,0.2100898044359348,0.2425489161127109,-0.4993917326044568,0.495847498219773,-0.4999715100582051,0.5047490911786064,0.0,0.0,0.0,122,0.0,0,1735643777088310956,map,1.0004896093122306,0.207151837640539,0.1451179997878507,-0.4770721598575808,0.5067974674345039,-0.497175937846214,0.5180488086247605,0.0,0.0,0.0,124,0.0,0,1735643777088322877,map,1.0031766206800776,-0.0256810959973381,0.2430748167559583,-0.6210849384870338,0.4042358638509324,-0.3614806876008574,0.5658432451243537,0.0,0.0,0.0,125,9.413569728891817e-19,0,1735643777088343858,map,0.9997486771018912,-0.0212341506835353,0.1458249359484706,0.717427780264046,-0.4404514913311776,0.2841054180916301,-0.4588942964349478,0.0,0.0,0.0,126,5.504418052374787e-21,0,1735644242188269615,map,0.973150237375465,0.3322254862804634,0.0252813447496594,-0.5053349725530648,0.5032391847212349,-0.4882438314110248,0.502995874302149,0.0,0.0,0.0,0,0.0,0.924381496698134,-0.3455875037811882,0.4117829599157698,1.0,2.5279829142215027e-05,-2.1810505934862445e-05,-0.0003744382145639,0.0,0.0,0.0,-2.1810505934862445e-05,0.0013221465491266,4.710093896094766e-05,0.0,0.0,0.0,-0.0003744382145639,4.710093896094766e-05,0.0056045071670231,0.0,0.0,0.0,0.0,0.0,0.0,0.0,0.0,0.0,0.0,0.0,0.0,0.0,0.0,0.0,0.0,0.0,0.0,0.0,0.0,0.0,0,0,0,1,8,,121
0.79846313,0,1735643777088230371,map,0.9771698422897518,-0.2232232594916439,0.0251234543656017,-0.4780469311723378,0.4926672434971409,-0.5059662710462427,0.5222530529783418,0.0,0.0,0.0,1,2.198842530276579e-08,0,1735643777088253974,map,0.9863343855596826,-0.2534715019363994,0.1500195385730617,-0.4882886023996607,0.517878950462839,-0.5076967384025945,0.4854066905693224,0.0,0.0,0.0,16,0.0002262577036162,0,1735643777088270664,map,0.9839624527659532,0.0550709804765841,0.0276281886161035,-0.4816573617778368,0.5014360447844414,-0.5037454175388534,0.5126486449262845,0.0,0.0,0.0,17,2.6379696641353207e-26,0,1735643777088284730,map,1.0043083217947255,-0.2574947637050103,0.2384156328556641,-0.4704203387950686,0.4945343781428825,-0.5121830973202322,0.5213529787986436,0.0,0.0,0.0,121,0.009665148332715,0,1735643777088297367,map,0.995707708186005,0.2064915058286253,0.2438244696687179,-0.4926016900520106,0.4985017715916487,-0.5067790678327846,0.5020104930023116,0.0,0.0,0.0,122,6.410099695207442e-41,0,1735643777088310956,map,1.000943404546187,0.2097322433883029,0.1450104342810353,-0.4753278500232029,0.5048296195785198,-0.4934075989987275,0.5251280143344451,0.0,0.0,0.0,124,1.0719933252084849e-42,0,1735643777088322877,map,1.002109059023391,-0.0240658559334969,0.2436059219325055,-0.5122637563950829,0.519632942089687,-0.4832620503419003,0.4837615529148193,0.0,0.0,0.0,125,1.1937792673334148e-14,0,1735643777088343858,map,1.0025155836447204,-0.0189259578088766,0.1453618238406664,-0.4979493997532996,0.478839882331294,-0.4940399955544097,0.5279045796040038,0.0,0.0,0.0,126,1.3410005921759391e-16,0,1735644242188269615,map,0.973150237375465,0.3322254862804634,0.0252813447496594,-0.5053349725530648,0.5032391847212349,-0.4882438314110248,0.502995874302149,0.0,0.0,0.0,0,0.0,0.924534950309822,-0.3381638756371854,0.4079102279026754,1.0,2.26593433250446e-05,-1.0273655982351615e-05,-0.0003375882462173,0.0,0.0,0.0,-1.0273655982351615e-05,0.0016161234155649,-0.000188130277634,0.0,0.0,0.0,-0.0003375882462173,-0.000188130277634,0.0051017685744269,0.0,0.0,0.0,0.0,0.0,0.0,0.0,0.0,0.0,0.0,0.0,0.0,0.0,0.0,0.0,0.0,0.0,0.0,0.0,0.0,0.0,0,0,0,1,9,,121
0.8986852,0,1735643777088230371,map,0.971809410324419,-0.2220720900513326,0.0266565801510656,0.4823916095767112,-0.5038741627423652,0.5175258829651235,-0.4955563778137051,0.0,0.0,0.0,1,8.862341083215597e-09,0,1735643777088253974,map,0.972799197512074,-0.2505780668730648,0.1531604813666847,-0.4648538541803452,0.7130960127117263,-0.4388806846621748,0.2877302826238086,0.0,0.0,0.0,16,0.0001836877636378,0,1735643777088270664,map,0.9773567565687232,0.0548002557484831,0.0297016812291765,-0.4827816388586741,0.5021453587103838,-0.5031886089423536,0.511442227174499,0.0,0.0,0.0,17,6.362127102332437e-22,0,1735643777088284730,map,0.9937758740758798,-0.255283868152422,0.2391231065093425,-0.4685594420073326,0.4784713629875776,-0.514958709702056,0.5351025428911554,0.0,0.0,0.0,121,0.0112494621425867,0,1735643777088297367,map,0.9992191813358032,0.2129682187055823,0.2438896915603937,-0.4948636104164646,0.4917094296473978,-0.5058489892105046,0.5073939731570757,0.0,0.0,0.0,122,1.1435004038584431e-30,0,1735643777088310956,map,0.9969591593844233,0.211268536869796,0.1453588280638489,-0.4895707867064797,0.5066027293314019,-0.4795222550747865,0.5231945396557236,0.0,0.0,0.0,124,1.6248586578347853e-32,0,1735643777088322877,map,0.9993998073914598,-0.0225333139221863,0.2438963123427069,-0.4794556154086337,0.5057509889633931,-0.5125894791398755,0.5015877549250874,0.0,0.0,0.0,125,3.3613899858009326e-11,0,1735643777088343858,map,0.9944540416208234,-0.0185458072960971,0.1463346828763854,-0.4882127060421674,0.4858834502404229,-0.5131555083327703,0.5120908617708219,0.0,0.0,0.0,126,1.957321295060349e-13,0,1735644242188269615,map,0.973150237375465,0.3322254862804634,0.0252813447496594,-0.5053349725530648,0.5032391847212349,-0.4882438314110248,0.502995874302149,0.0,0.0,0.0,0,0.0,0.9242709056410658,-0.3289261956985534,0.4099135513099643,1.0,2.102088527642613e-05,-3.119873163934307e-05,-0.000308590123385,0.0,0.0,0.0,-3.119873163934307e-05,0.0022225236498458,-2.762705819733998e-06,0.0,0.0,0.0,-0.000308590123385,-2.762705819733998e-06,0.004627711459052,0.0,0.0,0.0,0.0,0.0,0.0,0.0,0.0,0.0,0.0,0.0,0.0,0.0,0.0,0.0,0.0,0.0,0.0,0.0,0.0,0.0,0,0,0,1,10,,121
0.999269417,0,1735643777088230371,map,0.9737055569847272,-0.2224524880611787,0.0256628467329689,-0.4729502051605607,0.4930408437905649,-0.5171638381834116,0.515529237064469,0.0,0.0,0.0,1,1.3322748459998481e-09,0,1735643777088253974,map,0.9761880058156096,-0.251719771334745,0.1523605373985063,-0.4918310448069494,0.4777950227241985,-0.505767231700669,0.5234631285601014,0.0,0.0,0.0,16,7.338360592257231e-05,0,1735643777088270664,map,0.9802347580717684,0.05681531711786,0.0281408548361449,-0.4800689148500164,0.4877979017418802,-0.4980821337260342,0.5324483375069053,0.0,0.0,0.0,17,1.890461235586952e-22,0,1735643777088284730,map,1.0018603501447416,-0.2568604668791264,0.2385640243700949,0.4202504890154402,-0.5121308882934944,0.5724032635363204,-0.4831831781332721,0.0,0.0,0.0,121,0.0070909848436713,0,1735643777088297367,map,0.9990539099534246,0.2145474939586757,0.2437992531354893,-0.4943616803955357,0.494789589664504,-0.5041779937761836,0.5065514203987159,0.0,0.0,0.0,122,2.098624384714946e-26,0,1735643777088310956,map,1.000684970944009,0.2156115562828082,0.1441839949385326,-0.4842415231119312,0.4963635538662718,-0.4757083810054223,0.5411422233837255,0.0,0.0,0.0,124,5.664806582375362e-30,0,1735643777088322877,map,0.9989237993279252,-0.0219804847797208,0.2438272621678351,-0.4943425315500325,0.4534667024262709,-0.4864489896015538,0.5597863805122241,0.0,0.0,0.0,125,2.689266032085413e-10,0,1735643777088343858,map,0.9983442517576951,-0.0170234842272235,0.1455941769383795,0.7505233060482629,-0.4706946135186811,0.2547607949477554,-0.3876316360160413,0.0,0.0,0.0,126,2.264417765709265e-13,0,1735644242188269615,map,0.973150237375465,0.3322254862804634,0.0252813447496594,-0.5053349725530648,0.5032391847212349,-0.4882438314110248,0.502995874302149,0.0,0.0,0.0,0,0.0,0.923561696065856,-0.3191392838873062,0.4184755719302739,1.0,2.413967792153389e-05,-9.777219899119306e-05,-0.0003412591458752,0.0,0.0,0.0,-9.777219899119306e-05,0.0029783124733257,0.0008354458566252,0.0,0.0,0.0,-0.0003412591458752,0.0008354458566252,0.0049400923883461,0.0,0.0,0.0,0.0,0.0,0.0,0.0,0.0,0.0,0.0,0.0,0.0,0.0,0.0,0.0,0.0,0.0,0.0,0.0,0.0,0.0,0,0,0,1,11,,121
1.097896921,0,1735643777088230371,map,0.971625719186754,-0.2215814380810067,0.0253962278861514,-0.4733156202550118,0.5011296847726127,-0.5209272442141131,0.5034641684348599,0.0,0.0,0.0,1,2.512508534557867e-10,0,1735643777088253974,map,0.9709872167248238,-0.2503787847004523,0.1528823611844956,-0.4777867474427957,0.4740906741514758,-0.5138113968993584,0.5319358091602441,0.0,0.0,0.0,16,3.592453140299767e-05,0,1735643777088270664,map,0.9793007630029628,0.0583184603054515,0.0272384256035109,-0.4935700617558772,0.484204716429933,-0.4887945488861539,0.5319908605460143,0.0,0.0,0.0,17,1.715045505132547e-21,0,1735643777088284730,map,0.9978674067348192,-0.2556089662056007,0.2381773305740136,-0.4846100889987968,0.6497024471261705,-0.4553768590853477,0.3683364060860769,0.0,0.0,0.0,121,0.0051634516566991,0,1735643777088297367,map,0.9984828547427969,0.2166483514630865,0.2430026025772022,-0.5114058682689333,0.4914906337263736,-0.48852561190547,0.508176860326926,0.0,0.0,0.0,122,8.374468609953484e-22,0,1735643777088310956,map,0.9938352807634816,0.2138414849145365,0.1443540521534505,-0.4854444223733313,0.4981021221295844,-0.4788606763244401,0.5356588852868283,0.0,0.0,0.0,124,1.1549234266417044e-25,0,1735643777088322877,map,0.9972431962839372,-0.0208231916079158,0.2429970704243022,-0.5093428498956141,0.4908647285601906,-0.4856570514866749,0.5135746370850237,0.0,0.0,0.0,125,4.837964695525443e-09,0,1735643777088343858,map,0.9875177697349544,-0.0181391393959471,0.1464064128002003,-0.4833146331101712,0.4682872212762829,-0.5091169361867337,0.5365761726900955,0.0,0.0,0.0,126,2.510548843467908e-12,0,1735644242188269615,map,0.973150237375465,0.3322254862804634,0.0252813447496594,-0.5053349725530648,0.5032391847212349,-0.4882438314110248,0.502995874302149,0.0,0.0,0.0,0,1.8606441009304919e-41,0.9230545034629442,-0.3078802048477098,0.4236967692443982,1.0,2.495772579567528e-05,-0.0001524402533912,-0.0003419505629357,0.0,0.0,0.0,-0.0001524402533912,0.0041245552362339,0.0014124699742247,0.0,0.0,0.0,-0.0003419505629357,0.0014124699742247,0.0048282879379737,0.0,0.0,0.0,0.0,0.0,0.0,0.0,0.0,0.0,0.0,0.0,0.0,0.0,0.0,0.0,0.0,0.0,0.0,0.0,0.0,0.0,0,0,0,1,12,,121
1.198415374,0,1735643777088230371,map,0.971625719186754,-0.2215814380810067,0.0253962278861514,-0.4733156202550118,0.5011296847726127,-0.5209272442141131,0.5034641684348599,0.0,0.0,0.0,1,5.1682810808806317e-11,0,1735643777088253974,map,0.9690227136497722,-0.2502460651849956,0.1512801361278356,-0.4969930275613416,0.4852311693329647,-0.4993893626927802,0.5178406195852872,0.0,0.0,0.0,16,1.5663730664527975e-05,0,1735643777088270664,map,0.9692990023153408,0.055307345764171,0.0293596687574874,-0.483322027935038,0.4978214217020139,-0.5005502340659027,0.5177094866659471,0.0,0.0,0.0,17,7.057243261186742e-21,0,1735643777088284730,map,0.9932524119991496,-0.2549761737651588,0.2365384068552061,-0.4648218065166345,0.6564446929181935,-0.4735820425952529,0.3588051034439993,0.0,0.0,0.0,121,0.0034731875639408,0,1735643777088297367,map,0.9984828547427969,0.2166483514630865,0.2430026025772022,-0.5114058682689333,0.4914906337263736,-0.48852561190547,0.508176860326926,0.0,0.0,0.0,122,3.1267507287626287e-19,0,1735643777088310956,map,0.9938352807634816,0.2138414849145365,0.1443540521534505,-0.4854444223733313,0.4981021221295844,-0.4788606763244401,0.5356588852868283,0.0,0.0,0.0,124,1.539567290583561e-23,0,1735643777088322877,map,0.9883235898145544,-0.0223163441797296,0.2417075786440924,-0.5102159285428086,0.4959722735984525,-0.4861761766946311,0.5072710668837448,0.0,0.0,0.0,125,2.3865664999789263e-08,0,1735643777088343858,map,0.9805320369646308,-0.0189312299558999,0.1461410577960102,-0.4776365568817792,0.4788417685856252,-0.5236385992760517,0.5180506708191046,0.0,0.0,0.0,126,6.439541608282973e-12,0,1735644242188269615,map,0.973150237375465,0.3322254862804634,0.0252813447496594,-0.5053349725530648,0.5032391847212349,-0.4882438314110248,0.502995874302149,0.0,0.0,0.0,0,1.0886431331720531e-38,0.922616516156181,-0.297110020469875,0.4279837864604984,1.0,2.533989530509777e-05,-0.0001973205286413,-0.0003381785829734,0.0,0.0,0.0,-0.0001973205286413,0.0051992442149143,0.0018578820279261,0.0,0.0,0.0,-0.0003381785829734,0.0018578820279261,0.0046774233728479,0.0,0.0,0.0,0.0,0.0,0.0,0.0,0.0,0.0,0.0,0.0,0.0,0.0,0.0,0.0,0.0,0.0,0.0,0.0,0.0,0.0,0,0,0,1,13,,121
1.298375218,0,1735643777088230371,map,0.971625719186754,-0.2215814380810067,0.0253962278861514,-0.4733156202550118,0.5011296847726127,-0.5209272442141131,0.5034641684348599,0.0,0.0,0.0,1,8.277407405332669e-12,0,1735643777088253974,map,0.9766629206459976,-0.2513318661411353,0.1495950170522977,-0.4872381060860773,0.5001249599156657,-0.5108181131796534,0.5015365467187655,0.0,0.0,0.0,16,5.724352831748547e-06,0,1735643777088270664,map,0.9692990023153408,0.055307345764171,0.0293596687574874,-0.483322027935038,0.4978214217020139,-0.5005502340659027,0.5177094866659471,0.0,0.0,0.0,17,9.818773215394737e-22,0,1735643777088284730,map,0.9933190399630908,-0.2550277506252701,0.2367076569590528,-0.4571255774051665,0.495031066767649,-0.5324606019608826,0.5123145096289294,0.0,0.0,0.0,121,0.0021867505274713,0,1735643777088297367,map,0.9984828547427969,0.2166483514630865,0.2430026025772022,-0.5114058682689333,0.4914906337263736,-0.48852561190547,0.508176860326926,0.0,0.0,0.0,122,5.607064875296318e-18,0,1735643777088310956,map,0.9938352807634816,0.2138414849145365,0.1443540521534505,-0.4854444223733313,0.4981021221295844,-0.4788606763244401,0.5356588852868283,0.0,0.0,0.0,124,5.2274461107871073e-23,0,1735643777088322877,map,0.9907100023434212,-0.0210024001647128,0.2418608245450116,-0.512184623418153,0.4705941435002864,-0.476557649813388,0.5376810114199462,0.0,0.0,0.0,125,2.5665968905741465e-08,0,1735643777088343858,map,0.9859499630008514,-0.016885968085938,0.1444802583943281,-0.485788686509248,0.4771363268433943,-0.5103471961867002,0.5252580480205766,0.0,0.0,0.0,126,1.943000664875183e-12,0,1735644242188269615,map,0.973150237375465,0.3322254862804634,0.0252813447496594,-0.5053349725530648,0.5032391847212349,-0.4882438314110248,0.502995874302149,0.0,0.0,0.0,0,1.9714416876480341e-38,0.9218784954048964,-0.2833487659610277,0.436136336224057,1.0,3.061067296455208e-05,-0.000315255393253,-0.0003922407316219,0.0,0.0,0.0,-0.000315255393253,0.0072897072616792,0.0031836372272894,0.0,0.0,0.0,-0.0003922407316219,0.0031836372272894,0.0052073545827736,0.0,0.0,0.0,0.0,0.0,0.0,0.0,0.0,0.0,0.0,0.0,0.0,0.0,0.0,0.0,0.0,0.0,0.0,0.0,0.0,0.0,0,0,0,1,14,,121
1.39861359,0,1735643777088230371,map,0.971625719186754,-0.2215814380810067,0.0253962278861514,-0.4733156202550118,0.5011296847726127,-0.5209272442141131,0.5034641684348599,0.0,0.0,0.0,1,1.3853702256552693e-12,0,1735643777088253974,map,0.9742129626460472,-0.2508206373082979,0.1507124224906764,-0.4866117991603906,0.4948391393496107,-0.5131847680171997,0.5049599756027762,0.0,0.0,0.0,16,2.6513794182392303e-06,0,1735643777088270664,map,0.9692990023153408,0.055307345764171,0.0293596687574874,-0.483322027935038,0.4978214217020139,-0.5005502340659027,0.5177094866659471,0.0,0.0,0.0,17,9.743838245156962e-23,0,1735643777088284730,map,0.994904031312153,-0.2553127041222265,0.2363580043981768,-0.4564274638798165,0.5075160433258014,-0.5316950761110694,0.5013998225193199,0.0,0.0,0.0,121,0.0013990701409056,0,1735643777088297367,map,0.9984828547427969,0.2166483514630865,0.2430026025772022,-0.5114058682689333,0.4914906337263736,-0.48852561190547,0.508176860326926,0.0,0.0,0.0,122,4.2257443898654415e-18,0,1735643777088310956,map,0.9938352807634816,0.2138414849145365,0.1443540521534505,-0.4854444223733313,0.4981021221295844,-0.4788606763244401,0.5356588852868283,0.0,0.0,0.0,124,1.5665349739450844e-23,0,1735643777088322877,map,0.9917952772737592,-0.0206141716675175,0.2418376666852524,0.6694890553124058,-0.4530575041855459,0.326545843534716,-0.4897868054452537,0.0,0.0,0.0,125,1.5600818414895912e-08,0,1735643777088343858,map,0.9859499630008514,-0.016885968085938,0.1444802583943281,-0.485788686509248,0.4771363268433943,-0.5103471961867002,0.5252580480205766,0.0,0.0,0.0,126,6.110908220419153e-13,0,1735644242188269615,map,0.973150237375465,0.3322254862804634,0.0252813447496594,-0.5053349725530648,0.5032391847212349,-0.4882438314110248,0.502995874302149,0.0,0.0,0.0,0,1.4524024180202788e-39,0.9214928780061366,-0.2749295273048446,0.4401358573457005,1.0,3.065177232874952e-05,-0.0003396908357781,-0.0003876833385508,0.0,0.0,0.0,-0.0003396908357781,0.007796096891264,0.0034428156651399,0.0,0.0,0.0,-0.0003876833385508,0.0034428156651399,0.0050841439794233,0.0,0.0,0.0,0.0,0.0,0.0,0.0,0.0,0.0,0.0,0.0,0.0,0.0,0.0,0.0,0.0,0.0,0.0,0.0,0.0,0.0,0,0,0,1,15,,121
1.498663116,0,1735643777088230371,map,0.971625719186754,-0.2215814380810067,0.0253962278861514,-0.4733156202550118,0.5011296847726127,-0.5209272442141131,0.5034641684348599,0.0,0.0,0.0,1,9.34729290497094e-13,0,1735643777088253974,map,0.9663080710382594,-0.2504242621496279,0.1535207630653255,-0.4893344049398456,0.470252801166456,-0.5067640482266341,0.5316054388004531,0.0,0.0,0.0,16,2.978116071972181e-06,0,1735643777088270664,map,0.9692990023153408,0.055307345764171,0.0293596687574874,-0.483322027935038,0.4978214217020139,-0.5005502340659027,0.5177094866659471,0.0,0.0,0.0,17,1.8565816160827543e-22,0,1735643777088284730,map,0.993494802444361,-0.2563121264212111,0.236286768549182,-0.4562363171050223,0.501441007804253,-0.5338234101074495,0.5054086519520162,0.0,0.0,0.0,121,0.0014025800628587,0,1735643777088297367,map,0.9984828547427969,0.2166483514630865,0.2430026025772022,-0.5114058682689333,0.4914906337263736,-0.48852561190547,0.508176860326926,0.0,0.0,0.0,122,1.838625963591838e-17,0,1735643777088310956,map,0.9938352807634816,0.2138414849145365,0.1443540521534505,-0.4854444223733313,0.4981021221295844,-0.4788606763244401,0.5356588852868283,0.0,0.0,0.0,124,6.937295811966409e-23,0,1735643777088322877,map,0.986407364000386,-0.0226691569394989,0.2420834112544467,-0.4816669694832555,0.4820615354120313,-0.5016633944171305,0.532867192916672,0.0,0.0,0.0,125,3.3648518638074165e-08,0,1735643777088343858,map,0.9859499630008514,-0.016885968085938,0.1444802583943281,-0.485788686509248,0.4771363268433943,-0.5103471961867002,0.5252580480205766,0.0,0.0,0.0,126,1.0378461328189317e-12,0,1735644242188269615,map,0.973150237375465,0.3322254862804634,0.0252813447496594,-0.5053349725530648,0.5032391847212349,-0.4882438314110248,0.502995874302149,0.0,0.0,0.0,0,1.13563315483595e-38,0.9214280882302924,-0.26931587815255,0.4399187781657853,1.0,2.8799002284011765e-05,-0.0003239157645956,-0.0003632421622202,0.0,0.0,0.0,-0.0003239157645956,0.0077815366876359,0.003209360590754,0.0,0.0,0.0,-0.0003632421622202,0.003209360590754,0.0047670918312647,0.0,0.0,0.0,0.0,0.0,0.0,0.0,0.0,0.0,0.0,0.0,0.0,0.0,0.0,0.0,0.0,0.0,0.0,0.0,0.0,0.0,0,0,0,1,16,,121
1.596562771,0,1735643777088230371,map,0.971625719186754,-0.2215814380810067,0.0253962278861514,-0.4733156202550118,0.5011296847726127,-0.5209272442141131,0.5034641684348599,0.0,0.0,0.0,1,1.4598622657957527e-11,0,1735643777088253974,map,0.9674202460639764,-0.2507492905148683,0.1495239414192184,-0.4911756265873133,0.4788675365088082,-0.5030086733419828,0.5257515200808114,0.0,0.0,0.0,16,8.33519698062446e-06,0,1735643777088270664,map,0.9692990023153408,0.055307345764171,0.0293596687574874,-0.483322027935038,0.4978214217020139,-0.5005502340659027,0.5177094866659471,0.0,0.0,0.0,17,8.841698670897221e-20,0,1735643777088284730,map,0.9879359539226192,-0.2555303244475057,0.2339049625949881,-0.4602758382834969,0.4919345093481229,-0.5288753202368859,0.5161758293926376,0.0,0.0,0.0,121,0.0026594628579914,0,1735643777088297367,map,0.9984828547427969,0.2166483514630865,0.2430026025772022,-0.5114058682689333,0.4914906337263736,-0.48852561190547,0.508176860326926,0.0,0.0,0.0,122,2.2482064953053887e-15,0,1735643777088310956,map,0.9938352807634816,0.2138414849145365,0.1443540521534505,-0.4854444223733313,0.4981021221295844,-0.4788606763244401,0.5356588852868283,0.0,0.0,0.0,124,4.297433988055698e-20,0,1735643777088322877,map,0.9899563471853876,-0.0209118468232423,0.2383319988872616,0.7120288838400555,-0.4436203867094173,0.2880560245805181,-0.4617786783472577,0.0,0.0,0.0,125,2.471756488375832e-07,0,1735643777088343858,map,0.9844767589451484,-0.0167322533720405,0.1404364784783152,-0.4938335070915773,0.4712402323861474,-0.4919687864274069,0.540395987989759,0.0,0.0,0.0,126,2.487962613706429e-11,0,1735644242188269615,map,0.973150237375465,0.3322254862804634,0.0252813447496594,-0.5053349725530648,0.5032391847212349,-0.4882438314110248,0.502995874302149,0.0,0.0,0.0,0,4.864697504689129e-34,0.9215966479384656,-0.2646983644773711,0.4364136706030759,1.0,2.7559541329640705e-05,-0.0002924086679688,-0.0003513280947334,0.0,0.0,0.0,-0.0002924086679688,0.0076649421560694,0.0027616165599903,0.0,0.0,0.0,-0.0003513280947334,0.0027616165599903,0.0046832471291383,0.0,0.0,0.0,0.0,0.0,0.0,0.0,0.0,0.0,0.0,0.0,0.0,0.0,0.0,0.0,0.0,0.0,0.0,0.0,0.0,0.0,0,0,0,1,17,,121
1.699650197,0,1735643777088230371,map,0.971625719186754,-0.2215814380810067,0.0253962278861514,-0.4733156202550118,0.5011296847726127,-0.5209272442141131,0.5034641684348599,0.0,0.0,0.0,1,4.2980624614941116e-10,0,1735643777088253974,map,0.9612466409618114,-0.2503169363018496,0.1520675219259087,-0.4992958189458515,0.4841299196080402,-0.4885480142194288,0.5269181567622778,0.0,0.0,0.0,16,5.376468834583648e-05,0,1735643777088270664,map,0.9692990023153408,0.055307345764171,0.0293596687574874,-0.483322027935038,0.4978214217020139,-0.5005502340659027,0.5177094866659471,0.0,0.0,0.0,17,4.741155749181619e-17,0,1735643777088284730,map,0.9858304638788952,-0.2559583050751378,0.233850894842552,-0.4800341086774099,0.5134504005638488,-0.5043994222082735,0.5015148687158407,0.0,0.0,0.0,121,0.0068198265507817,0,1735643777088297367,map,0.9984828547427969,0.2166483514630865,0.2430026025772022,-0.5114058682689333,0.4914906337263736,-0.48852561190547,0.508176860326926,0.0,0.0,0.0,122,1.251523570108132e-13,0,1735643777088310956,map,0.9938352807634816,0.2138414849145365,0.1443540521534505,-0.4854444223733313,0.4981021221295844,-0.4788606763244401,0.5356588852868283,0.0,0.0,0.0,124,1.4146914328831038e-17,0,1735643777088322877,map,0.9791324656130684,-0.0239146754886271,0.2400004021908341,0.7360368878526358,-0.4069988032131936,0.2509108797880974,-0.4792133181655088,0.0,0.0,0.0,125,3.354892896823003e-06,0,1735643777088343858,map,0.9768473823860094,-0.0188737686598613,0.1428137623635399,-0.4953065023559702,0.4906582428088408,-0.5034082619448973,0.510397961686029,0.0,0.0,0.0,126,1.4080863142140743e-09,0,1735644242188269615,map,0.973150237375465,0.3322254862804634,0.0252813447496594,-0.5053349725530648,0.5032391847212349,-0.4882438314110248,0.502995874302149,0.0,0.0,0.0,0,9.32587188902832e-30,0.9218844603017444,-0.2614980664077908,0.4314205033926452,1.0,2.743666695996931e-05,-0.0002605052910103,-0.0003562404865846,0.0,0.0,0.0,-0.0002605052910103,0.0074132244677685,0.0023365398202299,0.0,0.0,0.0,-0.0003562404865846,0.0023365398202299,0.0048469059525275,0.0,0.0,0.0,0.0,0.0,0.0,0.0,0.0,0.0,0.0,0.0,0.0,0.0,0.0,0.0,0.0,0.0,0.0,0.0,0.0,0.0,0,0,0,1,18,,121
1.797902859,0,1735643777088230371,map,0.971625719186754,-0.2215814380810067,0.0253962278861514,-0.4733156202550118,0.5011296847726127,-0.5209272442141131,0.5034641684348599,0.0,0.0,0.0,1,7.723422790206769e-09,0,1735643777088253974,map,0.9674780415066256,-0.2521556383965923,0.1488451988421671,0.4937585390581787,-0.502456432052934,0.506731359705455,-0.4969540905222825,0.0,0.0,0.0,16,0.0001883389195427,0,1735643777088270664,map,0.9692990023153408,0.055307345764171,0.0293596687574874,-0.483322027935038,0.4978214217020139,-0.5005502340659027,0.5177094866659471,0.0,0.0,0.0,17,2.6102288004783503e-15,0,1735643777088284730,map,0.9818531345995652,-0.2558481964741865,0.2339337371468845,-0.4831583364060818,0.5022738960822055,-0.5032405129047591,0.510908936550403,0.0,0.0,0.0,121,0.0154361613094806,0,1735643777088297367,map,0.9984828547427969,0.2166483514630865,0.2430026025772022,-0.5114058682689333,0.4914906337263736,-0.48852561190547,0.508176860326926,0.0,0.0,0.0,122,6.160323444935611e-13,0,1735643777088310956,map,0.9938352807634816,0.2138414849145365,0.1443540521534505,-0.4854444223733313,0.4981021221295844,-0.4788606763244401,0.5356588852868283,0.0,0.0,0.0,124,2.396901276311309e-16,0,1735643777088322877,map,0.9791862251548498,-0.0237686058284194,0.2386414726944218,0.5125498349445321,-0.5049207789275614,0.4858114700666123,-0.4963213568417486,0.0,0.0,0.0,125,1.0975394616252744e-05,0,1735643777088343858,map,0.975765158594414,-0.0193534968854987,0.1422095190559092,-0.4974721229738038,0.4930347083785517,-0.5048477461157734,0.5045463471672713,0.0,0.0,0.0,126,1.3375788476821526e-08,0,1735644242188269615,map,0.973150237375465,0.3322254862804634,0.0252813447496594,-0.5053349725530648,0.5032391847212349,-0.4882438314110248,0.502995874302149,0.0,0.0,0.0,0,1.3980304281077555e-27,0.9222777574532156,-0.2607991412704003,0.4253752634196112,1.0,2.877691954520944e-05,-0.000241846551439,-0.0003802873491951,0.0,0.0,0.0,-0.000241846551439,0.0070318476931967,0.0021375109770009,0.0,0.0,0.0,-0.0003802873491951,0.0021375109770009,0.0052496143132048,0.0,0.0,0.0,0.0,0.0,0.0,0.0,0.0,0.0,0.0,0.0,0.0,0.0,0.0,0.0,0.0,0.0,0.0,0.0,0.0,0.0,0,0,0,1,19,,121
1.897734302,0,1735643777088230371,map,0.971625719186754,-0.2215814380810067,0.0253962278861514,-0.4733156202550118,0.5011296847726127,-0.5209272442141131,0.5034641684348599,0.0,0.0,0.0,1,1.4209287257926917e-07,0,1735643777088253974,map,0.9595249716043855,-0.251517028935868,0.1499672191420603,-0.4931801212248162,0.4924414419455258,-0.4957347637803564,0.5181909283873285,0.0,0.0,0.0,16,0.0008980736602097,0,1735643777088270664,map,0.9692990023153408,0.055307345764171,0.0293596687574874,-0.483322027935038,0.4978214217020139,-0.5005502340659027,0.5177094866659471,0.0,0.0,0.0,17,4.9862495182058034e-14,0,1735643777088284730,map,0.9795263010199472,-0.2563765916355825,0.2328128134857241,-0.4797689695807108,0.5120723104697573,-0.5043147992224916,0.5032596426923243,0.0,0.0,0.0,121,0.0334901288151741,0,1735643777088297367,map,0.9984828547427969,0.2166483514630865,0.2430026025772022,-0.5114058682689333,0.4914906337263736,-0.48852561190547,0.508176860326926,0.0,0.0,0.0,122,8.610142763695873e-13,0,1735643777088310956,map,0.9938352807634816,0.2138414849145365,0.1443540521534505,-0.4854444223733313,0.4981021221295844,-0.4788606763244401,0.5356588852868283,0.0,0.0,0.0,124,8.800700909334149e-16,0,1735643777088322877,map,0.9777348692991796,-0.0243080113605833,0.2386370038278936,0.5122098598207813,-0.5051571288301143,0.4862008951315985,-0.4960504251260383,0.0,0.0,0.0,125,2.452238004480023e-05,0,1735643777088343858,map,0.9725510778124932,-0.0206374008714375,0.1426268026836026,-0.495338686100515,0.4921462988480569,-0.5084602238495773,0.5038847163242918,0.0,0.0,0.0,126,7.687163616765248e-08,0,1735644242188269615,map,0.973150237375465,0.3322254862804634,0.0252813447496594,-0.5053349725530648,0.5032391847212349,-0.4882438314110248,0.502995874302149,0.0,0.0,0.0,0,1.778866087908222e-26,0.922795497458979,-0.2622098266365745,0.4179107388303379,1.0,3.243111312573671e-05,-0.0002436312206097,-0.0004347019588088,0.0,0.0,0.0,-0.0002436312206097,0.0067180659393813,0.0022307072446181,0.0,0.0,0.0,-0.0004347019588088,0.0022307072446181,0.006045797017078,0.0,0.0,0.0,0.0,0.0,0.0,0.0,0.0,0.0,0.0,0.0,0.0,0.0,0.0,0.0,0.0,0.0,0.0,0.0,0.0,0.0,0,0,0,1,20,,121
1.999120257,0,1735643777088230371,map,0.971625719186754,-0.2215814380810067,0.0253962278861514,-0.4733156202550118,0.5011296847726127,-0.5209272442141131,0.5034641684348599,0.0,0.0,0.0,1,1.1709780665114522e-06,0,1735643777088253974,map,0.9590808344042114,-0.252122550879015,0.1493520740478571,-0.4966484652388735,0.493054629154467,-0.4912834474290139,0.518534481907892,0.0,0.0,0.0,16,0.0025657031219452,0,1735643777088270664,map,0.9692990023153408,0.055307345764171,0.0293596687574874,-0.483322027935038,0.4978214217020139,-0.5005502340659027,0.5177094866659471,0.0,0.0,0.0,17,4.0864710161743483e-13,0,1735643777088284730,map,0.9757850645809574,-0.2562326296869504,0.2329439273784474,-0.4879203628482387,0.5059400305561091,-0.4966517003057649,0.5092106573730754,0.0,0.0,0.0,121,0.0604187436401844,0,1735643777088297367,map,0.9984828547427969,0.2166483514630865,0.2430026025772022,-0.5114058682689333,0.4914906337263736,-0.48852561190547,0.508176860326926,0.0,0.0,0.0,122,9.29615217269697e-13,0,1735643777088310956,map,0.9938352807634816,0.2138414849145365,0.1443540521534505,-0.4854444223733313,0.4981021221295844,-0.4788606763244401,0.5356588852868283,0.0,0.0,0.0,124,1.9592524285361357e-15,0,1735643777088322877,map,0.9731125069153316,-0.0240369643443037,0.2375372957328356,0.5110060914403527,-0.5066706662832396,0.4874065604138102,-0.4945628931738921,0.0,0.0,0.0,125,3.951664621126838e-05,0,1735643777088343858,map,0.9692779059314433,-0.0200196641752804,0.1412898611196713,0.5017827103090112,-0.4957328887184082,0.5056589601409112,-0.4967615431039905,0.0,0.0,0.0,126,2.202115467753174e-07,0,1735644242188269615,map,0.973150237375465,0.3322254862804634,0.0252813447496594,-0.5053349725530648,0.5032391847212349,-0.4882438314110248,0.502995874302149,0.0,0.0,0.0,0,9.083466466766855e-26,0.9232866571434538,-0.2633152821627017,0.4107801449160459,1.0,3.5711531118529674e-05,-0.0002428888376622,-0.0004840470706734,0.0,0.0,0.0,-0.0002428888376622,0.0064225986759109,0.0022821341790549,0.0,0.0,0.0,-0.0004840470706734,0.0022821341790549,0.0067748093124374,0.0,0.0,0.0,0.0,0.0,0.0,0.0,0.0,0.0,0.0,0.0,0.0,0.0,0.0,0.0,0.0,0.0,0.0,0.0,0.0,0.0,0,0,0,1,21,,121
2.098464628,0,1735643777088230371,map,0.971625719186754,-0.2215814380810067,0.0253962278861514,-0.4733156202550118,0.5011296847726127,-0.5209272442141131,0.5034641684348599,0.0,0.0,0.0,1,7.722839654888958e-06,0,1735643777088253974,map,0.9595960481537852,-0.2525495545293127,0.1488163148086239,-0.4962357694042372,0.5001144137714182,-0.4969843405684828,0.5065986572540092,0.0,0.0,0.0,16,0.0065859402529895,0,1735643777088270664,map,0.9692990023153408,0.055307345764171,0.0293596687574874,-0.483322027935038,0.4978214217020139,-0.5005502340659027,0.5177094866659471,0.0,0.0,0.0,17,1.8153699030132309e-12,0,1735643777088284730,map,0.9748477149561404,-0.2563616186519378,0.2328659057370919,-0.4882947062454408,0.5106187341559794,-0.495761289030558,0.505032209349446,0.0,0.0,0.0,121,0.1006523519754409,0,1735643777088297367,map,0.9984828547427969,0.2166483514630865,0.2430026025772022,-0.5114058682689333,0.4914906337263736,-0.48852561190547,0.508176860326926,0.0,0.0,0.0,122,6.254344915232468e-13,0,1735643777088310956,map,0.9938352807634816,0.2138414849145365,0.1443540521534505,-0.4854444223733313,0.4981021221295844,-0.4788606763244401,0.5356588852868283,0.0,0.0,0.0,124,2.279418177104052e-15,0,1735643777088322877,map,0.9710264424879962,-0.0245215620609623,0.2377509811995971,-0.5064174402310879,0.5131354008885157,-0.4938299407248657,0.4861742755725048,0.0,0.0,0.0,125,5.477089871419594e-05,0,1735643777088343858,map,0.9637328581045694,-0.0216154264807199,0.1434639049255412,0.4983659979981601,-0.5004592919006379,0.5115109555496726,-0.4894163580656762,0.0,0.0,0.0,126,6.197687980602495e-07,0,1735644242188269615,map,0.973150237375465,0.3322254862804634,0.0252813447496594,-0.5053349725530648,0.5032391847212349,-0.4882438314110248,0.502995874302149,0.0,0.0,0.0,0,1.5712596837735827e-25,0.9238390958588344,-0.265246795645544,0.4029056072885739,1.0,4.049723892332415e-05,-0.0002542563353215,-0.0005533991195712,0.0,0.0,0.0,-0.0002542563353215,0.0062090080034828,0.0024978060948505,0.0,0.0,0.0,-0.0005533991195712,0.0024978060948505,0.0077690386343753,0.0,0.0,0.0,0.0,0.0,0.0,0.0,0.0,0.0,0.0,0.0,0.0,0.0,0.0,0.0,0.0,0.0,0.0,0.0,0.0,0.0,0,0,0,1,22,,121
2.198455842,0,1735643777088230371,map,0.971625719186754,-0.2215814380810067,0.0253962278861514,-0.4733156202550118,0.5011296847726127,-0.5209272442141131,0.5034641684348599,0.0,0.0,0.0,1,2.3907057766336948e-05,0,1735643777088253974,map,0.9586035512454304,-0.2531979492333115,0.1483783316210477,-0.4987399783189571,0.4967723856074704,-0.4891184173145195,0.5150134025129918,0.0,0.0,0.0,16,0.0118523677811026,0,1735643777088270664,map,0.9692990023153408,0.055307345764171,0.0293596687574874,-0.483322027935038,0.4978214217020139,-0.5005502340659027,0.5177094866659471,0.0,0.0,0.0,17,3.311912593131905e-12,0,1735643777088284730,map,0.9732242127734844,-0.2566840472429038,0.232384664287619,-0.4874028842801185,0.5061222146357431,-0.4975099450180358,0.508687120788195,0.0,0.0,0.0,121,0.1373184472322464,0,1735643777088297367,map,0.9984828547427969,0.2166483514630865,0.2430026025772022,-0.5114058682689333,0.4914906337263736,-0.48852561190547,0.508176860326926,0.0,0.0,0.0,122,3.068070157739161e-13,0,1735643777088310956,map,0.9938352807634816,0.2138414849145365,0.1443540521534505,-0.4854444223733313,0.4981021221295844,-0.4788606763244401,0.5356588852868283,0.0,0.0,0.0,124,1.4872997522487872e-15,0,1735643777088322877,map,0.9653806442770152,-0.0266284040581565,0.2383929529750851,-0.4997696954989246,0.5156239036714354,-0.50284807572671,0.4811507603251687,0.0,0.0,0.0,125,6.620919157285243e-05,0,1735643777088343858,map,0.967257204907042,-0.0203023717906001,0.1404353203914579,0.501521643701042,-0.5032031799310605,0.5053881163277383,-0.4897401887545831,0.0,0.0,0.0,126,6.697149501633248e-07,0,1735644242188269615,map,0.973150237375465,0.3322254862804634,0.0252813447496594,-0.5053349725530648,0.5032391847212349,-0.4882438314110248,0.502995874302149,0.0,0.0,0.0,0,9.340384905050532e-26,0.9243357072094076,-0.2670721183321877,0.3958456844958353,1.0,4.4162191742322325e-05,-0.0002631441832689,-0.0006064711197325,0.0,0.0,0.0,-0.0002631441832689,0.0060123507977945,0.0026727118491269,0.0,0.0,0.0,-0.0006064711197325,0.0026727118491269,0.0085277895623917,0.0,0.0,0.0,0.0,0.0,0.0,0.0,0.0,0.0,0.0,0.0,0.0,0.0,0.0,0.0,0.0,0.0,0.0,0.0,0.0,0.0,0,0,0,1,23,,121
2.297660148,0,1735643777088230371,map,0.971625719186754,-0.2215814380810067,0.0253962278861514,-0.4733156202550118,0.5011296847726127,-0.5209272442141131,0.5034641684348599,0.0,0.0,0.0,1,3.2381263736169785e-05,0,1735643777088253974,map,0.9546084791749582,-0.2523587321814179,0.1489867158009057,-0.5019501775861113,0.5017702240891472,-0.49032720797319,0.5058180409594094,0.0,0.0,0.0,16,0.0145413912832736,0,1735643777088270664,map,0.9692990023153408,0.055307345764171,0.0293596687574874,-0.483322027935038,0.4978214217020139,-0.5005502340659027,0.5177094866659471,0.0,0.0,0.0,17,2.473676428624283e-12,0,1735643777088284730,map,0.9693640380199964,-0.2557925911343249,0.2327327840070621,-0.4884650416200512,0.5016073850254024,-0.4938032270756641,0.5157037011043839,0.0,0.0,0.0,121,0.1544406712055206,0,1735643777088297367,map,0.9984828547427969,0.2166483514630865,0.2430026025772022,-0.5114058682689333,0.4914906337263736,-0.48852561190547,0.508176860326926,0.0,0.0,0.0,122,1.1670227501384134e-13,0,1735643777088310956,map,0.9938352807634816,0.2138414849145365,0.1443540521534505,-0.4854444223733313,0.4981021221295844,-0.4788606763244401,0.5356588852868283,0.0,0.0,0.0,124,5.76955803807997e-16,0,1735643777088322877,map,0.9647308526322368,-0.0249860339134319,0.2378110538957326,-0.4964164507467943,0.5165802281200231,-0.5032909736817679,0.4831291454196055,0.0,0.0,0.0,125,4.917920523439534e-05,0,1735643777088343858,map,0.9615289209645332,-0.0206607765063828,0.1416995816678664,0.4993888605029702,-0.5002939787896526,0.5097787578193569,-0.4903491805525095,0.0,0.0,0.0,126,6.391580882336712e-07,0,1735644242188269615,map,0.973150237375465,0.3322254862804634,0.0252813447496594,-0.5053349725530648,0.5032391847212349,-0.4882438314110248,0.502995874302149,0.0,0.0,0.0,0,2.0453169549702406e-26,0.9246691477693976,-0.2682469878058414,0.3910946924762124,1.0,4.487930038179359e-05,-0.0002611900724092,-0.0006176374788529,0.0,0.0,0.0,-0.0002611900724092,0.0057935835016625,0.0026897301517621,0.0,0.0,0.0,-0.0006176374788529,0.0026897301517621,0.008691619276214,0.0,0.0,0.0,0.0,0.0,0.0,0.0,0.0,0.0,0.0,0.0,0.0,0.0,0.0,0.0,0.0,0.0,0.0,0.0,0.0,0.0,0,0,0,1,24,,121
2.398489438,0,1735643777088230371,map,0.971625719186754,-0.2215814380810067,0.0253962278861514,-0.4733156202550118,0.5011296847726127,-0.5209272442141131,0.5034641684348599,0.0,0.0,0.0,1,2.569586104073096e-05,0,1735643777088253974,map,0.9546084791749582,-0.2523587321814179,0.1489867158009057,-0.5019501775861113,0.5017702240891472,-0.49032720797319,0.5058180409594094,0.0,0.0,0.0,16,0.013694142922759,0,1735643777088270664,map,0.9692990023153408,0.055307345764171,0.0293596687574874,-0.483322027935038,0.4978214217020139,-0.5005502340659027,0.5177094866659471,0.0,0.0,0.0,17,8.477936234985163e-13,0,1735643777088284730,map,0.9696250390314024,-0.2562412834901224,0.2334223978760305,-0.4853563891733073,0.5149646297673953,-0.4978465221742729,0.5013875207224047,0.0,0.0,0.0,121,0.1556173115968704,0,1735643777088297367,map,0.9984828547427969,0.2166483514630865,0.2430026025772022,-0.5114058682689333,0.4914906337263736,-0.48852561190547,0.508176860326926,0.0,0.0,0.0,122,3.3261194905091773e-14,0,1735643777088310956,map,0.9938352807634816,0.2138414849145365,0.1443540521534505,-0.4854444223733313,0.4981021221295844,-0.4788606763244401,0.5356588852868283,0.0,0.0,0.0,124,1.3100760810161744e-16,0,1735643777088322877,map,0.9637807927833943,-0.0248464513992522,0.2387370351724586,-0.5026883293181259,0.5129449511005838,-0.4952086618771144,0.4888356594088131,0.0,0.0,0.0,125,3.313138222438283e-05,0,1735643777088343858,map,0.9615289209645332,-0.0206607765063828,0.1416995816678664,0.4993888605029702,-0.5002939787896526,0.5097787578193569,-0.4903491805525095,0.0,0.0,0.0,126,3.595448845317151e-07,0,1735644242188269615,map,0.973150237375465,0.3322254862804634,0.0252813447496594,-0.5053349725530648,0.5032391847212349,-0.4882438314110248,0.502995874302149,0.0,0.0,0.0,0,1.7066266127357946e-27,0.924897706096186,-0.2702529396861629,0.3880923105086452,1.0,4.433786217638578e-05,-0.0002617459176421,-0.000609401245272,0.0,0.0,0.0,-0.0002617459176421,0.005658412392304,0.0027266841557704,0.0,0.0,0.0,-0.000609401245272,0.0027266841557704,0.0085602976446656,0.0,0.0,0.0,0.0,0.0,0.0,0.0,0.0,0.0,0.0,0.0,0.0,0.0,0.0,0.0,0.0,0.0,0.0,0.0,0.0,0.0,0,0,0,1,25,,121
2.496536152,0,1735643777088230371,map,0.971625719186754,-0.2215814380810067,0.0253962278861514,-0.4733156202550118,0.5011296847726127,-0.5209272442141131,0.5034641684348599,0.0,0.0,0.0,1,1.9378383512957956e-05,0,1735643777088253974,map,0.9546084791749582,-0.2523587321814179,0.1489867158009057,-0.5019501775861113,0.5017702240891472,-0.49032720797319,0.5058180409594094,0.0,0.0,0.0,16,0.0126282023265957,0,1735643777088270664,map,0.9692990023153408,0.055307345764171,0.0293596687574874,-0.483322027935038,0.4978214217020139,-0.5005502340659027,0.5177094866659471,0.0,0.0,0.0,17,2.735228764403491e-13,0,1735643777088284730,map,0.9687240902791292,-0.2566265514216687,0.2331326936897142,-0.4897079562380791,0.5098475692669634,-0.4925020533463148,0.5076251581229565,0.0,0.0,0.0,121,0.1516925245523452,0,1735643777088297367,map,0.9984828547427969,0.2166483514630865,0.2430026025772022,-0.5114058682689333,0.4914906337263736,-0.48852561190547,0.508176860326926,0.0,0.0,0.0,122,1.1682867096429652e-14,0,1735643777088310956,map,0.9938352807634816,0.2138414849145365,0.1443540521534505,-0.4854444223733313,0.4981021221295844,-0.4788606763244401,0.5356588852868283,0.0,0.0,0.0,124,3.4080972820262707e-17,0,1735643777088322877,map,0.9640182789508792,-0.0242167881003839,0.2380896601324503,0.5147983576288115,-0.5137410978924317,0.4861522212850245,-0.4844674943260835,0.0,0.0,0.0,125,2.031704025284853e-05,0,1735643777088343858,map,0.9615289209645332,-0.0206607765063828,0.1416995816678664,0.4993888605029702,-0.5002939787896526,0.5097787578193569,-0.4903491805525095,0.0,0.0,0.0,126,1.9470057566195464e-07,0,1735644242188269615,map,0.973150237375465,0.3322254862804634,0.0252813447496594,-0.5053349725530648,0.5032391847212349,-0.4882438314110248,0.502995874302149,0.0,0.0,0.0,0,1.7275705953243954e-28,0.9251667234198868,-0.2733671578947169,0.38471792018934,1.0,4.444181779626807e-05,-0.0002726232331607,-0.0006086569721591,0.0,0.0,0.0,-0.0002726232331607,0.0056832400227084,0.0028845263826195,0.0,0.0,0.0,-0.0006086569721591,0.0028845263826195,0.0085157181782386,0.0,0.0,0.0,0.0,0.0,0.0,0.0,0.0,0.0,0.0,0.0,0.0,0.0,0.0,0.0,0.0,0.0,0.0,0.0,0.0,0.0,0,0,0,1,26,,121
