%time,field.boxes0.header.seq,field.boxes0.header.stamp,field.boxes0.header.frame_id,field.boxes0.pose.position.x,field.boxes0.pose.position.y,field.boxes0.pose.position.z,field.boxes0.pose.orientation.x,field.boxes0.pose.orientation.y,field.boxes0.pose.orientation.z,field.boxes0.pose.orientation.w,field.boxes0.scale.x,field.boxes0.scale.y,field.boxes0.scale.z,field.boxes0.id,field.boxes0.pdf,field.boxes1.header.seq,field.boxes1.header.stamp,field.boxes1.header.frame_id,field.boxes1.pose.position.x,field.boxes1.pose.position.y,field.boxes1.pose.position.z,field.boxes1.pose.orientation.x,field.boxes1.pose.orientation.y,field.boxes1.pose.orientation.z,field.boxes1.pose.orientation.w,field.boxes1.scale.x,field.boxes1.scale.y,field.boxes1.scale.z,field.boxes1.id,field.boxes1.pdf,field.boxes2.header.seq,field.boxes2.header.stamp,field.boxes2.header.frame_id,field.boxes2.pose.position.x,field.boxes2.pose.position.y,field.boxes2.pose.position.z,field.boxes2.pose.orientation.x,field.boxes2.pose.orientation.y,field.boxes2.pose.orientation.z,field.boxes2.pose.orientation.w,field.boxes2.scale.x,field.boxes2.scale.y,field.boxes2.scale.z,field.boxes2.id,field.boxes2.pdf,field.boxes3.header.seq,field.boxes3.header.stamp,field.boxes3.header.frame_id,field.boxes3.pose.position.x,field.boxes3.pose.position.y,field.boxes3.pose.position.z,field.boxes3.pose.orientation.x,field.boxes3.pose.orientation.y,field.boxes3.pose.orientation.z,field.boxes3.pose.orientation.w,field.boxes3.scale.x,field.boxes3.scale.y,field.boxes3.scale.z,field.boxes3.id,field.boxes3.pdf,field.boxes4.header.seq,field.boxes4.header.stamp,field.boxes4.header.frame_id,field.boxes4.pose.position.x,field.boxes4.pose.position.y,field.boxes4.pose.position.z,field.boxes4.pose.orientation.x,field.boxes4.pose.orientation.y,field.boxes4.pose.orientation.z,field.boxes4.pose.orientation.w,field.boxes4.scale.x,field.boxes4.scale.y,field.boxes4.scale.z,field.boxes4.id,field.boxes4.pdf,field.boxes5.header.seq,field.boxes5.header.stamp,field.boxes5.header.frame_id,field.boxes5.pose.position.x,field.boxes5.pose.position.y,field.boxes5.pose.position.z,field.boxes5.pose.orientation.x,field.boxes5.pose.orientation.y,field.boxes5.pose.orientation.z,field.boxes5.pose.orientation.w,field.boxes5.scale.x,field.boxes5.scale.y,field.boxes5.scale.z,field.boxes5.id,field.boxes5.pdf,field.boxes6.header.seq,field.boxes6.header.stamp,field.boxes6.header.frame_id,field.boxes6.pose.position.x,field.boxes6.pose.position.y,field.boxes6.pose.position.z,field.boxes6.pose.orientation.x,field.boxes6.pose.orientation.y,field.boxes6.pose.orientation.z,field.boxes6.pose.orientation.w,field.boxes6.scale.x,field.boxes6.scale.y,field.boxes6.scale.z,field.boxes6.id,field.boxes6.pdf,field.boxes7.header.seq,field.boxes7.header.stamp,field.boxes7.header.frame_id,field.boxes7.pose.position.x,field.boxes7.pose.position.y,field.boxes7.pose.position.z,field.boxes7.pose.orientation.x,field.boxes7.pose.orientation.y,field.boxes7.pose.orientation.z,field.boxes7.pose.orientation.w,field.boxes7.scale.x,field.boxes7.scale.y,field.boxes7.scale.z,field.boxes7.id,field.boxes7.pdf,field.boxes8.header.seq,field.boxes8.header.stamp,field.boxes8.header.frame_id,field.boxes8.pose.position.x,field.boxes8.pose.position.y,field.boxes8.pose.position.z,field.boxes8.pose.orientation.x,field.boxes8.pose.orientation.y,field.boxes8.pose.orientation.z,field.boxes8.pose.orientation.w,field.boxes8.scale.x,field.boxes8.scale.y,field.boxes8.scale.z,field.boxes8.id,field.boxes8.pdf,field.pose.pose.position.x,field.pose.pose.position.y,field.pose.pose.position.z,field.pose.pose.orientation.w,field.pose.covariance0,field.pose.covariance1,field.pose.covariance2,field.pose.covariance3,field.pose.covariance4,field.pose.covariance5,field.pose.covariance6,field.pose.covariance7,field.pose.covariance8,field.pose.covariance9,field.pose.covariance10,field.pose.covariance11,field.pose.covariance12,field.pose.covariance13,field.pose.covariance14,field.pose.covariance15,field.pose.covariance16,field.pose.covariance17,field.pose.covariance18,field.pose.covariance19,field.pose.covariance20,field.pose.covariance21,field.pose.covariance22,field.pose.covariance23,field.pose.covariance24,field.pose.covariance25,field.pose.covariance26,field.pose.covariance27,field.pose.covariance28,field.pose.covariance29,field.pose.covariance30,field.pose.covariance31,field.pose.covariance32,field.pose.covariance33,field.pose.covariance34,field.pose.covariance35,field.buttons0,field.buttons1,field.buttons2,field.buttons3,intersection_length,vacuum,desired_box
0.0,0,1735643777088230371,map,0.9821371434036856,-0.2221101945891352,0.0201654999118704,-0.4964491497622701,0.5150848170346506,-0.4869867686398416,0.5010686181855986,0.0,0.0,0.0,1,0.1111111119389534,0,1735643777088253974,map,0.9807526501466644,-0.2499885568480813,0.1474159804298678,-0.5235937544206517,0.4986158610415157,-0.470186444030909,0.5061190683021962,0.0,0.0,0.0,16,0.1111111119389534,0,1735643777088270664,map,0.9806160410978796,0.0534124270239952,0.026418722966663,-0.4943296003070642,0.4853393990873105,-0.4970135731495992,0.5225527935614684,0.0,0.0,0.0,17,0.1111111119389534,0,1735643777088284730,map,1.018075136738213,-0.2627970895458906,0.2352434632661666,-0.484579708549131,0.5112004684125914,-0.499776096963919,0.5040639245777243,0.0,0.0,0.0,121,0.1111111119389534,0,1735643777088297367,map,1.0228380011069496,0.209480555968158,0.239824715009878,-0.5103638609340336,0.4868925128271962,-0.49178508586513,0.5105015570259821,0.0,0.0,0.0,122,0.1111111119389534,0,1735643777088310956,map,1.0072777241938191,0.20297597213349,0.1420307896510415,-0.4861185960609383,0.5019096984874468,-0.4814023504640248,0.5291759084611612,0.0,0.0,0.0,124,0.1111111119389534,0,1735643777088322877,map,1.0065408984546056,-0.0293199624601996,0.2404483688550051,-0.4957323177618544,0.5060879950827806,-0.5037974814875491,0.4942797871715507,0.0,0.0,0.0,125,0.1111111119389534,0,1735643777088343858,map,1.0049637934886406,-0.0246546730636906,0.1433056927541073,-0.5094106050894445,0.4934812494867153,-0.4922313536744353,0.5046636367792604,0.0,0.0,0.0,126,0.1111111119389534,0,1735644242188269615,map,0.970363122942395,0.3276001150558926,0.0260626167452038,-0.4973034361426214,0.4996517317193945,-0.4857474747428717,0.5168044409362939,0.0,0.0,0.0,0,0.1111111119389534,0.9151583614115012,0.3557632232179146,0.4015832269454176,1.0,0.0,0.0,0.0,0.0,0.0,0.0,0.0,0.0,0.0,0.0,0.0,0.0,0.0,0.0,0.0,0.0,0.0,0.0,0.0,0.0,0.0,0.0,0.0,0.0,0.0,0.0,0.0,0.0,0.0,0.0,0.0,0.0,0.0,0.0,0.0,0.0,0,0,0,1,1,,125
0.101794931,0,1735643777088230371,map,0.98182908205923,-0.2219614498163191,0.0213404586990185,-0.4875664983841182,0.497586809914337,-0.5103289304524858,0.5042327428836267,0.0,0.0,0.0,1,0.0,0,1735643777088253974,map,0.991387833671922,-0.2533793120984585,0.1465780709251463,-0.4848356966170846,0.5023509512518572,-0.509930267743794,0.502542526659111,0.0,0.0,0.0,16,0.0,0,1735643777088270664,map,0.9862759436631092,0.0540582781808339,0.0249238254922229,-0.5015666031923894,0.4844334495311911,-0.4855788744066899,0.5272270215640427,0.0,0.0,0.0,17,0.0,0,1735643777088284730,map,1.0115938087948728,-0.2603415604345178,0.2356778293145083,-0.3174272603102428,0.6610046993312544,-0.6061782828717913,0.3079944987309645,0.0,0.0,0.0,121,0.0,0,1735643777088297367,map,1.0066874889799555,0.2033177037471112,0.2402359658681821,-0.4770874094494829,0.4857011427848117,-0.5210322541880806,0.5147886884324452,0.0,0.0,0.0,122,0.0,0,1735643777088310956,map,1.0088573377910746,0.2035274508125761,0.1423534702320318,-0.4807955339515908,0.4982709380149421,-0.4851302771951284,0.5340508786721472,0.0,0.0,0.0,124,0.0,0,1735643777088322877,map,1.0005624986950317,-0.0291478460977847,0.2417478998886596,0.4368904302717794,-0.5186160597772457,0.5587510116572496,-0.4774530777469801,0.0,0.0,0.0,125,0.0,0,1735643777088343858,map,1.0041721162878727,-0.0244148859761085,0.1441749524164444,0.4946471980931307,-0.497694163183398,0.5084219803213866,-0.4991310041240396,0.0,0.0,0.0,126,0.0,0,1735644242188269615,map,0.9757205739079152,0.3299982291014236,0.0249082876590695,-0.4961785431971866,0.493359554233478,-0.4878288380538721,0.5219446601702818,0.0,0.0,0.0,0,0.0,0.9170564919052308,0.2307798202760672,0.3995842982505373,1.0,3.602899371226216e-06,-0.000237234808334,-3.794227510543436e-06,0.0,0.0,0.0,-0.000237234808334,0.0156208510109241,0.0002498329105242,0.0,0.0,0.0,-3.794227510543436e-06,0.0002498329105242,3.995715927215872e-06,0.0,0.0,0.0,0.0,0.0,0.0,0.0,0.0,0.0,0.0,0.0,0.0,0.0,0.0,0.0,0.0,0.0,0.0,0.0,0.0,0.0,0,0,0,1,2,,125
0.199349284,0,1735643777088230371,map,0.98671882630477,-0.2233967655626602,0.0200068454720243,-0.4894887203310946,0.5043386128892338,-0.5006574489235075,0.5053567799634193,0.0,0.0,0.0,1,0.0,0,1735643777088253974,map,0.9908974957376044,-0.2532938611543239,0.1474860297471514,-0.5000718806888759,0.5086772173652138,-0.486131898371041,0.5048280698059895,0.0,0.0,0.0,16,0.0,0,1735643777088270664,map,0.992598058586694,0.0544284863887817,0.0239930111947835,-0.4999231400416613,0.5057754801614918,-0.4848612893838837,0.5090948318096494,0.0,0.0,0.0,17,0.0,0,1735643777088284730,map,1.0149357505928167,-0.261976155630567,0.2362391446457674,-0.4944925099891499,0.5160440090728522,-0.479813789682455,0.5088756876637052,0.0,0.0,0.0,121,0.0,0,1735643777088297367,map,1.0250935846778166,0.2095360842348907,0.2408374522234024,-0.5025209273834496,0.4678316049295917,-0.4968274297105371,0.5308190012216035,0.0,0.0,0.0,122,0.0,0,1735643777088310956,map,1.0105096098319066,0.2035510078929066,0.1427487609942409,-0.4840174755994322,0.5010245165294993,-0.4805311347430602,0.532720701393592,0.0,0.0,0.0,124,0.0,0,1735643777088322877,map,1.0107155227569713,-0.0298214788550129,0.2414213893879078,-0.492497356092463,0.5095307369680323,-0.5064145846108163,0.4912932432063379,0.0,0.0,0.0,125,0.0,0,1735643777088343858,map,1.0095964023514346,-0.0250646784254233,0.1433437994979862,0.5060724768069027,-0.5020684933401076,0.4952757256218582,-0.4965076352116476,0.0,0.0,0.0,126,0.0,0,1735644242188269615,map,0.9769888811045786,0.3304203537101421,0.0253201076555342,-0.4981363461365918,0.4967678208361782,-0.4819489004316237,0.522309458283218,0.0,0.0,0.0,0,0.0,0.9183438496134636,0.1471122280032168,0.3979958555787674,1.0,5.716512652043597e-06,-0.0003735767785728,-6.619272842206646e-06,0.0,0.0,0.0,-0.0003735767785728,0.0244144326674213,0.0004323576213037,0.0,0.0,0.0,-6.619272842206646e-06,0.0004323576213037,7.710110861142758e-06,0.0,0.0,0.0,0.0,0.0,0.0,0.0,0.0,0.0,0.0,0.0,0.0,0.0,0.0,0.0,0.0,0.0,0.0,0.0,0.0,0.0,0,0,0,1,3,,125
0.300922655,0,1735643777088230371,map,0.982102895265913,-0.2222471141711958,0.0230488382392851,-0.4830086083850094,0.4871640063156656,-0.5044334717544752,0.5243288927287659,0.0,0.0,0.0,1,0.0,0,1735643777088253974,map,0.9844784248314808,-0.251473680495381,0.1491605816366237,-0.4976778917816564,0.4812881319249495,-0.4940705491137608,0.5259018374168177,0.0,0.0,0.0,16,0.0,0,1735643777088270664,map,0.9809729966522736,0.0526450437049288,0.0290387106835209,-0.4740480776462895,0.4992598473147923,-0.5064797672105112,0.5191303018948652,0.0,0.0,0.0,17,0.0,0,1735643777088284730,map,1.0156059109518931,-0.2626156334445773,0.2370774956801893,-0.489447307465018,0.5193114434112385,-0.4857757033719896,0.50475630156624,0.0,0.0,0.0,121,0.0,0,1735643777088297367,map,1.0058100635477487,0.2019469604991224,0.2418941257980322,-0.5048018243118793,0.5082564389437461,-0.499646554255394,0.4870357597387819,0.0,0.0,0.0,122,0.0,0,1735643777088310956,map,1.0084224543586784,0.2020108098043538,0.1440506157267509,-0.483693144181985,0.499301875994451,-0.4794560264514579,0.5355935936875514,0.0,0.0,0.0,124,0.0,0,1735643777088322877,map,0.9992732180577012,-0.0306129000133662,0.242447712477334,0.5551312159176475,-0.5544350423464778,0.4373819027566391,-0.4394635230289714,0.0,0.0,0.0,125,0.0,0,1735643777088343858,map,1.0120668474197194,-0.02526115080017,0.1445105421079368,0.5806648830742621,-0.5496663358628645,0.417492334160689,-0.4317352935544019,0.0,0.0,0.0,126,0.0,0,1735644242188269615,map,0.9808212303610612,0.3316511645893987,0.02546953698795,-0.4954012821328283,0.4927066255039792,-0.4781484825621415,0.5321576641082534,0.0,0.0,0.0,0,0.0,0.9191537757313948,0.1023337859247548,0.3953323171305338,1.0,6.255325438554457e-06,-0.0003889842732084,-1.14362626976708e-05,0.0,0.0,0.0,-0.0003889842732084,0.0243261511254885,0.0006820755223617,0.0,0.0,0.0,-1.14362626976708e-05,0.0006820755223617,2.706589434151356e-05,0.0,0.0,0.0,0.0,0.0,0.0,0.0,0.0,0.0,0.0,0.0,0.0,0.0,0.0,0.0,0.0,0.0,0.0,0.0,0.0,0.0,0,0,0,1,4,,125
0.403870379,0,1735643777088230371,map,0.9897605891113836,-0.2247643189136132,0.018947335041776,-0.4809263743589591,0.50598396127303,-0.5119931001453968,0.5005528131814907,0.0,0.0,0.0,1,0.0,0,1735643777088253974,map,0.9879390271980066,-0.2526406580226783,0.1475416898558136,-0.4883343437975121,0.5041755414837193,-0.5052894550531327,0.502015098029491,0.0,0.0,0.0,16,0.0,0,1735643777088270664,map,0.9813106756571292,0.0529029985062216,0.0275747056009702,-0.4974938690406091,0.4885549448058501,-0.4898825932765008,0.5232866909997308,0.0,0.0,0.0,17,0.0,0,1735643777088284730,map,1.0101528857939737,-0.2610068136632585,0.2360311325996008,-0.4901436906600496,0.4962029549801245,-0.4900819423934063,0.5228398222353035,0.0,0.0,0.0,121,0.0,0,1735643777088297367,map,1.0034794576873751,0.2018408869347289,0.2408161934593631,-0.4910615338134428,0.5110115581452986,-0.5086047002548305,0.4889243462228044,0.0,0.0,0.0,122,0.0,0,1735643777088310956,map,1.0066081030356484,0.2022265792619145,0.1428529541067237,-0.4757582950767405,0.4988120399931022,-0.4897223865459453,0.533865692416488,0.0,0.0,0.0,124,0.0,0,1735643777088322877,map,1.0036329418664864,-0.0304104789220218,0.2414363026954488,0.5598492065670908,-0.5485270739152857,0.4328333622263147,-0.4453562569808552,0.0,0.0,0.0,125,0.0,0,1735643777088343858,map,1.002781467024684,-0.0253012382365176,0.1445890878002418,0.6363176737558299,-0.5368889677008538,0.3619646968784108,-0.4193228024336394,0.0,0.0,0.0,126,0.0,0,1735644242188269615,map,0.9671781686569052,0.3249758369295827,0.0287434495261419,-0.4763317449528512,0.496771792725231,-0.4958212042453504,0.5296104116456003,0.0,0.0,0.0,0,0.0,0.919525983426116,0.0813822687835057,0.3941872938652306,1.0,5.558414622882493e-06,-0.000342380682151,-1.0853756038059612e-05,0.0,0.0,0.0,-0.000342380682151,0.021216785182471,0.0006416203161699,0.0,0.0,0.0,-1.0853756038059612e-05,0.0006416203161699,2.6897028585553355e-05,0.0,0.0,0.0,0.0,0.0,0.0,0.0,0.0,0.0,0.0,0.0,0.0,0.0,0.0,0.0,0.0,0.0,0.0,0.0,0.0,0.0,0,0,0,1,5,,125
0.501425594,0,1735643777088230371,map,0.9807479670049736,-0.221692787229939,0.0230757380956957,-0.4852056248860993,0.4907517240703817,-0.5055012758311279,0.5178867704758824,0.0,0.0,0.0,1,9.0233370323992e-37,0,1735643777088253974,map,0.987490150039374,-0.2523356169900125,0.1488226559581452,-0.5008203043679329,0.5110186641028378,-0.497465675216983,0.4904761458544878,0.0,0.0,0.0,16,8.145467455678155e-16,0,1735643777088270664,map,0.993105569245284,0.0545672632514726,0.0243162364396737,-0.4873485453690314,0.4898084843697853,-0.4916179673475229,0.5299913378038859,0.0,0.0,0.0,17,1.50942265383212e-39,0,1735643777088284730,map,1.0125112790744604,-0.2613895082727848,0.2365588020838736,-0.3131144207937451,0.6869003952804958,-0.5902801415449526,0.2858261026431399,0.0,0.0,0.0,121,5.377681304707949e-07,0,1735643777088297367,map,1.0098680145494112,0.2042825767564264,0.2412677692370173,0.4837905332835566,-0.4995713830683436,0.5161917024444201,-0.4999212732540246,0.0,0.0,0.0,122,4.1086792634814635e-08,0,1735643777088310956,map,1.0133356854576063,0.2048976366986796,0.1424010180517173,-0.4965256174989589,0.4948251898761924,-0.465358783820221,0.5404179354468466,0.0,0.0,0.0,124,3.308638439681148e-20,0,1735643777088322877,map,0.998726606428393,-0.02963256198674,0.2421451166099602,0.4392352077503543,-0.5387934620542691,0.5553364128262186,-0.4564816602114322,0.0,0.0,0.0,125,1.6229890889007947e-06,0,1735643777088343858,map,1.0088608486597506,-0.0250107079346628,0.1436024968983497,0.5035582608756463,-0.5002923170712992,0.497113039159782,-0.4990143301355687,0.0,0.0,0.0,126,1.2474060653950745e-17,0,1735644242188269615,map,0.9759714568005876,0.3299569607562344,0.0267151334636275,-0.4936814402553884,0.484084931406627,-0.4839846727275229,0.5363760353494912,0.0,0.0,0.0,0,1.2751816025355837e-43,0.9205096159815463,0.0707002393189139,0.3816999838162111,1.0,9.469677206246746e-06,-0.000337853194823,-7.045942016821837e-05,0.0,0.0,0.0,-0.000337853194823,0.0182511830861378,0.0012016326661938,0.0,0.0,0.0,-7.045942016821837e-05,0.0012016326661938,0.0008020787517896,0.0,0.0,0.0,0.0,0.0,0.0,0.0,0.0,0.0,0.0,0.0,0.0,0.0,0.0,0.0,0.0,0.0,0.0,0.0,0.0,0.0,0,0,0,1,6,,125
0.60188128,0,1735643777088230371,map,0.9825220912112268,-0.2210588604845802,0.0224786357314025,-0.4261299220501504,0.814897071026077,-0.3459651639142069,0.1861831316861697,0.0,0.0,0.0,1,1.1019919352039942e-11,0,1735643777088253974,map,0.995266899591296,-0.2544314481716702,0.1467223500081385,-0.5030606810224478,0.510038935396169,-0.4945989704055271,0.49209967899092,0.0,0.0,0.0,16,5.59196678295848e-06,0,1735643777088270664,map,0.9893845764905028,0.0552774491605183,0.0250966060059682,-0.4887800131724798,0.4934527397544693,-0.4947013884915723,0.5223686711283801,0.0,0.0,0.0,17,2.9670245427215747e-11,0,1735643777088284730,map,1.0105911420567748,-0.2604805356191549,0.2359361719770742,-0.4973490824560633,0.5031326316849293,-0.4797477861926141,0.5189831468912993,0.0,0.0,0.0,121,0.0017234297702088,0,1735643777088297367,map,1.003412473881356,0.2029503319405178,0.2409930698681628,-0.4937696716493941,0.5109931320711613,-0.5058595386070005,0.4890640628135206,0.0,0.0,0.0,122,0.0130300289019942,0,1735643777088310956,map,1.0069080043490704,0.2036622232023154,0.1430097121503167,-0.486503307704846,0.5001209928580699,-0.4795413842882982,0.5321969417891895,0.0,0.0,0.0,124,7.224519777082605e-06,0,1735643777088322877,map,0.9922245988498476,-0.0291918123598101,0.2421129813048554,-0.5332652033025476,0.5550286276518775,-0.4521614360626907,0.4506900056261415,0.0,0.0,0.0,125,0.0339334309101104,0,1735643777088343858,map,1.0002219830173529,-0.0239703826474152,0.1448849737563649,-0.5736525975642688,0.6099999058015639,-0.4071545884271626,0.3647573897161762,0.0,0.0,0.0,126,3.56741547875572e-05,0,1735644242188269615,map,0.9825920376831314,0.3350731126990192,0.0236604801277499,-0.5073423683032926,0.4942255803203188,-0.480826656178844,0.5168660598156192,0.0,0.0,0.0,0,3.306732600412421e-13,0.9216244552135812,0.0726940322715498,0.3645614877375235,1.0,1.5574065256486172e-05,-0.0002762519010805,-0.0001750337955551,0.0,0.0,0.0,-0.0002762519010805,0.0156677224787175,0.0008249471805348,0.0,0.0,0.0,-0.0001750337955551,0.0008249471805348,0.0024498643599977,0.0,0.0,0.0,0.0,0.0,0.0,0.0,0.0,0.0,0.0,0.0,0.0,0.0,0.0,0.0,0.0,0.0,0.0,0.0,0.0,0.0,0,0,0,1,7,,125
0.700954408,0,1735643777088230371,map,0.9847653950050116,-0.2221084888502763,0.019605642820154,-0.4929636732898373,0.5054422532269581,-0.4906156803999701,0.5106967785439035,0.0,0.0,0.0,1,2.4694207567677043e-08,0,1735643777088253974,map,0.9810521102342712,-0.2491739593980056,0.148490892718542,-0.5032777628902028,0.4841668660269891,-0.488685842350054,0.5229532356802613,0.0,0.0,0.0,16,0.0001098457651096,0,1735643777088270664,map,0.9864809563643746,0.0550238510355468,0.0247574697403123,-0.495705234265938,0.489744473534041,-0.4963112784011841,0.5177854635812008,0.0,0.0,0.0,17,6.804635859225527e-07,0,1735643777088284730,map,1.007572627684953,-0.2598677482868798,0.2349011063312149,-0.5102923502801585,0.5099055058916798,-0.464727631144809,0.5134455386479047,0.0,0.0,0.0,121,0.0028189842123538,0,1735643777088297367,map,1.0032620479615288,0.2040614140165233,0.2396874524326186,0.5101156930718478,-0.5073319351115583,0.4978991514924289,-0.48424448602014,0.0,0.0,0.0,122,0.0945100635290145,0,1735643777088310956,map,1.0059957452059534,0.204322212416052,0.1415701965542203,-0.493729347896955,0.5031637506986707,-0.4709245957256963,0.5303655306943348,0.0,0.0,0.0,124,0.001293078996241,0,1735643777088322877,map,1.0045438642261375,-0.0289042160737558,0.2401390665585018,0.4480593297216595,-0.5307470124482555,0.5484563106809591,-0.465560008055739,0.0,0.0,0.0,125,0.1227575615048408,0,1735643777088343858,map,0.9972607165216304,-0.023930376190875,0.1443242513339656,0.6127270153716531,-0.5814372454322677,0.3713820429608472,-0.385450012873408,0.0,0.0,0.0,126,0.0022643755655735,0,1735644242188269615,map,0.9720293879714184,0.3297142826642353,0.0264760235027963,-0.4903481622852796,0.4890564332410509,-0.4865925450116674,0.5325506360789172,0.0,0.0,0.0,0,6.343918101947565e-08,0.9225713370791354,0.0776963686802367,0.3493044218927478,1.0,1.9903403970633064e-05,-0.0002085640620299,-0.0002542810439006,0.0,0.0,0.0,-0.0002085640620299,0.0138844207556975,0.0001875819512125,0.0,0.0,0.0,-0.0002542810439006,0.0001875819512125,0.0037730777223407,0.0,0.0,0.0,0.0,0.0,0.0,0.0,0.0,0.0,0.0,0.0,0.0,0.0,0.0,0.0,0.0,0.0,0.0,0.0,0.0,0.0,0,0,0,1,8,,125
0.799622259,0,1735643777088230371,map,0.9838267332571784,-0.2241925495628079,0.019303985909594,-0.4855901061776058,0.5044024092819435,-0.5074464583572554,0.5022733819282785,0.0,0.0,0.0,1,1.4983767115950286e-08,0,1735643777088253974,map,0.972968874091059,-0.2486939781182073,0.149735523747211,-0.5047230413792531,0.480103215150822,-0.4824682879375081,0.5310178014317131,0.0,0.0,0.0,16,9.946784848580136e-05,0,1735643777088270664,map,0.978031024125066,0.0531367708314924,0.0273947981679197,-0.48148139561088,0.4830268531818982,-0.5067480040508614,0.5273207611845565,0.0,0.0,0.0,17,5.921453976043267e-07,0,1735643777088284730,map,1.005635624690738,-0.2604658424636079,0.2362335374666429,-0.5077106621297002,0.4987951324397793,-0.4794078547488987,0.5134212775287592,0.0,0.0,0.0,121,0.0023384031374007,0,1735643777088297367,map,1.0010264573117855,0.2024456739098221,0.2411234470804784,-0.4827510526481369,0.4882820086367716,-0.5154898713104261,0.5126424619411817,0.0,0.0,0.0,122,0.0909760147333145,0,1735643777088310956,map,1.0061233236962033,0.20375471648157,0.1427092931171789,-0.4912967563226407,0.5025620684500037,-0.4732942468099849,0.5310851349065185,0.0,0.0,0.0,124,0.0010468695545569,0,1735643777088322877,map,0.9885629027252688,-0.0299331657994287,0.2422594606760378,0.577198638689269,-0.530531302456784,0.4077353738551547,-0.4681133767752853,0.0,0.0,0.0,125,0.1430320590734481,0,1735643777088343858,map,1.0014809054369025,-0.024912794483321,0.1442406547509309,-0.5041292684481025,0.5053624157882047,-0.4968871923025608,0.4935236848707152,0.0,0.0,0.0,126,0.0021422356367111,0,1735644242188269615,map,0.9692371223155046,0.3285531227911423,0.0266818037163557,-0.4963383202991072,0.495181330908784,-0.482077118022944,0.5254002032743788,0.0,0.0,0.0,0,2.324047798651918e-08,0.922955005415117,0.0740502230862951,0.3443235310296837,1.0,1.8869525776841724e-05,-0.0001965815622621,-0.0002413156754514,0.0,0.0,0.0,-0.0001965815622621,0.0124480623599355,0.000312027938383,0.0,0.0,0.0,-0.0002413156754514,0.000312027938383,0.0035523210546209,0.0,0.0,0.0,0.0,0.0,0.0,0.0,0.0,0.0,0.0,0.0,0.0,0.0,0.0,0.0,0.0,0.0,0.0,0.0,0.0,0.0,0,0,0,1,9,,125
0.900579185,0,1735643777088230371,map,0.9845645849345772,-0.2252048616830446,0.019884160410199,0.486027822695035,-0.500600218240325,0.5135151778796301,-0.499478266945935,0.0,0.0,0.0,1,5.129511482238058e-09,0,1735643777088253974,map,0.9789287777248972,-0.251612900914925,0.1493624142592454,-0.4900815406375394,0.4849496931339991,-0.5027049278787061,0.5214706455228725,0.0,0.0,0.0,16,5.557222539209761e-05,0,1735643777088270664,map,0.9814961973108606,0.0528180077862112,0.0276917149833792,0.7260891459094446,-0.5962493388582651,0.2128988463610718,-0.2682449614097159,0.0,0.0,0.0,17,2.0415444623722578e-07,0,1735643777088284730,map,1.0078721961748458,-0.2640763094586985,0.235863198853056,-0.4985591183617173,0.5213593382752684,-0.4755486415015516,0.5034647310960229,0.0,0.0,0.0,121,0.0015526345232501,0,1735643777088297367,map,1.005695793454819,0.2040316121660911,0.2409442460323148,-0.4981046311036115,0.4712051224477911,-0.4970253245643829,0.5318113723810048,0.0,0.0,0.0,122,0.0700523555278778,0,1735643777088310956,map,0.9993582495331887,0.2010792820487859,0.1433972364119099,-0.4796277215952962,0.499342909190181,-0.4843729351554649,0.5347866559738307,0.0,0.0,0.0,124,0.000640447018668,0,1735643777088322877,map,0.9961706999136688,-0.0311610084426183,0.2416258163888585,0.5646405356978158,-0.5504768725121908,0.4253124457398578,-0.4441459239651552,0.0,0.0,0.0,125,0.131069004535675,0,1735643777088343858,map,0.9926737411844744,-0.0259334721542784,0.1451616563325022,0.4640949599567476,-0.4888346656304084,0.5467644197071495,-0.4966942793742001,0.0,0.0,0.0,126,0.0016667109448462,0,1735644242188269615,map,0.974155661923744,0.3310787236638973,0.0256906942419112,-0.5045583499145817,0.4927122031389697,-0.4833716268272521,0.5186592588470713,0.0,0.0,0.0,0,3.4887035482711326e-09,0.923184454626224,0.0698565139799089,0.3417709990200991,1.0,1.745639566345642e-05,-0.0001855835952505,-0.0002224551960096,0.0,0.0,0.0,-0.0001855835952505,0.0113615408885628,0.0003771663351411,0.0,0.0,0.0,-0.0002224551960096,0.0003771663351411,0.0032557277260984,0.0,0.0,0.0,0.0,0.0,0.0,0.0,0.0,0.0,0.0,0.0,0.0,0.0,0.0,0.0,0.0,0.0,0.0,0.0,0.0,0.0,0,0,0,1,10,,125
1.00107678,0,1735643777088230371,map,0.9883386276580124,-0.2262620218206868,0.0177865268969555,-0.4835081893026104,0.5122132899020854,-0.5102161180266958,0.4934945687956071,0.0,0.0,0.0,1,9.83769288254166e-10,0,1735643777088253974,map,0.9810342849864172,-0.2523288675363926,0.1491088986908303,-0.5046289123212148,0.4976899866173235,-0.4877577488605744,0.509653525933865,0.0,0.0,0.0,16,2.170523293898441e-05,0,1735643777088270664,map,0.9805090251152986,0.0537720760440653,0.0271453522252427,-0.4818305313129046,0.4810605144832043,-0.5058892274608559,0.529618929079142,0.0,0.0,0.0,17,6.81790908174662e-08,0,1735643777088284730,map,1.006894460539607,-0.2637078399588433,0.2357470257866509,-0.4911008383260593,0.4947013519061643,-0.4925919967883851,0.5210025563446755,0.0,0.0,0.0,121,0.000791527738329,0,1735643777088297367,map,0.9977548059732786,0.2023673213028042,0.2409319040245407,-0.4828673578907214,0.4743931308584102,-0.5149765534179497,0.5259176946136717,0.0,0.0,0.0,122,0.0537850297987461,0,1735643777088310956,map,1.000893434889553,0.2030629741800539,0.1426458491166742,-0.483250302858816,0.4981672656343188,-0.4793584230377402,0.5371350132881487,0.0,0.0,0.0,124,0.0003130137047264,0,1735643777088322877,map,0.987718454680423,-0.0306446651057619,0.2420008861154235,0.5749560624918207,-0.5275149915697249,0.4153457941740887,-0.4675909870121428,0.0,0.0,0.0,125,0.1065628379583358,0,1735643777088343858,map,0.9902777526908528,-0.025503782819656,0.1452637505742578,-0.4617948308722352,0.4686869159302572,-0.5438039590346322,0.5209178084436429,0.0,0.0,0.0,126,0.0009903346654027,0,1735644242188269615,map,0.9730306291069344,0.3322667808559941,0.0258315125902107,-0.4937782728605152,0.4871121809675843,-0.4829131701359194,0.5345087562549059,0.0,0.0,0.0,0,8.167466702957427e-10,0.922904599903367,0.0702770469583638,0.3458782168187586,1.0,1.6652637262196323e-05,-0.00016988924072,-0.0002137262393599,0.0,0.0,0.0,-0.00016988924072,0.0103304420149168,0.0003601506918323,0.0,0.0,0.0,-0.0002137262393599,0.0003601506918323,0.0031284448587275,0.0,0.0,0.0,0.0,0.0,0.0,0.0,0.0,0.0,0.0,0.0,0.0,0.0,0.0,0.0,0.0,0.0,0.0,0.0,0.0,0.0,0,0,0,1,11,,125
1.1006368,0,1735643777088230371,map,0.9858640199370264,-0.2260125274453651,0.018215123528499,-0.4846439286551502,0.5110462106001764,-0.5073578775211911,0.4965279621190473,0.0,0.0,0.0,1,3.0236241288505994e-10,0,1735643777088253974,map,0.9811248722219824,-0.2528166086782637,0.1489592075266615,-0.4926945337060772,0.4846606032991158,-0.5004349291220438,0.5214605237029009,0.0,0.0,0.0,16,9.1668771347031e-06,0,1735643777088270664,map,0.9844604769671152,0.0544641367867732,0.0246702986425393,-0.4789773445241974,0.4919399140336657,-0.5068121999080699,0.521265017469464,0.0,0.0,0.0,17,1.9450860477832066e-08,0,1735643777088284730,map,1.0114503019233283,-0.2664931772387384,0.2351999742949709,-0.4992330706094167,0.5245837261720502,-0.476755477835123,0.4982795097127154,0.0,0.0,0.0,121,0.000358824734576,0,1735643777088297367,map,0.9977551489434068,0.2028056732433115,0.2408186163854194,-0.4927109866010101,0.4998309060751691,-0.5065526629252903,0.5008086947108964,0.0,0.0,0.0,122,0.0394448302686214,0,1735643777088310956,map,0.9959117052019282,0.2015562779430761,0.1432468272006622,-0.469359608123891,0.4909795036281891,-0.4891366908188618,0.5471617521113642,0.0,0.0,0.0,124,0.0001855913869803,0,1735643777088322877,map,0.9856173655934072,-0.0305607462524901,0.2417912692145436,-0.4305774721778146,0.4627864965001285,-0.5655519445417941,0.5297005730930402,0.0,0.0,0.0,125,0.0843494683504104,0,1735643777088343858,map,0.9863145502900716,-0.02569293844997,0.1457721805181116,-0.4611502701629235,0.4619275228124061,-0.5466189375582126,0.5245675639036289,0.0,0.0,0.0,126,0.00063368154224,0,1735644242188269615,map,0.9733401843664446,0.3330116976704427,0.0251687873503309,-0.4928092677109756,0.4903582107297882,-0.480656594508163,0.5344689785047099,0.0,0.0,0.0,0,1.8242772570342678e-10,0.9226375769879156,0.0711486641169264,0.3496975223494645,1.0,1.6049231101483844e-05,-0.0001582919632966,-0.0002071339824892,0.0,0.0,0.0,-0.0001582919632966,0.0094779287281892,0.0003667568287575,0.0,0.0,0.0,-0.0002071339824892,0.0003667568287575,0.0030281991626059,0.0,0.0,0.0,0.0,0.0,0.0,0.0,0.0,0.0,0.0,0.0,0.0,0.0,0.0,0.0,0.0,0.0,0.0,0.0,0.0,0.0,0,0,0,1,12,,125
1.201676551,0,1735643777088230371,map,0.9779121598876708,-0.2243888388181959,0.0195912100939171,-0.4869003735014143,0.4975708463627522,-0.5109066437860154,0.5043071291081935,0.0,0.0,0.0,1,1.0720109522299735e-10,0,1735643777088253974,map,0.9784185708323816,-0.2532324025057734,0.1479459816170532,-0.4996229708978491,0.4927722990642422,-0.4920287766125832,0.5152281351122756,0.0,0.0,0.0,16,3.6602762065740535e-06,0,1735643777088270664,map,0.9790803716185884,0.053454495472299,0.0248978727416576,-0.4856798179675949,0.4928993461547091,-0.50193297717587,0.5188724654504151,0.0,0.0,0.0,17,7.485230213433171e-09,0,1735643777088284730,map,1.005722277250007,-0.2660927923091091,0.2339722879183736,-0.4900385055389438,0.5072551975454618,-0.4917050021543668,0.5106668370950357,0.0,0.0,0.0,121,0.0001803371269488,0,1735643777088297367,map,1.001546453256963,0.2049813967285731,0.2389680321220487,-0.5049666514119728,0.4873777607591708,-0.4933129134356449,0.5139201968368163,0.0,0.0,0.0,122,0.0257628727704286,0,1735643777088310956,map,0.9963336969867376,0.20239043584059,0.1408378944208779,-0.4802229665259637,0.4929181279350415,-0.4792080548713583,0.5447726697627432,0.0,0.0,0.0,124,8.149539644364268e-05,0,1735643777088322877,map,0.990917930705228,-0.0315806582799474,0.2402039696762534,-0.5643629284256441,0.5758756142201185,-0.4180209393193178,0.4184737223004909,0.0,0.0,0.0,125,0.0613304674625396,0,1735643777088343858,map,0.9884862450644722,-0.0265270405257755,0.1433129515191159,-0.4823021087043906,0.4827363389798403,-0.5185799271693561,0.5151942954892503,0.0,0.0,0.0,126,0.0003142310015391,0,1735644242188269615,map,0.972298408776085,0.333794726659372,0.0230900653717844,-0.4941413779182371,0.4865750005970143,-0.48385607057844,0.5338093015183173,0.0,0.0,0.0,0,3.2544033440329294e-11,0.9224107202530172,0.0719546068081082,0.3529284648286438,1.0,1.543224260093372e-05,-0.0001483096607568,-0.0001999961319584,0.0,0.0,0.0,-0.0001483096607568,0.0087566518110169,0.0003697922187276,0.0,0.0,0.0,-0.0001999961319584,0.0003697922187276,0.0029205286371276,0.0,0.0,0.0,0.0,0.0,0.0,0.0,0.0,0.0,0.0,0.0,0.0,0.0,0.0,0.0,0.0,0.0,0.0,0.0,0.0,0.0,0,0,0,1,13,,125
1.301403689,0,1735643777088230371,map,0.9856154528751684,-0.2281621846184326,0.0149723394541357,0.4811879412178079,-0.5135307579356051,0.5151957604484847,-0.4892010366879432,0.0,0.0,0.0,1,1.4567997849712633e-11,0,1735643777088253974,map,0.975044733555583,-0.2521724861395824,0.1482343005433449,-0.4996696439715088,0.4820318487595689,-0.5006301082412332,0.5170541929016619,0.0,0.0,0.0,16,1.6946552250374225e-06,0,1735643777088270664,map,0.975668679633203,0.0529201547225482,0.0259999686965545,-0.4849119251270166,0.4837627936966118,-0.4994587706013813,0.530447849249874,0.0,0.0,0.0,17,3.165181672315498e-09,0,1735643777088284730,map,1.0002098483375774,-0.264540057432777,0.2340443709731133,-0.4947133566547249,0.4980329942258231,-0.4916501014297296,0.5152688707597356,0.0,0.0,0.0,121,0.0001000961638055,0,1735643777088297367,map,0.9963657750837316,0.203417044409892,0.2387323015801974,-0.5043248301776349,0.4923508703376889,-0.4939548788462257,0.5091715465420577,0.0,0.0,0.0,122,0.0195245835930109,0,1735643777088310956,map,0.99192752552505,0.201050588170533,0.1414406091108828,-0.4809862695219979,0.4951907138346891,-0.481407314158092,0.5400790343443218,0.0,0.0,0.0,124,4.76105633424595e-05,0,1735643777088322877,map,0.9865980898204176,-0.0313719523705402,0.2402514897169337,0.5675624290049813,-0.5466704229204158,0.4200432745140556,-0.450097750962487,0.0,0.0,0.0,125,0.049200139939785,0,1735643777088343858,map,0.9838176465516248,-0.0263462895541749,0.1439501903649717,-0.4748187536876685,0.468387946181302,-0.526031700740704,0.5276841222117581,0.0,0.0,0.0,126,0.0002020327665377,0,1735644242188269615,map,0.9689411118821109,0.3323355736483981,0.0241894253398083,-0.4980072562212023,0.4909458671443087,-0.4767907156882586,0.5325706917569075,0.0,0.0,0.0,0,9.206980663978293e-12,0.9222087397028388,0.0727269632644492,0.35579351474777,1.0,1.4860289412464277e-05,-0.0001397441263257,-0.0001932335906278,0.0,0.0,0.0,-0.0001397441263257,0.008138931630102,0.0003721454062546,0.0,0.0,0.0,-0.0001932335906278,0.0003721454062546,0.0028186300922694,0.0,0.0,0.0,0.0,0.0,0.0,0.0,0.0,0.0,0.0,0.0,0.0,0.0,0.0,0.0,0.0,0.0,0.0,0.0,0.0,0.0,0,0,0,1,14,,125
1.400690792,0,1735643777088230371,map,0.9856154528751684,-0.2281621846184326,0.0149723394541357,0.4811879412178079,-0.5135307579356051,0.5151957604484847,-0.4892010366879432,0.0,0.0,0.0,1,4.409482761563721e-12,0,1735643777088253974,map,0.9859145960692046,-0.2576739755445418,0.1450214444358174,-0.5020998376332149,0.5109247031268248,-0.4932114138465219,0.4935526335001974,0.0,0.0,0.0,16,4.575730372380349e-07,0,1735643777088270664,map,0.9803111643986788,0.0538343599830192,0.023211478092508,-0.4960563982166051,0.4879335314270728,-0.4840601443329016,0.5305984313639508,0.0,0.0,0.0,17,8.634769566029377e-10,0,1735643777088284730,map,0.9990783676274074,-0.2645617322187214,0.2338619727604647,-0.4925035292086219,0.5042875361840249,-0.4860009517029118,0.5166598779761811,0.0,0.0,0.0,121,5.191724267206155e-05,0,1735643777088297367,map,0.990444745623978,0.2012718975237757,0.2391805900223809,-0.492670448670065,0.4919456984292286,-0.5067579928285858,0.5083911835472352,0.0,0.0,0.0,122,0.0156569816172122,0,1735643777088310956,map,0.9898433105939036,0.20050449549773,0.1416032533503603,-0.483046795628297,0.4978349570795938,-0.4842964994607458,0.5331820039656827,0.0,0.0,0.0,124,2.723388206504751e-05,0,1735643777088322877,map,0.9941040014929372,-0.0317667839874963,0.2389081146128843,-0.504965957679574,0.5075910581035521,-0.4931651439352823,0.4941141974537462,0.0,0.0,0.0,125,0.0359912291169166,0,1735643777088343858,map,0.991299787149609,-0.0267357098952357,0.1413729271378379,-0.4867181431374419,0.4891119415578797,-0.5150272235569704,0.5085488341954201,0.0,0.0,0.0,126,9.845150634646416e-05,0,1735644242188269615,map,0.9689411118821109,0.3323355736483981,0.0241894253398083,-0.4980072562212023,0.4909458671443087,-0.4767907156882586,0.5325706917569075,0.0,0.0,0.0,0,2.313720829510979e-12,0.9220127449087924,0.073495621383129,0.3585695948309543,1.0,1.44073988817409e-05,-0.0001325369930926,-0.0001879687126708,0.0,0.0,0.0,-0.0001325369930926,0.007604607882343,0.0003772097034209,0.0,0.0,0.0,-0.0001879687126708,0.0003772097034209,0.002738614108247,0.0,0.0,0.0,0.0,0.0,0.0,0.0,0.0,0.0,0.0,0.0,0.0,0.0,0.0,0.0,0.0,0.0,0.0,0.0,0.0,0.0,0,0,0,1,15,,125
1.500291759,0,1735643777088230371,map,0.9856154528751684,-0.2281621846184326,0.0149723394541357,0.4811879412178079,-0.5135307579356051,0.5151957604484847,-0.4892010366879432,0.0,0.0,0.0,1,8.999149082172808e-13,0,1735643777088253974,map,0.9808822858637624,-0.2573827315973636,0.1443814569883159,-0.5033993382617405,0.5099132111549645,-0.4938246348848772,0.492660992273685,0.0,0.0,0.0,16,1.7342325975278072e-07,0,1735643777088270664,map,0.9803111643986788,0.0538343599830192,0.023211478092508,-0.4960563982166051,0.4879335314270728,-0.4840601443329016,0.5305984313639508,0.0,0.0,0.0,17,2.4437918355602046e-10,0,1735643777088284730,map,0.994431772848564,-0.2647532149400209,0.2324640068105252,-0.4928913700818844,0.4935370276432951,-0.4935816732790039,0.5194770749965036,0.0,0.0,0.0,121,2.475178916938603e-05,0,1735643777088297367,map,0.9841834777163594,0.1993578374283462,0.2385000134830307,-0.4928050242871781,0.4940109095844159,-0.5072829238663201,0.5057276583325551,0.0,0.0,0.0,122,0.0117603540420532,0,1735643777088310956,map,0.9807993671009088,0.197494670580751,0.1420511944334337,-0.4731744578424617,0.4997685476834638,-0.4956447172472064,0.5297864149417111,0.0,0.0,0.0,124,1.5850484487600625e-05,0,1735643777088322877,map,0.9885400950361672,-0.0326567495916949,0.2380737041768484,-0.5072644865510956,0.5085718858324875,-0.4912225473962393,0.4926842665991987,0.0,0.0,0.0,125,0.027062714099884,0,1735643777088343858,map,0.9816895447991892,-0.0274373289108206,0.1421999715633921,-0.4781713569192879,0.4901430385465309,-0.5298504389085905,0.5003703304300876,0.0,0.0,0.0,126,6.033696990925819e-05,0,1735644242188269615,map,0.9689411118821109,0.3323355736483981,0.0241894253398083,-0.4980072562212023,0.4909458671443087,-0.4767907156882586,0.5325706917569075,0.0,0.0,0.0,0,4.350910907599537e-13,0.921898282435658,0.0738637380264864,0.3602079515710755,1.0,1.3703461317972782e-05,-0.0001248854641454,-0.0001790336235942,0.0,0.0,0.0,-0.0001248854641454,0.0071313525376433,0.000362680692714,0.0,0.0,0.0,-0.0001790336235942,0.000362680692714,0.0026077139186,0.0,0.0,0.0,0.0,0.0,0.0,0.0,0.0,0.0,0.0,0.0,0.0,0.0,0.0,0.0,0.0,0.0,0.0,0.0,0.0,0.0,0,0,0,1,16,,125
1.601707703,0,1735643777088230371,map,0.9856154528751684,-0.2281621846184326,0.0149723394541357,0.4811879412178079,-0.5135307579356051,0.5151957604484847,-0.4892010366879432,0.0,0.0,0.0,1,5.295557829049224e-13,0,1735643777088253974,map,0.9748976996559188,-0.2543478258641966,0.1468857878765375,-0.501771679380524,0.4982775022513952,-0.4894709627009099,0.5102576694126253,0.0,0.0,0.0,16,1.9177836918515825e-07,0,1735643777088270664,map,0.9803111643986788,0.0538343599830192,0.023211478092508,-0.4960563982166051,0.4879335314270728,-0.4840601443329016,0.5305984313639508,0.0,0.0,0.0,17,1.3316993341394578e-10,0,1735643777088284730,map,0.9956723721849832,-0.2658058015820488,0.2324530957263992,-0.4954558101049943,0.5142963792991497,-0.4818490257768679,0.5077837047709115,0.0,0.0,0.0,121,1.870424603112042e-05,0,1735643777088297367,map,0.9903649513118932,0.2017303528038168,0.2377749988499652,-0.4969039196046926,0.4841177910011912,-0.4995248335411117,0.5188365829366166,0.0,0.0,0.0,122,0.0087430384010076,0,1735643777088310956,map,0.9796512190540136,0.1969942351536891,0.1427451469753926,-0.4706310210353562,0.502039664717144,-0.4956695584152428,0.5298814074397724,0.0,0.0,0.0,124,1.13265150503139e-05,0,1735643777088322877,map,0.9855505387895556,-0.0328575909254563,0.2382436239959557,0.5111190763876033,-0.506819864421169,0.4851389632104335,-0.4965189836812858,0.0,0.0,0.0,125,0.0276244115084409,0,1735643777088343858,map,0.9798140944573648,-0.0272696884651483,0.1432955748640964,-0.627224604992282,0.6621560356056522,-0.3009967126273491,0.2784594376041354,0.0,0.0,0.0,126,5.837397839059122e-05,0,1735644242188269615,map,0.9689411118821109,0.3323355736483981,0.0241894253398083,-0.4980072562212023,0.4909458671443087,-0.4767907156882586,0.5325706917569075,0.0,0.0,0.0,0,1.1664267099940897e-13,0.9220540720833958,0.0719398794388513,0.3582793115355161,1.0,1.328570198756949e-05,-0.0001223347363987,-0.000173309628399,0.0,0.0,0.0,-0.0001223347363987,0.006771080921743,0.000400713425437,0.0,0.0,0.0,-0.000173309628399,0.000400713425437,0.0025138334204,0.0,0.0,0.0,0.0,0.0,0.0,0.0,0.0,0.0,0.0,0.0,0.0,0.0,0.0,0.0,0.0,0.0,0.0,0.0,0.0,0.0,0,0,0,1,17,,125
1.698686969,0,1735643777088230371,map,0.9856154528751684,-0.2281621846184326,0.0149723394541357,0.4811879412178079,-0.5135307579356051,0.5151957604484847,-0.4892010366879432,0.0,0.0,0.0,1,1.8996072076449263e-11,0,1735643777088253974,map,0.9766660405650148,-0.2562287504319245,0.1459515175381089,-0.5029856419447448,0.5026849831766903,-0.4903228432542072,0.5038816935245756,0.0,0.0,0.0,16,1.0592847274892847e-06,0,1735643777088270664,map,0.9803111643986788,0.0538343599830192,0.023211478092508,-0.4960563982166051,0.4879335314270728,-0.4840601443329016,0.5305984313639508,0.0,0.0,0.0,17,1.1142063938152091e-09,0,1735643777088284730,map,0.9894153155522912,-0.2636482542885944,0.2330776997037308,-0.4914099689211472,0.4846428699704485,-0.4979193348677908,0.5250846284138792,0.0,0.0,0.0,121,5.521997081814334e-05,0,1735643777088297367,map,0.9836276275814776,0.1986470217443327,0.2386751415112276,-0.4990587784860378,0.4964125458787274,-0.5043553387982664,0.5001405923696967,0.0,0.0,0.0,122,0.0106552895158529,0,1735643777088310956,map,0.9851737851649944,0.1990310157931546,0.1405129968199423,-0.4822470444687154,0.498970053272889,-0.4803166546730633,0.5364350708908922,0.0,0.0,0.0,124,1.3650737855641635e-05,0,1735643777088322877,map,0.9856964681720062,-0.0334192057248187,0.2382323326018278,0.4777703780993715,-0.5090041451831366,0.5204527316824584,-0.4917104840060204,0.0,0.0,0.0,125,0.0502542704343795,0,1735643777088343858,map,0.9732594476322758,-0.0278241205601985,0.1448064540164249,-0.4801996360436291,0.4725291983825727,-0.522267187942175,0.5228397944097821,0.0,0.0,0.0,126,0.0002492405474185,0,1735644242188269615,map,0.9689411118821109,0.3323355736483981,0.0241894253398083,-0.4980072562212023,0.4909458671443087,-0.4767907156882586,0.5325706917569075,0.0,0.0,0.0,0,1.7543330340947377e-13,0.9224176411630188,0.0679721193028665,0.3536678917669522,1.0,1.4794709518888964e-05,-0.000140061795468,-0.0001921829996074,0.0,0.0,0.0,-0.000140061795468,0.006662542807868,0.0006895006964442,0.0,0.0,0.0,-0.0001921829996074,0.0006895006964442,0.0027356842769479,0.0,0.0,0.0,0.0,0.0,0.0,0.0,0.0,0.0,0.0,0.0,0.0,0.0,0.0,0.0,0.0,0.0,0.0,0.0,0.0,0.0,0,0,0,1,18,,125
1.800813868,0,1735643777088230371,map,0.9856154528751684,-0.2281621846184326,0.0149723394541357,0.4811879412178079,-0.5135307579356051,0.5151957604484847,-0.4892010366879432,0.0,0.0,0.0,1,6.625343051958055e-10,0,1735643777088253974,map,0.9734244108033422,-0.2561838964598428,0.1451828714917385,-0.4994357026216365,0.4990303187836248,-0.4940003609461006,0.5074409948621307,0.0,0.0,0.0,16,5.979066827421775e-06,0,1735643777088270664,map,0.9803111643986788,0.0538343599830192,0.023211478092508,-0.4960563982166051,0.4879335314270728,-0.4840601443329016,0.5305984313639508,0.0,0.0,0.0,17,1.0585307741450832e-08,0,1735643777088284730,map,0.992773258402132,-0.2676125704772999,0.2306621585102199,-0.4920206283246551,0.5136246436389009,-0.4855941202752204,0.5082359462926236,0.0,0.0,0.0,121,9.579894685884938e-05,0,1735643777088297367,map,0.9876105174019554,0.2003569997663593,0.236149341724609,-0.4953660793946685,0.4885565263607633,-0.5012027010854859,0.5145102723562214,0.0,0.0,0.0,122,0.0096608651801943,0,1735643777088310956,map,0.9822836725616308,0.1977010923912372,0.1391609805681,-0.4772184177256788,0.4998026790644702,-0.4870143911798351,0.5341131402307122,0.0,0.0,0.0,124,2.2319463823805563e-05,0,1735643777088322877,map,0.9806658436392448,-0.0341920213288339,0.2371181214320756,-0.4963379996054555,0.4886572192815346,-0.4995049800561195,0.5151286121842089,0.0,0.0,0.0,125,0.0859399065375328,0,1735643777088343858,map,0.976596670764468,-0.0288506985638383,0.1414670744812557,0.4823821784498484,-0.4916122037746859,0.5257237175715508,-0.4992388684753256,0.0,0.0,0.0,126,0.0007095353212207,0,1735644242188269615,map,0.9689411118821109,0.3323355736483981,0.0241894253398083,-0.4980072562212023,0.4909458671443087,-0.4767907156882586,0.5325706917569075,0.0,0.0,0.0,0,3.306628517003863e-13,0.9228102772745578,0.0640512163235868,0.3486107080879538,1.0,1.679097668635976e-05,-0.0001604009078135,-0.0002178094977223,0.0,0.0,0.0,-0.0001604009078135,0.0065886053031981,0.0010101282640726,0.0,0.0,0.0,-0.0002178094977223,0.0010101282640726,0.0030520528156869,0.0,0.0,0.0,0.0,0.0,0.0,0.0,0.0,0.0,0.0,0.0,0.0,0.0,0.0,0.0,0.0,0.0,0.0,0.0,0.0,0.0,0,0,0,1,19,,125
1.900445062,0,1735643777088230371,map,0.9856154528751684,-0.2281621846184326,0.0149723394541357,0.4811879412178079,-0.5135307579356051,0.5151957604484847,-0.4892010366879432,0.0,0.0,0.0,1,7.630365228550318e-10,0,1735643777088253974,map,0.967811937003996,-0.254847335646732,0.1463290873583747,-0.5045409202759547,0.4963195379228998,-0.4929230499822444,0.506095092684461,0.0,0.0,0.0,16,8.445010280411225e-06,0,1735643777088270664,map,0.9803111643986788,0.0538343599830192,0.023211478092508,-0.4960563982166051,0.4879335314270728,-0.4840601443329016,0.5305984313639508,0.0,0.0,0.0,17,7.0141501495868405e-09,0,1735643777088284730,map,0.990077589749147,-0.2669535515628396,0.2314368928056314,-0.492665278877899,0.5092626918613284,-0.4845288821488189,0.5129953177465971,0.0,0.0,0.0,121,0.0001139117812272,0,1735643777088297367,map,0.9855906317820228,0.2004285211888236,0.2366566706330272,-0.4998261490760665,0.4887500941568719,-0.4982092242396642,0.5129178638378186,0.0,0.0,0.0,122,0.0078865345567464,0,1735643777088310956,map,0.978764773326028,0.1971635088274869,0.1404378514483035,-0.4783668181650199,0.5017838232111882,-0.4859267623171904,0.5322155237365508,0.0,0.0,0.0,124,1.6409327145083807e-05,0,1735643777088322877,map,0.9758176959192686,-0.0337987614812626,0.238183615617818,-0.4802184124493626,0.4930263258904349,-0.5206948038766329,0.5051655565648432,0.0,0.0,0.0,125,0.0983947366476059,0,1735643777088343858,map,0.9750171054922262,-0.0288352849191692,0.1421982602688262,-0.4823445795267625,0.4812772135034811,-0.5271485940577336,0.5077699382066948,0.0,0.0,0.0,126,0.0007657769019715,0,1735644242188269615,map,0.9689411118821109,0.3323355736483981,0.0241894253398083,-0.4980072562212023,0.4909458671443087,-0.4767907156882586,0.5325706917569075,0.0,0.0,0.0,0,8.396872064851679e-14,0.9229977868740888,0.0608650931015598,0.3464737021847864,1.0,1.661946500045175e-05,-0.0001637320075217,-0.000214532496137,0.0,0.0,0.0,-0.0001637320075217,0.0064520512805711,0.001088988369409,0.0,0.0,0.0,-0.000214532496137,0.001088988369409,0.0029862192652758,0.0,0.0,0.0,0.0,0.0,0.0,0.0,0.0,0.0,0.0,0.0,0.0,0.0,0.0,0.0,0.0,0.0,0.0,0.0,0.0,0.0,0,0,0,1,20,,125
2.001266211,0,1735643777088230371,map,0.9856154528751684,-0.2281621846184326,0.0149723394541357,0.4811879412178079,-0.5135307579356051,0.5151957604484847,-0.4892010366879432,0.0,0.0,0.0,1,6.67647548358019e-10,0,1735643777088253974,map,0.969444070881124,-0.2568359183042066,0.1451501650151724,-0.4978620018401012,0.50476415597714,-0.4956474958767295,0.501677320391883,0.0,0.0,0.0,16,7.761753295199014e-06,0,1735643777088270664,map,0.9803111643986788,0.0538343599830192,0.023211478092508,-0.4960563982166051,0.4879335314270728,-0.4840601443329016,0.5305984313639508,0.0,0.0,0.0,17,3.894716549268651e-09,0,1735643777088284730,map,0.984956105113636,-0.2666133015586234,0.2313400325485051,-0.4894227264782236,0.5083647030539457,-0.4890096439299279,0.5127380341256349,0.0,0.0,0.0,121,0.0001217782555613,0,1735643777088297367,map,0.979958516025086,0.1995501225365413,0.2366890905322391,-0.4954007000100416,0.4858231427657374,-0.5020264337397917,0.5162591211874988,0.0,0.0,0.0,122,0.0064488379284739,0,1735643777088310956,map,0.9762318295084926,0.1976863390362328,0.1396219408682412,-0.4831478307873834,0.5003709478457142,-0.4800661261686969,0.5345405528702272,0.0,0.0,0.0,124,9.224112545780372e-06,0,1735643777088322877,map,0.9727082125644628,-0.0342096479711827,0.2378440251350609,-0.4819753842238214,0.4921256839176673,-0.519162257307443,0.5059472213762106,0.0,0.0,0.0,125,0.1016202419996261,0,1735643777088343858,map,0.9693144777610738,-0.0290391748430445,0.1426997451865195,-0.4845456502221327,0.4866811514165424,-0.5179043928080028,0.510031381011848,0.0,0.0,0.0,126,0.0007511444855481,0,1735644242188269615,map,0.9689411118821109,0.3323355736483981,0.0241894253398083,-0.4980072562212023,0.4909458671443087,-0.4767907156882586,0.5325706917569075,0.0,0.0,0.0,0,1.9537868637406825e-14,0.923150016584559,0.0579768517181869,0.3448026276073035,1.0,1.6291539600188385e-05,-0.00016472876825,-0.0002094044069697,0.0,0.0,0.0,-0.00016472876825,0.0063116495091736,0.0011336611153773,0.0,0.0,0.0,-0.0002094044069697,0.0011336611153773,0.0028998681527519,0.0,0.0,0.0,0.0,0.0,0.0,0.0,0.0,0.0,0.0,0.0,0.0,0.0,0.0,0.0,0.0,0.0,0.0,0.0,0.0,0.0,0,0,0,1,21,,125
2.100811413,0,1735643777088230371,map,0.9856154528751684,-0.2281621846184326,0.0149723394541357,0.4811879412178079,-0.5135307579356051,0.5151957604484847,-0.4892010366879432,0.0,0.0,0.0,1,5.613415288152622e-10,0,1735643777088253974,map,0.966184386868103,-0.2555132225358762,0.1459278817165467,-0.5014719393305013,0.5069331586960263,-0.4883789201586277,0.5030215671551945,0.0,0.0,0.0,16,8.28948941489216e-06,0,1735643777088270664,map,0.9803111643986788,0.0538343599830192,0.023211478092508,-0.4960563982166051,0.4879335314270728,-0.4840601443329016,0.5305984313639508,0.0,0.0,0.0,17,2.415474265049511e-09,0,1735643777088284730,map,0.981487224401656,-0.2654364742090975,0.231308109110881,-0.4910778908349379,0.4977795228473158,-0.4958367918486965,0.5149795409685701,0.0,0.0,0.0,121,0.0001190282855532,0,1735643777088297367,map,0.9750267213009612,0.1978310911666164,0.2369867069213466,-0.499276306551939,0.4970430732662723,-0.5007252694715034,0.5029369319771251,0.0,0.0,0.0,122,0.005673190113157,0,1735643777088310956,map,0.9744207959613552,0.1973037352645771,0.1394450205707118,-0.4816318905825377,0.5008292767421476,-0.481697787478708,0.53401123496603,0.0,0.0,0.0,124,6.042312634235714e-06,0,1735643777088322877,map,0.970025893582362,-0.0340205438781366,0.2383284557287833,-0.5314834148600189,0.6490754614099824,-0.4195497428355011,0.3467051173703905,0.0,0.0,0.0,125,0.1075641363859176,0,1735643777088343858,map,0.969915669692144,-0.0289860272142276,0.1415879518499251,-0.4853930976153582,0.4911652943597466,-0.5214911711078839,0.50119572310665,0.0,0.0,0.0,126,0.0006532355910167,0,1735644242188269615,map,0.9689411118821109,0.3323355736483981,0.0241894253398083,-0.4980072562212023,0.4909458671443087,-0.4767907156882586,0.5325706917569075,0.0,0.0,0.0,0,5.228503990439143e-15,0.9232918249997208,0.0559014310718533,0.3431157177381249,1.0,1.597331723173235e-05,-0.0001634216513315,-0.0002049096031512,0.0,0.0,0.0,-0.0001634216513315,0.0061152111377095,0.0011556530636693,0.0,0.0,0.0,-0.0002049096031512,0.0011556530636693,0.0028278149270319,0.0,0.0,0.0,0.0,0.0,0.0,0.0,0.0,0.0,0.0,0.0,0.0,0.0,0.0,0.0,0.0,0.0,0.0,0.0,0.0,0.0,0,0,0,1,22,,125
2.201083421,0,1735643777088230371,map,0.9856154528751684,-0.2281621846184326,0.0149723394541357,0.4811879412178079,-0.5135307579356051,0.5151957604484847,-0.4892010366879432,0.0,0.0,0.0,1,3.879969123765648e-10,0,1735643777088253974,map,0.9665344767147792,-0.2563392928049743,0.1455122708934162,-0.4980514397681786,0.4995517948932911,-0.4985678423489035,0.5038083704537807,0.0,0.0,0.0,16,6.659982773271622e-06,0,1735643777088270664,map,0.9803111643986788,0.0538343599830192,0.023211478092508,-0.4960563982166051,0.4879335314270728,-0.4840601443329016,0.5305984313639508,0.0,0.0,0.0,17,1.354596990132961e-09,0,1735643777088284730,map,0.9807093912417396,-0.2657213637170803,0.2312977689769439,-0.4911841242561097,0.4983121152180435,-0.495979966895358,0.5142247216384653,0.0,0.0,0.0,121,9.989643149310724e-05,0,1735643777088297367,map,0.9741589218400344,0.1981617668548656,0.2370306203291677,-0.5010756707141273,0.4966142132995595,-0.4983090064433636,0.5039698696000332,0.0,0.0,0.0,122,0.004538825713098,0,1735643777088310956,map,0.9715302758223496,0.1968703380875091,0.1401043602597201,-0.4794645863576047,0.4981243264257896,-0.4814504431461551,0.5386941030363658,0.0,0.0,0.0,124,4.207619895169046e-06,0,1735643777088322877,map,0.9720546892047384,-0.0339993052031889,0.2371761479833886,-0.4972571237516674,0.5038095404550581,-0.4953717243453751,0.5035058634651354,0.0,0.0,0.0,125,0.1030205711722374,0,1735643777088343858,map,0.9673867228081392,-0.0288133908732272,0.1421281770121303,-0.4882551843088164,0.4820790432219934,-0.5139442771052992,0.5148475027738234,0.0,0.0,0.0,126,0.0006084507913328,0,1735644242188269615,map,0.9689411118821109,0.3323355736483981,0.0241894253398083,-0.4980072562212023,0.4909458671443087,-0.4767907156882586,0.5325706917569075,0.0,0.0,0.0,0,1.3452449154559526e-15,0.9234046681327356,0.0542526300769328,0.3417727980681745,1.0,1.5558963776886622e-05,-0.0001604095912829,-0.0001993343537555,0.0,0.0,0.0,-0.0001604095912829,0.0059091403764504,0.0011541198386264,0.0,0.0,0.0,-0.0001993343537555,0.0011541198386264,0.0027445419832222,0.0,0.0,0.0,0.0,0.0,0.0,0.0,0.0,0.0,0.0,0.0,0.0,0.0,0.0,0.0,0.0,0.0,0.0,0.0,0.0,0.0,0,0,0,1,23,,125
2.301850427,0,1735643777088230371,map,0.9856154528751684,-0.2281621846184326,0.0149723394541357,0.4811879412178079,-0.5135307579356051,0.5151957604484847,-0.4892010366879432,0.0,0.0,0.0,1,1.8527492040565363e-10,0,1735643777088253974,map,0.9638746491875207,-0.2560128195549557,0.1463086875473964,-0.4981526412929981,0.4974200520468116,-0.4991758714020069,0.5052135065540142,0.0,0.0,0.0,16,5.396242613642244e-06,0,1735643777088270664,map,0.9803111643986788,0.0538343599830192,0.023211478092508,-0.4960563982166051,0.4879335314270728,-0.4840601443329016,0.5305984313639508,0.0,0.0,0.0,17,5.56679424779105e-10,0,1735643777088284730,map,0.980229924381645,-0.2671562893280428,0.231172662595662,-0.4885074440070089,0.5085566849436428,-0.4909688366395663,0.5115468471192659,0.0,0.0,0.0,121,7.974243635544553e-05,0,1735643777088297367,map,0.9744490120858909,0.1985479721191559,0.2367689507069872,-0.4903993508392297,0.484895441484456,-0.5054723751239412,0.5185388756020302,0.0,0.0,0.0,122,0.0034119759220629,0,1735643777088310956,map,0.9716031307088996,0.1970974997879006,0.1395419258996559,-0.4818837016354315,0.4983682130210763,-0.4801477699772388,0.5374712469836851,0.0,0.0,0.0,124,2.2552649170393124e-06,0,1735643777088322877,map,0.969874053948324,-0.0347320894161126,0.2377082754555671,-0.487363359083912,0.4961464810537005,-0.5135647677493697,0.5025602997521901,0.0,0.0,0.0,125,0.0990794748067855,0,1735643777088343858,map,0.9709129388139864,-0.0298934077850749,0.1399599535905742,0.4914208805758855,-0.495653510235831,0.5163664640032358,-0.4961842306822286,0.0,0.0,0.0,126,0.0003806022868957,0,1735644242188269615,map,0.9689411118821109,0.3323355736483981,0.0241894253398083,-0.4980072562212023,0.4909458671443087,-0.4767907156882586,0.5325706917569075,0.0,0.0,0.0,0,3.074001679594064e-16,0.9234575477042708,0.0522775090962059,0.3413980874591305,1.0,1.4974987348489306e-05,-0.0001561280599902,-0.0001914844900208,0.0,0.0,0.0,-0.0001561280599902,0.005752651560534,0.0011230537840864,0.0,0.0,0.0,-0.0001914844900208,0.0011230537840864,0.0026334154521868,0.0,0.0,0.0,0.0,0.0,0.0,0.0,0.0,0.0,0.0,0.0,0.0,0.0,0.0,0.0,0.0,0.0,0.0,0.0,0.0,0.0,0,0,0,1,24,,125
2.400520192,0,1735643777088230371,map,0.9856154528751684,-0.2281621846184326,0.0149723394541357,0.4811879412178079,-0.5135307579356051,0.5151957604484847,-0.4892010366879432,0.0,0.0,0.0,1,1.0009081063966363e-10,0,1735643777088253974,map,0.9610599164747172,-0.255707227720189,0.1463131071181521,-0.4998501383401761,0.4997736474393729,-0.4988061698593682,0.501566092790052,0.0,0.0,0.0,16,4.485412318899762e-06,0,1735643777088270664,map,0.9803111643986788,0.0538343599830192,0.023211478092508,-0.4960563982166051,0.4879335314270728,-0.4840601443329016,0.5305984313639508,0.0,0.0,0.0,17,2.408264143660688e-10,0,1735643777088284730,map,0.9788078629389182,-0.2680070739217434,0.2303948413316468,-0.4892558238930419,0.5093033902700087,-0.489429664311564,0.5115636804329309,0.0,0.0,0.0,121,6.670255243079737e-05,0,1735643777088297367,map,0.9735285404995913,0.1994208162357302,0.2359582367622447,-0.5007786795715223,0.4900345287945089,-0.4959289951597699,0.512973007511669,0.0,0.0,0.0,122,0.0024415494408458,0,1735643777088310956,map,0.9659154684534969,0.1955038795757508,0.1406192342041916,-0.4742428639746378,0.4990248272261623,-0.4853565352299105,0.5389777003649114,0.0,0.0,0.0,124,1.5978247347447905e-06,0,1735643777088322877,map,0.96778692725406,-0.0349573675995577,0.2371963503055725,-0.4890271789469357,0.494259108771407,-0.512196684282614,0.5041972910058048,0.0,0.0,0.0,125,0.0938988253474235,0,1735643777088343858,map,0.9643337492530092,-0.0294588862687315,0.1414740997745124,-0.4835662699596906,0.4830078462966792,-0.5194837773804577,0.5128388518936977,0.0,0.0,0.0,126,0.0003459969884715,0,1735644242188269615,map,0.9689411118821109,0.3323355736483981,0.0241894253398083,-0.4980072562212023,0.4909458671443087,-0.4767907156882586,0.5325706917569075,0.0,0.0,0.0,0,6.80976174586484e-17,0.923526637665243,0.0503734382907951,0.3407652683691928,1.0,1.4490549999520855e-05,-0.0001530401898538,-0.0001848744251294,0.0,0.0,0.0,-0.0001530401898538,0.005609557153281,0.0011070500092251,0.0,0.0,0.0,-0.0001848744251294,0.0011070500092251,0.0025376898741135,0.0,0.0,0.0,0.0,0.0,0.0,0.0,0.0,0.0,0.0,0.0,0.0,0.0,0.0,0.0,0.0,0.0,0.0,0.0,0.0,0.0,0,0,0,1,25,,125
2.500854798,0,1735643777088230371,map,0.9856154528751684,-0.2281621846184326,0.0149723394541357,0.4811879412178079,-0.5135307579356051,0.5151957604484847,-0.4892010366879432,0.0,0.0,0.0,1,9.204865342171685e-11,0,1735643777088253974,map,0.9609884205170924,-0.2560717304620354,0.1462158300351689,-0.497498747714758,0.501977416870756,-0.49459945155624,0.5058508194065497,0.0,0.0,0.0,16,5.281646735966206e-06,0,1735643777088270664,map,0.9803111643986788,0.0538343599830192,0.023211478092508,-0.4960563982166051,0.4879335314270728,-0.4840601443329016,0.5305984313639508,0.0,0.0,0.0,17,1.2037280894272584e-10,0,1735643777088284730,map,0.9802136456640228,-0.269764131504244,0.2296944610656058,-0.4893972092647408,0.5105796952142546,-0.4897399477748278,0.5098563816922481,0.0,0.0,0.0,121,7.224833098007366e-05,0,1735643777088297367,map,0.9676487909891164,0.1965973923038145,0.2372647690678802,-0.4928321083820072,0.4909075576766724,-0.5062563475913121,0.5097360035225829,0.0,0.0,0.0,122,0.0023236782290041,0,1735643777088310956,map,0.9681793521505891,0.1969516050055142,0.1391507000310283,-0.4781835148957069,0.4977374257218936,-0.4799790694531876,0.5414961440348234,0.0,0.0,0.0,124,7.349401016654156e-07,0,1735643777088322877,map,0.9682701005514166,-0.0352655747715037,0.236718305408074,-0.4889010443271032,0.4983101975696186,-0.5114633363337544,0.5010668333070356,0.0,0.0,0.0,125,0.0950515866279602,0,1735643777088343858,map,0.9646024990301924,-0.0298106753529417,0.141155263766821,-0.4841263324186104,0.4824914585967938,-0.5187777604059246,0.5135107807517355,0.0,0.0,0.0,126,0.0003006210899911,0,1735644242188269615,map,0.9689411118821109,0.3323355736483981,0.0241894253398083,-0.4980072562212023,0.4909458671443087,-0.4767907156882586,0.5325706917569075,0.0,0.0,0.0,0,1.5059187010997392e-17,0.9236479039996924,0.0475379544847625,0.3395473010883731,1.0,1.4300859250155663e-05,-0.0001557502468942,-0.0001814563310074,0.0,0.0,0.0,-0.0001557502468942,0.0055948041654347,0.0011508093252424,0.0,0.0,0.0,-0.0001814563310074,0.0011508093252424,0.0024771725248455,0.0,0.0,0.0,0.0,0.0,0.0,0.0,0.0,0.0,0.0,0.0,0.0,0.0,0.0,0.0,0.0,0.0,0.0,0.0,0.0,0.0,0,0,0,1,26,,125
