%time,field.boxes0.header.seq,field.boxes0.header.stamp,field.boxes0.header.frame_id,field.boxes0.pose.position.x,field.boxes0.pose.position.y,field.boxes0.pose.position.z,field.boxes0.pose.orientation.x,field.boxes0.pose.orientation.y,field.boxes0.pose.orientation.z,field.boxes0.pose.orientation.w,field.boxes0.scale.x,field.boxes0.scale.y,field.boxes0.scale.z,field.boxes0.id,field.boxes0.pdf,field.boxes1.header.seq,field.boxes1.header.stamp,field.boxes1.header.frame_id,field.boxes1.pose.position.x,field.boxes1.pose.position.y,field.boxes1.pose.position.z,field.boxes1.pose.orientation.x,field.boxes1.pose.orientation.y,field.boxes1.pose.orientation.z,field.boxes1.pose.orientation.w,field.boxes1.scale.x,field.boxes1.scale.y,field.boxes1.scale.z,field.boxes1.id,field.boxes1.pdf,field.boxes2.header.seq,field.boxes2.header.stamp,field.boxes2.header.frame_id,field.boxes2.pose.position.x,field.boxes2.pose.position.y,field.boxes2.pose.position.z,field.boxes2.pose.orientation.x,field.boxes2.pose.orientation.y,field.boxes2.pose.orientation.z,field.boxes2.pose.orientation.w,field.boxes2.scale.x,field.boxes2.scale.y,field.boxes2.scale.z,field.boxes2.id,field.boxes2.pdf,field.boxes3.header.seq,field.boxes3.header.stamp,field.boxes3.header.frame_id,field.boxes3.pose.position.x,field.boxes3.pose.position.y,field.boxes3.pose.position.z,field.boxes3.pose.orientation.x,field.boxes3.pose.orientation.y,field.boxes3.pose.orientation.z,field.boxes3.pose.orientation.w,field.boxes3.scale.x,field.boxes3.scale.y,field.boxes3.scale.z,field.boxes3.id,field.boxes3.pdf,field.boxes4.header.seq,field.boxes4.header.stamp,field.boxes4.header.frame_id,field.boxes4.pose.position.x,field.boxes4.pose.position.y,field.boxes4.pose.position.z,field.boxes4.pose.orientation.x,field.boxes4.pose.orientation.y,field.boxes4.pose.orientation.z,field.boxes4.pose.orientation.w,field.boxes4.scale.x,field.boxes4.scale.y,field.boxes4.scale.z,field.boxes4.id,field.boxes4.pdf,field.boxes5.header.seq,field.boxes5.header.stamp,field.boxes5.header.frame_id,field.boxes5.pose.position.x,field.boxes5.pose.position.y,field.boxes5.pose.position.z,field.boxes5.pose.orientation.x,field.boxes5.pose.orientation.y,field.boxes5.pose.orientation.z,field.boxes5.pose.orientation.w,field.boxes5.scale.x,field.boxes5.scale.y,field.boxes5.scale.z,field.boxes5.id,field.boxes5.pdf,field.boxes6.header.seq,field.boxes6.header.stamp,field.boxes6.header.frame_id,field.boxes6.pose.position.x,field.boxes6.pose.position.y,field.boxes6.pose.position.z,field.boxes6.pose.orientation.x,field.boxes6.pose.orientation.y,field.boxes6.pose.orientation.z,field.boxes6.pose.orientation.w,field.boxes6.scale.x,field.boxes6.scale.y,field.boxes6.scale.z,field.boxes6.id,field.boxes6.pdf,field.boxes7.header.seq,field.boxes7.header.stamp,field.boxes7.header.frame_id,field.boxes7.pose.position.x,field.boxes7.pose.position.y,field.boxes7.pose.position.z,field.boxes7.pose.orientation.x,field.boxes7.pose.orientation.y,field.boxes7.pose.orientation.z,field.boxes7.pose.orientation.w,field.boxes7.scale.x,field.boxes7.scale.y,field.boxes7.scale.z,field.boxes7.id,field.boxes7.pdf,field.boxes8.header.seq,field.boxes8.header.stamp,field.boxes8.header.frame_id,field.boxes8.pose.position.x,field.boxes8.pose.position.y,field.boxes8.pose.position.z,field.boxes8.pose.orientation.x,field.boxes8.pose.orientation.y,field.boxes8.pose.orientation.z,field.boxes8.pose.orientation.w,field.boxes8.scale.x,field.boxes8.scale.y,field.boxes8.scale.z,field.boxes8.id,field.boxes8.pdf,field.pose.pose.position.x,field.pose.pose.position.y,field.pose.pose.position.z,field.pose.pose.orientation.w,field.pose.covariance0,field.pose.covariance1,field.pose.covariance2,field.pose.covariance3,field.pose.covariance4,field.pose.covariance5,field.pose.covariance6,field.pose.covariance7,field.pose.covariance8,field.pose.covariance9,field.pose.covariance10,field.pose.covariance11,field.pose.covariance12,field.pose.covariance13,field.pose.covariance14,field.pose.covariance15,field.pose.covariance16,field.pose.covariance17,field.pose.covariance18,field.pose.covariance19,field.pose.covariance20,field.pose.covariance21,field.pose.covariance22,field.pose.covariance23,field.pose.covariance24,field.pose.covariance25,field.pose.covariance26,field.pose.covariance27,field.pose.covariance28,field.pose.covariance29,field.pose.covariance30,field.pose.covariance31,field.pose.covariance32,field.pose.covariance33,field.pose.covariance34,field.pose.covariance35,field.buttons0,field.buttons1,field.buttons2,field.buttons3,intersection_length,vacuum,desired_box
0.0,0,1735643777088230371,map,0.9854091476669778,-0.2188705526444213,0.0211627374630325,-0.4788949979495396,0.4961930914114829,-0.5233567723325486,0.5005493840052978,0.0,0.0,0.0,1,0.1111111119389534,0,1735643777088253974,map,0.9839121016016236,-0.2469718031252624,0.1485455496887254,-0.5067234588135966,0.4965776099168449,-0.4895223556749067,0.5069614156045303,0.0,0.0,0.0,16,0.1111111119389534,0,1735643777088270664,map,0.9900571361676722,0.0585545988946771,0.0255069868695342,-0.4683819706739355,0.5088289530036781,-0.5195073660321782,0.501820209608072,0.0,0.0,0.0,17,0.1111111119389534,0,1735643777088284730,map,1.0192171637415726,-0.2536957461603105,0.2365245206679329,0.3773174903252253,-0.5925344688404844,0.5935166860280506,-0.392775200511538,0.0,0.0,0.0,121,0.1111111119389534,0,1735643777088297367,map,1.019478243532155,0.2133958667386119,0.2414098262598909,0.5087561059696087,-0.4914910432011593,0.5022088201220865,-0.4973832326116939,0.0,0.0,0.0,122,0.1111111119389534,0,1735643777088310956,map,1.008767256361857,0.2082433709464949,0.1440543515559218,-0.4672731450419438,0.4926909895933904,-0.498133424038528,0.5392350958086354,0.0,0.0,0.0,124,0.1111111119389534,0,1735643777088322877,map,1.0187445798455748,-0.0209460156030663,0.2418171165767781,-0.5006349111747522,0.5285159185707322,-0.4882577224978541,0.4812899395910865,0.0,0.0,0.0,125,0.1111111119389534,0,1735643777088343858,map,1.0010213311261036,-0.0187266033651558,0.1459859371176487,0.6667780522432621,-0.4606085451666455,0.3405076072102787,-0.4767613308544207,0.0,0.0,0.0,126,0.1111111119389534,0,1735644242188269615,map,0.9745726367403378,0.3307623363927994,0.0266572384458967,-0.4937779015495879,0.5058456420102118,-0.4951237793741559,0.5051296996800071,0.0,0.0,0.0,0,0.1111111119389534,0.921524183601833,1.3630089435591366,0.0928699253856172,1.0,0.0,0.0,0.0,0.0,0.0,0.0,0.0,0.0,0.0,0.0,0.0,0.0,0.0,0.0,0.0,0.0,0.0,0.0,0.0,0.0,0.0,0.0,0.0,0.0,0.0,0.0,0.0,0.0,0.0,0.0,0.0,0.0,0.0,0.0,0.0,0.0,0,0,0,1,1,,124
0.099661204,0,1735643777088230371,map,0.9836972458252904,-0.2186458170583637,0.0224462530236217,-0.4890667634758299,0.4808485745122993,-0.4943946674146515,0.5340152264540045,0.0,0.0,0.0,1,0.0,0,1735643777088253974,map,0.9848349448369682,-0.2472684484395556,0.1488845217709429,-0.5163815329140994,0.4766042322395095,-0.4749880974950092,0.5297025821295794,0.0,0.0,0.0,16,0.0,0,1735643777088270664,map,0.9875843901330504,0.0569562772768187,0.0269236629740435,0.4627845398223063,-0.5150082989817604,0.525208919147853,-0.494724683969694,0.0,0.0,0.0,17,0.0,0,1735643777088284730,map,1.0162958930553023,-0.2543907482632538,0.2372160766494827,0.3330717843224804,-0.5764641062456599,0.6357893392464073,-0.3905435146040042,0.0,0.0,0.0,121,0.0,0,1735643777088297367,map,1.0158535036873977,0.2104324081758245,0.2419354817443095,-0.4987523427586597,0.4889408758050057,-0.4993701827779203,0.5126522613937526,0.0,0.0,0.0,122,0.0,0,1735643777088310956,map,1.011546670749803,0.2080461364553362,0.1444471110738822,-0.4687575524196413,0.494654331341108,-0.495458337426178,0.5386134842444212,0.0,0.0,0.0,124,0.0,0,1735643777088322877,map,1.014433227506861,-0.0234495129826318,0.2429975678187771,-0.4995006485218994,0.5122350574836395,-0.4990284232777962,0.4889631691362971,0.0,0.0,0.0,125,0.0,0,1735643777088343858,map,1.014438934747694,-0.0182955340286288,0.1449086222242001,0.5071407901089324,-0.5051917240335759,0.4942583273472046,-0.4932527210503905,0.0,0.0,0.0,126,0.0,0,1735644242188269615,map,0.9740851274264504,0.330065982282923,0.0275911115856208,-0.4967196968873304,0.4989909710460123,-0.4889232264366897,0.5150064389786335,0.0,0.0,0.0,0,0.0,0.921902340286088,0.938210562151601,0.177141164183753,1.0,1.4300247784669708e-07,-0.0001606403473899,3.1867732241960024e-05,0.0,0.0,0.0,-0.0001606403473899,0.180453664846462,-0.0357982858406559,0.0,0.0,0.0,3.1867732241960024e-05,-0.0357982858406559,0.0071016416885724,0.0,0.0,0.0,0.0,0.0,0.0,0.0,0.0,0.0,0.0,0.0,0.0,0.0,0.0,0.0,0.0,0.0,0.0,0.0,0.0,0.0,0,0,0,1,2,,124
0.199199978,0,1735643777088230371,map,0.9946189432933388,-0.220666364419235,0.0193371251938987,-0.4868100387544857,0.5245521277931999,-0.5031764603615332,0.4844321429607258,0.0,0.0,0.0,1,0.0,0,1735643777088253974,map,0.9899891099518364,-0.2482085268665909,0.1482425670476733,-0.5057266279405078,0.5065543356829513,-0.4923261858301864,0.4952355091657179,0.0,0.0,0.0,16,0.0,0,1735643777088270664,map,0.9880430870621082,0.0567942027399118,0.0266649691406723,-0.4845289700571872,0.4901008362291035,-0.5029737046542033,0.5215844130428754,0.0,0.0,0.0,17,0.0,0,1735643777088284730,map,1.0146070339568474,-0.2542270316604291,0.2370912171594636,-0.5275839709302401,0.5296099015908655,-0.4495573507766218,0.4889444693593522,0.0,0.0,0.0,121,1.108281060843625e-21,0,1735643777088297367,map,1.0250457436270133,0.2139587158545778,0.2418169755133672,-0.5231089297505529,0.4906030205199696,-0.4803916047278493,0.5048659524853255,0.0,0.0,0.0,122,0.0002313436270924,0,1735643777088310956,map,1.0114620225260589,0.2075945828989728,0.1442358190239971,-0.4651611571895185,0.4950987782112178,-0.4991053387727097,0.5379555357689388,0.0,0.0,0.0,124,8.026189845347123e-25,0,1735643777088322877,map,1.0166522906470448,-0.0226987165445142,0.2425112489038621,-0.5014860694480466,0.5232919026222002,-0.4960556967148773,0.478127652992696,0.0,0.0,0.0,125,1.1002820876626628e-10,0,1735643777088343858,map,1.0022482402003627,-0.0199034166865489,0.1460734816276835,-0.460629682484228,0.4748341895601957,-0.544208169343534,0.5159362910853923,0.0,0.0,0.0,126,1.4076463463682085e-37,0,1735644242188269615,map,0.9822808090137736,0.3339195760101331,0.0253506014262506,0.8438280790964607,-0.2236928007439503,0.1156970552584449,-0.4738458559787442,0.0,0.0,0.0,0,0.0,0.922973171639822,0.7422801771744262,0.2025685201900749,1.0,2.388694561511028e-06,-0.0005267103636921,7.57019749362292e-05,0.0,0.0,0.0,-0.0005267103636921,0.1970798747455825,-0.0338295071963113,0.0,0.0,0.0,7.57019749362292e-05,-0.0338295071963113,0.006027528659326,0.0,0.0,0.0,0.0,0.0,0.0,0.0,0.0,0.0,0.0,0.0,0.0,0.0,0.0,0.0,0.0,0.0,0.0,0.0,0.0,0.0,0,0,0,1,3,,124
0.299949991,0,1735643777088230371,map,0.9972816926133706,-0.2195982853120993,0.0187742423782696,0.4803504384975832,-0.5084528076432403,0.5205724116816959,-0.4896361535168625,0.0,0.0,0.0,1,0.0,0,1735643777088253974,map,0.9895624314192294,-0.2461524749437141,0.1487042980519768,-0.3940108879803562,0.695024870018163,-0.5211116191046837,0.3002307956277337,0.0,0.0,0.0,16,0.0,0,1735643777088270664,map,0.9877255198179836,0.0578620714273775,0.0272209063627482,-0.4895501784927066,0.5065114541661128,-0.5041539776548241,0.4996153884250444,0.0,0.0,0.0,17,0.0,0,1735643777088284730,map,1.018386688777695,-0.2536633965571263,0.2370253049050775,-0.4742946560585018,0.4530864199124743,-0.5145584170809849,0.5522562002697262,0.0,0.0,0.0,121,1.1803341265571233e-21,0,1735643777088297367,map,1.020468344973852,0.2133004092119164,0.2422019394134455,-0.5068802752297267,0.4955723786520098,-0.4940939612170482,0.5033404032948997,0.0,0.0,0.0,122,0.0005798914935439,0,1735643777088310956,map,1.0081764396404522,0.2074411617493885,0.1446960750246533,-0.4620499956967439,0.4959410032473408,-0.5072959125005778,0.5321683755493805,0.0,0.0,0.0,124,2.863396959971848e-25,0,1735643777088322877,map,1.010615229499277,-0.0230129612928123,0.2423578471207719,-0.5750169476361033,0.4229724185167011,-0.4103590902272485,0.567499127905283,0.0,0.0,0.0,125,2.6387483864631633e-10,0,1735643777088343858,map,1.021957026279966,-0.0166467627871911,0.1440710567254644,0.5065157363905464,-0.5030055260129999,0.4949801940263176,-0.4954007035832682,0.0,0.0,0.0,126,6.883668511226015e-40,0,1735644242188269615,map,0.9856923828989128,0.338099814395181,0.0243806679684682,-0.5144125385112835,0.500212519251516,-0.4779316092403763,0.5067036142513033,0.0,0.0,0.0,0,0.0,0.9233850954594346,0.6757813150027738,0.2104715999710164,1.0,2.300564620625902e-06,-0.000477210168686,6.65428816323768e-05,0.0,0.0,0.0,-0.000477210168686,0.1610762020695601,-0.0269487678364866,0.0,0.0,0.0,6.65428816323768e-05,-0.0269487678364866,0.0047080225045663,0.0,0.0,0.0,0.0,0.0,0.0,0.0,0.0,0.0,0.0,0.0,0.0,0.0,0.0,0.0,0.0,0.0,0.0,0.0,0.0,0.0,0,0,0,1,4,,124
0.399281641,0,1735643777088230371,map,1.0049594829603017,-0.2214965386094353,0.015893897753698,-0.4877675459654133,0.5471731775259819,-0.5029013408048963,0.4580115460505729,0.0,0.0,0.0,1,3.183212474713062e-18,0,1735643777088253974,map,0.9766907735742448,-0.2440691937985308,0.1498208450217755,-0.5243341243696074,0.4685833611880177,-0.4635127063471943,0.5391283063371806,0.0,0.0,0.0,16,1.349282143792152e-07,0,1735643777088270664,map,0.9942990557501312,0.0595677206343673,0.0248875268974596,-0.4981378542707065,0.4950269450077317,-0.487274461985889,0.5190092490074247,0.0,0.0,0.0,17,1.180016804755435e-12,0,1735643777088284730,map,1.0224765382630483,-0.2557046148047578,0.2370011311666141,-0.5016179459969995,0.4800731964882568,-0.4859967116245137,0.5307695908371712,0.0,0.0,0.0,121,0.0008248568628914,0,1735643777088297367,map,1.0250983714076922,0.2146800658850694,0.2420028428848312,-0.5023849938479167,0.4833763901927819,-0.4970615776483167,0.5166104638762078,0.0,0.0,0.0,122,0.3659689426422119,0,1735643777088310956,map,1.017758833777069,0.2113131535509642,0.1434747945007325,-0.4905844619798916,0.5047617345301505,-0.4739830791384076,0.5290392402350591,0.0,0.0,0.0,124,0.0013168130535632,0,1735643777088322877,map,1.002088345384555,-0.0235452296161887,0.2422317728546337,-0.4874820286137288,0.5599002098453797,-0.5014376897476294,0.4443346375135564,0.0,0.0,0.0,125,0.0430191904306411,0,1735643777088343858,map,1.0079139714726932,-0.0182218611687432,0.1453533299001556,0.4761570959160804,-0.5174016134042151,0.5340420829769477,-0.4694348134353938,0.0,0.0,0.0,126,1.706423790892586e-05,0,1735644242188269615,map,0.9858305983930954,0.3381670835908514,0.0242096789883826,-0.5083677772278459,0.5006615368752544,-0.4832088146794785,0.5073553685398243,0.0,0.0,0.0,0,6.157244936133566e-09,0.9246358394789314,0.6467829600126243,0.197857180141076,1.0,8.09789410572779e-06,-0.0005268462112654,-9.875335340972895e-06,0.0,0.0,0.0,-0.0005268462112654,0.132224580024187,-0.0200958245722957,0.0,0.0,0.0,-9.875335340972895e-06,-0.0200958245722957,0.004402912354237,0.0,0.0,0.0,0.0,0.0,0.0,0.0,0.0,0.0,0.0,0.0,0.0,0.0,0.0,0.0,0.0,0.0,0.0,0.0,0.0,0.0,0,0,0,1,5,,124
0.499412412,0,1735643777088230371,map,0.9948296200302692,-0.219323291455191,0.0187019713251188,-0.4729430941587243,0.7478253321032526,-0.3927399082444667,0.2506740250292394,0.0,0.0,0.0,1,2.212100071119494e-06,0,1735643777088253974,map,0.9786356525804636,-0.2440579910310515,0.1492873766765316,-0.5135869135386454,0.4611915451715749,-0.4698439947608008,0.5502521799060096,0.0,0.0,0.0,16,0.0030170802492648,0,1735643777088270664,map,0.9917901101810592,0.0590191168506879,0.0248745907531911,-0.4670399806798037,0.5080967166774425,-0.521739404311333,0.5014971355222944,0.0,0.0,0.0,17,0.0001819335157051,0,1735643777088284730,map,1.013463712010533,-0.2536295916971048,0.2363656057897756,-0.5094494209290645,0.4559517642510041,-0.4787468657466383,0.5507909900581234,0.0,0.0,0.0,121,0.0267956666648387,0,1735643777088297367,map,1.0266937534716944,0.2155168077138229,0.2410577170396386,-0.5124121385544222,0.4845839104534262,-0.4944624473070621,0.5080542512319526,0.0,0.0,0.0,122,0.5043935775756836,0,1735643777088310956,map,1.015186711167789,0.2102217757550217,0.1429448188528804,-0.4839362149598671,0.5063988318578568,-0.4876631240004112,0.5211052105222844,0.0,0.0,0.0,124,0.1505903601646423,0,1735643777088322877,map,1.0120370950926272,-0.0227162237385479,0.2412359396318441,0.4481166326236384,-0.5431530142777726,0.5465757955465003,-0.4532451724726157,0.0,0.0,0.0,125,0.1663424521684646,0,1735643777088343858,map,1.0178927039757129,-0.0177527661356845,0.1434896638577303,0.639538716505313,-0.5081294617359012,0.3635033527460893,-0.4479508820719881,0.0,0.0,0.0,126,0.0247275680303573,0,1735644242188269615,map,0.9716329400387732,0.3296770158553342,0.0275933331854884,-0.4874009286895464,0.4971290308427944,-0.4932438076406676,0.5215492379727993,0.0,0.0,0.0,0,0.0040974700823426,0.9262580327066426,0.6115233857486517,0.1809987709088607,1.0,1.9905799428269168e-05,-0.0007250277223029,-0.0001449674325499,0.0,0.0,0.0,-0.0007250277223029,0.1164033379065388,-0.0137744188154344,0.0,0.0,0.0,-0.0001449674325499,-0.0137744188154344,0.005090123437735,0.0,0.0,0.0,0.0,0.0,0.0,0.0,0.0,0.0,0.0,0.0,0.0,0.0,0.0,0.0,0.0,0.0,0.0,0.0,0.0,0.0,0,0,0,1,6,,124
0.598190272,0,1735643777088230371,map,0.9868479766852072,-0.21803283931171,0.0208604745166115,-0.4419150137420481,0.7618485793247597,-0.41064040069816,0.2359498339153163,0.0,0.0,0.0,1,0.000398392410716,0,1735643777088253974,map,0.9924981273541116,-0.2483795042657749,0.1465534004713209,-0.529442155189215,0.4897144852726861,-0.4627373061795959,0.515504522475175,0.0,0.0,0.0,16,0.020399734377861,0,1735643777088270664,map,0.9948251406259848,0.0585861671755361,0.0235070616324178,-0.4970632635258072,0.485525530440401,-0.4935352346155507,0.5230832089989262,0.0,0.0,0.0,17,0.0056841424666345,0,1735643777088284730,map,1.0233088867568658,-0.2569686994104756,0.2356078549810298,0.3093521738350153,-0.615342693221096,0.6467512763357269,-0.327669633931902,0.0,0.0,0.0,121,0.0474564395844936,0,1735643777088297367,map,1.0183074135540708,0.210702880936464,0.2402699699715141,-0.5067484958963713,0.4964199584979762,-0.4931194086067056,0.5035935221654521,0.0,0.0,0.0,122,0.4853771328926086,0,1735643777088310956,map,1.010887102088899,0.2071536887725829,0.1426990168742136,-0.4720047452455853,0.4991890547073612,-0.4993991184188259,0.5278468799268597,0.0,0.0,0.0,124,0.3723752796649933,0,1735643777088322877,map,1.002311151642877,-0.0245461196370698,0.2407132135256421,0.4251149215153565,-0.5304242518716176,0.5661175843519599,-0.4663027956370499,0.0,0.0,0.0,125,0.1988169997930526,0,1735643777088343858,map,1.0185002123787033,-0.0188311993141218,0.1426319565298859,-0.5056033164301894,0.5193673096747722,-0.4970365507307901,0.4770508896266959,0.0,0.0,0.0,126,0.1079617515206337,0,1735644242188269615,map,0.9804018586208706,0.3338272112940534,0.0242496502827078,-0.4960948995222871,0.4990670458878467,-0.4878490258382497,0.5165513162943453,0.0,0.0,0.0,0,0.0354410968720912,0.9276512131929756,0.5668499894655209,0.1695674368416224,1.0,2.8707825000652373e-05,-0.0009948809571617,-0.0002198132686598,0.0,0.0,0.0,-0.0009948809571617,0.111748563646994,-0.0087425855979602,0.0,0.0,0.0,-0.0002198132686598,-0.0087425855979602,0.0051470153379708,0.0,0.0,0.0,0.0,0.0,0.0,0.0,0.0,0.0,0.0,0.0,0.0,0.0,0.0,0.0,0.0,0.0,0.0,0.0,0.0,0.0,0,0,0,1,7,,124
0.699903109,0,1735643777088230371,map,0.9963938629626968,-0.2212034227747107,0.0176752455499122,-0.5045015949238327,0.5089033348920823,-0.4902649014939253,0.4961208147398956,0.0,0.0,0.0,1,0.0011000324739143,0,1735643777088253974,map,0.9818653075234924,-0.2458130496585709,0.1480221368367071,-0.5212696649205245,0.4736951721989315,-0.4670103550299701,0.5345953128899003,0.0,0.0,0.0,16,0.0459755659103393,0,1735643777088270664,map,1.0004749383124274,0.0585391453544252,0.0215493740424004,-0.500130010621565,0.5050411489014147,-0.4820568011821765,0.5122739997560096,0.0,0.0,0.0,17,0.0111368624493479,0,1735643777088284730,map,1.017036807208171,-0.2562354828440158,0.2357181975286729,0.296953777050328,-0.6315846289108187,0.6433913182988172,-0.3145900862341941,0.0,0.0,0.0,121,0.0650804042816162,0,1735643777088297367,map,1.0098883774638652,0.2062155832339683,0.2400477432478436,-0.4954292247502025,0.5121936946889604,-0.506092159331786,0.4858788209493961,0.0,0.0,0.0,122,0.4726366400718689,0,1735643777088310956,map,1.0124599539812469,0.2068013759791024,0.142487022052933,-0.4795188127452908,0.5045806955185633,-0.4884028524988955,0.5262344378737408,0.0,0.0,0.0,124,0.5027600526809692,0,1735643777088322877,map,1.0151827808820713,-0.025150603879454,0.2410845919525524,-0.5501586256988765,0.4707450730237976,-0.4358699331151731,0.5345483740496437,0.0,0.0,0.0,125,0.2221093773841858,0,1735643777088343858,map,1.009296598037407,-0.0203584152986289,0.1438134515708545,0.490234673996928,-0.5071601677892617,0.5169624278515782,-0.4849828623868016,0.0,0.0,0.0,126,0.1857607215642929,0,1735644242188269615,map,0.9882268235621178,0.3374805311129157,0.0217888523857955,-0.5122564609372819,0.4918853492750453,-0.4766246887756071,0.5181418989486696,0.0,0.0,0.0,0,0.0470758788287639,0.9285716111936604,0.5204664855834835,0.1655872734325416,1.0,3.104927423322534e-05,-0.001169359827181,-0.0002179799511862,0.0,0.0,0.0,-0.001169359827181,0.1128399992177446,-0.0063574649236615,0.0,0.0,0.0,-0.0002179799511862,-0.0063574649236615,0.0046145303260654,0.0,0.0,0.0,0.0,0.0,0.0,0.0,0.0,0.0,0.0,0.0,0.0,0.0,0.0,0.0,0.0,0.0,0.0,0.0,0.0,0.0,0,0,0,1,8,,124
0.800722904,0,1735643777088230371,map,0.9920351373208888,-0.2227711211994285,0.0188589242134504,-0.439362492225499,0.7743749880953554,-0.3915594219316097,0.2323471483240108,0.0,0.0,0.0,1,0.0017379453638568,0,1735643777088253974,map,0.988278621444855,-0.2506932601844631,0.1476439620432751,-0.5140205197608099,0.4870185382796193,-0.4782519992636104,0.5194909757033025,0.0,0.0,0.0,16,0.0628551319241523,0,1735643777088270664,map,0.9901198063170242,0.0552508323900735,0.0246131824559459,-0.484755836734815,0.5044791776016966,-0.5006786963547403,0.5097385419353367,0.0,0.0,0.0,17,0.0157671999186277,0,1735643777088284730,map,1.0183642082506843,-0.2602905551503389,0.2362479133164415,0.2900251346710924,-0.618302688890251,0.6601364275452606,-0.3127412719771427,0.0,0.0,0.0,121,0.0720858052372932,0,1735643777088297367,map,1.0175880434998414,0.2084848251309945,0.2410799613208692,-0.5070867258999207,0.4951938792855798,-0.4924558736638934,0.5051072033025554,0.0,0.0,0.0,122,0.4543634951114654,0,1735643777088310956,map,1.006045222450178,0.203474174169731,0.1443008886520791,-0.4634851932862313,0.5009671260153191,-0.5050909172082862,0.5282959204934948,0.0,0.0,0.0,124,0.5917405486106873,0,1735643777088322877,map,1.0177212743245438,-0.0258293483451478,0.2421766972555921,-0.4844333615649238,0.515248979639422,-0.5143575835395374,0.4850557529179613,0.0,0.0,0.0,125,0.2264630645513534,0,1735643777088343858,map,1.0150061794724776,-0.0212656569931955,0.1442333515374044,-0.5564408605911022,0.4788928479128655,-0.4416939469211823,0.5156953229725153,0.0,0.0,0.0,126,0.2391260862350464,0,1735644242188269615,map,0.9810638823904057,0.3328587694505073,0.0240235474452201,-0.4950057101365954,0.490512515304405,-0.4781237031567072,0.53456949383745,0.0,0.0,0.0,0,0.0528105311095714,0.9292378309963136,0.4830502670844631,0.1635197414811535,1.0,3.115014547755563e-05,-0.0012388503631298,-0.000204779402439,0.0,0.0,0.0,-0.0012388503631298,0.1115020087810155,-0.0050322061141688,0.0,0.0,0.0,-0.000204779402439,-0.0050322061141688,0.0041360022412404,0.0,0.0,0.0,0.0,0.0,0.0,0.0,0.0,0.0,0.0,0.0,0.0,0.0,0.0,0.0,0.0,0.0,0.0,0.0,0.0,0.0,0,0,0,1,9,,124
0.899330313,0,1735643777088230371,map,0.9840578406211762,-0.2211862302669687,0.0206600068305893,-0.4935413159949235,0.4946530052723408,-0.4994222470686388,0.5121648103042149,0.0,0.0,0.0,1,0.0025882699992507,0,1735643777088253974,map,0.9828931452353163,-0.2493083082011877,0.148006737427137,-0.5171133576984233,0.4852550057850797,-0.472841320133911,0.5230128493874749,0.0,0.0,0.0,16,0.0722545310854911,0,1735643777088270664,map,0.9841810554160444,0.0543980663627503,0.0262197599636447,0.7202685835674518,-0.5400278165340952,0.2473573503837233,-0.3583259216220597,0.0,0.0,0.0,17,0.0208096969872713,0,1735643777088284730,map,1.0118559876261837,-0.2589721909531228,0.2356952753798994,0.283450441031664,-0.6173448840299199,0.6670697393434525,-0.3058743279409021,0.0,0.0,0.0,121,0.0643399581313133,0,1735643777088297367,map,1.01258387032061,0.2066232285915917,0.2402845921508383,-0.4935055554812752,0.4790179623990186,-0.5061749918415608,0.520366155742672,0.0,0.0,0.0,122,0.4106796383857727,0,1735643777088310956,map,1.0098837999011692,0.2049233367776718,0.1424066452774287,-0.4866722122760498,0.4996182739132836,-0.4806252737049334,0.531536531619704,0.0,0.0,0.0,124,0.6370227932929993,0,1735643777088322877,map,1.0067847557234288,-0.0280303152475526,0.2411063616464475,0.4817917269118429,-0.5156757696693447,0.5171008831068948,-0.4843159187403432,0.0,0.0,0.0,125,0.2010638564825058,0,1735643777088343858,map,1.0061021182979013,-0.0234877073151849,0.143378464998229,-0.509018913427853,0.4967906407483688,-0.4916645375396647,0.5023592216367299,0.0,0.0,0.0,126,0.266235202550888,0,1735644242188269615,map,0.9860673225808564,0.3366165186057032,0.0215547381162226,-0.5101276803100304,0.4950140385388569,-0.4728989653171304,0.5206701643391393,0.0,0.0,0.0,0,0.0523702874779701,0.9297949105881588,0.460588352498665,0.1599224659685188,1.0,3.08281699746542e-05,-0.0012275829947025,-0.0002023371811641,0.0,0.0,0.0,-0.0012275829947025,0.1048926463646512,-0.0038017702449945,0.0,0.0,0.0,-0.0002023371811641,-0.0038017702449945,0.0038388655371406,0.0,0.0,0.0,0.0,0.0,0.0,0.0,0.0,0.0,0.0,0.0,0.0,0.0,0.0,0.0,0.0,0.0,0.0,0.0,0.0,0.0,0,0,0,1,10,,124
0.998649117,0,1735643777088230371,map,0.9938393822259818,-0.2241711948616194,0.0166579943074615,-0.4926283730798332,0.5126411377302629,-0.495434566074285,0.4990600571896366,0.0,0.0,0.0,1,0.0013188446173444,0,1735643777088253974,map,0.9789612038491414,-0.2477002307259049,0.1483150299386849,-0.5184743340605358,0.4745343575933079,-0.4773407607692653,0.5273967259020572,0.0,0.0,0.0,16,0.0612385384738445,0,1735643777088270664,map,0.9841790616542796,0.0557523830031251,0.0254903737214647,-0.485235983472667,0.503786095811491,-0.501643211293104,0.5090183676193538,0.0,0.0,0.0,17,0.0157022215425968,0,1735643777088284730,map,1.0105465049073623,-0.2592783514733335,0.2358444644803488,-0.4996113083556291,0.4901100001517215,-0.4830886592555324,0.526123631490877,0.0,0.0,0.0,121,0.0499546453356742,0,1735643777088297367,map,1.004022683616392,0.2044936957883851,0.2403159230621012,-0.4811396732845977,0.4759310586982485,-0.5229236344781346,0.5182133871892287,0.0,0.0,0.0,122,0.3651828169822693,0,1735643777088310956,map,1.006814320550392,0.2049711092341741,0.1426191167692185,-0.4830162903741991,0.5025936195036912,-0.4772269706865947,0.5351161886138586,0.0,0.0,0.0,124,0.6318540573120117,0,1735643777088322877,map,0.9972847630532944,-0.0279163971448728,0.2411861540783944,0.5715890745999788,-0.5037221492339949,0.4248175456057858,-0.4889580545552972,0.0,0.0,0.0,125,0.169931560754776,0,1735643777088343858,map,1.0070475724990489,-0.0228650138531664,0.1434877460030687,0.5943442649981618,-0.5419973178428089,0.4042763860339616,-0.4353784627313518,0.0,0.0,0.0,126,0.2476105988025665,0,1735644242188269615,map,0.9711586852369654,0.329023491145527,0.0261021831315927,-0.4808337451435109,0.4988265063167773,-0.4957651402886306,0.5236295940850341,0.0,0.0,0.0,0,0.0529498793184757,0.9299606651169308,0.4547933901903647,0.1586640273208558,1.0,2.830035470595119e-05,-0.0011255899531052,-0.0001860288110177,0.0,0.0,0.0,-0.0011255899531052,0.0956927671221382,-0.0033832287228716,0.0,0.0,0.0,-0.0001860288110177,-0.0033832287228716,0.0035057144393362,0.0,0.0,0.0,0.0,0.0,0.0,0.0,0.0,0.0,0.0,0.0,0.0,0.0,0.0,0.0,0.0,0.0,0.0,0.0,0.0,0.0,0,0,0,1,11,,124
1.099479584,0,1735643777088230371,map,0.979548852450702,-0.2193689327506311,0.0217084880725195,-0.4975033380633058,0.4867280554590822,-0.4858159383942394,0.5287429457184407,0.0,0.0,0.0,1,0.0010115490294992,0,1735643777088253974,map,0.9777618377581402,-0.2469570975403824,0.1487364468277825,-0.5168068856019041,0.4799798963238355,-0.4739352471211682,0.5271767480225379,0.0,0.0,0.0,16,0.0459649749100208,0,1735643777088270664,map,0.9897265970745572,0.0572392652761891,0.0239798800715689,-0.4844959097956848,0.5067500505162902,-0.506186858244082,0.5022379557878667,0.0,0.0,0.0,17,0.009495735168457,0,1735643777088284730,map,1.0081498448617094,-0.2587872029487858,0.2365512150880756,-0.5090002771636118,0.4879252712898455,-0.4758839999539512,0.525720520877705,0.0,0.0,0.0,121,0.0363562740385532,0,1735643777088297367,map,1.0017751642875825,0.204582989141884,0.2411653141493598,-0.4832990046747136,0.4851709946263613,-0.5145202037440367,0.5160427676006071,0.0,0.0,0.0,122,0.3282217979431152,0,1735643777088310956,map,1.0036842788236346,0.2047839991848545,0.1435784863558426,-0.4906375279771858,0.5084486011174519,-0.4828313754516802,0.5173284247376922,0.0,0.0,0.0,124,0.5938497185707092,0,1735643777088322877,map,0.9998682806444495,-0.0273819821248706,0.2420318114278531,0.4350244822953898,-0.5272491424931846,0.5629569714023995,-0.4645874405246741,0.0,0.0,0.0,125,0.1405389755964279,0,1735643777088343858,map,1.014039978415345,-0.0224457422865407,0.1426868191493847,0.4849929225829595,-0.5064058272828463,0.5223169660316961,-0.4853040182543926,0.0,0.0,0.0,126,0.2063443958759308,0,1735644242188269615,map,0.9750312124527312,0.3329649291293608,0.0250201197710208,-0.4979494118250726,0.4933830469203621,-0.4867975039822839,0.5211983714395728,0.0,0.0,0.0,0,0.0369322076439857,0.9297590405535816,0.4636315340750453,0.1598159908856629,1.0,2.638916892379162e-05,-0.0010513926462637,-0.0001730813157577,0.0,0.0,0.0,-0.0010513926462637,0.0885776105225495,-0.0029892995788732,0.0,0.0,0.0,-0.0001730813157577,-0.0029892995788732,0.0032281687899926,0.0,0.0,0.0,0.0,0.0,0.0,0.0,0.0,0.0,0.0,0.0,0.0,0.0,0.0,0.0,0.0,0.0,0.0,0.0,0.0,0.0,0,0,0,1,12,,124
1.200451958,0,1735643777088230371,map,0.9755337332591036,-0.2194537407058417,0.0221500070451464,-0.3816139179121678,0.8134105879396086,-0.3980158555115766,0.1852495933729767,0.0,0.0,0.0,1,0.0005744987283833,0,1735643777088253974,map,0.9818479162373812,-0.2503206512582838,0.1475165956122654,-0.5143621776414175,0.4877149868592321,-0.4772537828383658,0.5194174319093925,0.0,0.0,0.0,16,0.032523788511753,0,1735643777088270664,map,0.9920186115383712,0.0562310003648034,0.0218100533438651,0.6761052578503552,-0.5926951571428086,0.2868736249939291,-0.3306019574796981,0.0,0.0,0.0,17,0.0055712680332362,0,1735643777088284730,map,1.007092645581149,-0.260721003674733,0.2356937271660077,-0.4966802647027739,0.4819255424309919,-0.4860134502219581,0.5337109820967947,0.0,0.0,0.0,121,0.0263938456773757,0,1735643777088297367,map,1.005737644730756,0.2053775304744246,0.2406205509627547,-0.5039446236348928,0.5088298763430129,-0.5074727366739518,0.4791694844028473,0.0,0.0,0.0,122,0.2974671721458435,0,1735643777088310956,map,1.0035567699411088,0.2038694040848529,0.142462658071137,-0.4862124839613405,0.5114129280370184,-0.4791764986049424,0.5219618000021213,0.0,0.0,0.0,124,0.550635814666748,0,1735643777088322877,map,1.001019947844748,-0.0291100833881135,0.2410484970108335,-0.5472194741943959,0.4434068591976847,-0.4374013596851803,0.5591254374685607,0.0,0.0,0.0,125,0.1166060790419578,0,1735643777088343858,map,1.0073916321814205,-0.0243243060126154,0.1424591248705086,-0.5153188141764851,0.5185996511626101,-0.4852767580157403,0.4795908565636889,0.0,0.0,0.0,126,0.1740753203630447,0,1735644242188269615,map,0.9734055917950648,0.3318998099743886,0.0241129254931298,-0.5023851385643807,0.5002744043165116,-0.4854292438439655,0.5115595196616749,0.0,0.0,0.0,0,0.0270702540874481,0.929696917083336,0.4710011659592134,0.1591871422966091,1.0,2.440554475939471e-05,-0.0009760102141437,-0.0001592985733124,0.0,0.0,0.0,-0.0009760102141437,0.0824156858639588,-0.0028149660487679,0.0,0.0,0.0,-0.0001592985733124,-0.0028149660487679,0.0029845935204148,0.0,0.0,0.0,0.0,0.0,0.0,0.0,0.0,0.0,0.0,0.0,0.0,0.0,0.0,0.0,0.0,0.0,0.0,0.0,0.0,0.0,0,0,0,1,13,,124
1.299318596,0,1735643777088230371,map,0.978277504848626,-0.2215423883322115,0.0208118955361771,-0.5031605718247295,0.4952536942349241,-0.4837793430211674,0.5172144280409038,0.0,0.0,0.0,1,0.000308162998408,0,1735643777088253974,map,0.9726871612470293,-0.2473440140582158,0.1485352646086587,-0.5185806129581185,0.4776677999799333,-0.475327197238736,0.5262809860630351,0.0,0.0,0.0,16,0.0263474266976118,0,1735643777088270664,map,0.9852870407532032,0.0551881564904053,0.023896474016973,-0.4908077538577604,0.4924895016189601,-0.4966051822187297,0.5195624433518178,0.0,0.0,0.0,17,0.0045940112322568,0,1735643777088284730,map,1.0091399819407676,-0.2628975785807824,0.2359681848975349,-0.4914174308502669,0.4756300447039764,-0.5032909220957587,0.528188618740898,0.0,0.0,0.0,121,0.0189979206770658,0,1735643777088297367,map,1.0005996498987917,0.2030836913031168,0.240557846095914,-0.5104618851727958,0.5169280534350245,-0.497808844603962,0.4737091993953468,0.0,0.0,0.0,122,0.2606574594974518,0,1735643777088310956,map,0.9970847917171785,0.2009979349792601,0.1433457209171919,-0.4743306561096164,0.5056667198315503,-0.4924100406667289,0.5261596230993136,0.0,0.0,0.0,124,0.5309765338897705,0,1735643777088322877,map,0.9954633445287824,-0.0296148382755618,0.2409273834738007,0.3972990206687918,-0.5076011318463737,0.6005165179530536,-0.4731537707653181,0.0,0.0,0.0,125,0.0954195410013198,0,1735643777088343858,map,1.0086229829037936,-0.0254491092476672,0.1424017138209749,-0.4976725979956185,0.5155556016967279,-0.5076911828955141,0.4783033238161431,0.0,0.0,0.0,126,0.1513449251651764,0,1735644242188269615,map,0.974012715476178,0.3320810788079534,0.0240579248904179,-0.5071335226155258,0.4907492813918208,-0.4814771069408617,0.5197696879819342,0.0,0.0,0.0,0,0.0219462141394615,0.92974896276022,0.4726639361834929,0.1580546940448803,1.0,2.2697505344564744e-05,-0.000905170178824,-0.0001486863112555,0.0,0.0,0.0,-0.000905170178824,0.0765647936220341,-0.0026383760613201,0.0,0.0,0.0,-0.0001486863112555,-0.0026383760613201,0.0027880799765135,0.0,0.0,0.0,0.0,0.0,0.0,0.0,0.0,0.0,0.0,0.0,0.0,0.0,0.0,0.0,0.0,0.0,0.0,0.0,0.0,0.0,0,0,0,1,14,,124
1.399687058,0,1735643777088230371,map,0.9836654982708264,-0.2231495907747169,0.0189379988577581,-0.4993051030046526,0.5012981639833675,-0.493721812655574,0.5056019547119169,0.0,0.0,0.0,1,0.0001934310857905,0,1735643777088253974,map,0.977158856931418,-0.2486898889262962,0.1478539567744503,-0.5114636957551099,0.4780993056114491,-0.4862695333859129,0.5228459455700314,0.0,0.0,0.0,16,0.0213432498276233,0,1735643777088270664,map,0.9875416788378868,0.055421657745169,0.023378606164645,-0.4867476839209462,0.5071941517178771,-0.5014490756401384,0.5043605944167602,0.0,0.0,0.0,17,0.0037392824888229,0,1735643777088284730,map,1.0129718302853532,-0.2641776789789083,0.2360691967555473,-0.2500593563956313,0.6735096332761012,-0.6491252187211201,0.2499830845948422,0.0,0.0,0.0,121,0.0141801666468381,0,1735643777088297367,map,0.9997129980089734,0.2025136588016042,0.2407934694240182,-0.4795252429384287,0.4892447726186403,-0.5195718473865925,0.5106272507940196,0.0,0.0,0.0,122,0.2285153567790985,0,1735643777088310956,map,0.9998866795878684,0.2018752593167212,0.1431205266527832,-0.4881342386553424,0.5131967604482016,-0.4836408987355084,0.5142426773306052,0.0,0.0,0.0,124,0.5259658694267273,0,1735643777088322877,map,0.9876042837660042,-0.0291943836695309,0.2411291121695583,0.3934686750794818,-0.5771479449470204,0.5911305055032803,-0.4032956444570956,0.0,0.0,0.0,125,0.0781978145241737,0,1735643777088343858,map,1.0010454087744138,-0.0253102166062326,0.1438645699540659,0.5217569755675492,-0.513794305997489,0.4779153205354782,-0.4851618451286469,0.0,0.0,0.0,126,0.1446417570114135,0,1735644242188269615,map,0.9772781804237536,0.3341469046393051,0.0230733279964188,-0.507106804575223,0.4924772254874413,-0.4726232188949775,0.5262472461600611,0.0,0.0,0.0,0,0.0186489075422287,0.9298990209601264,0.4694705369730998,0.1564807902711105,1.0,2.149958280862187e-05,-0.000851534240555,-0.0001420803708447,0.0,0.0,0.0,-0.000851534240555,0.071603243226469,-0.0023921188809413,0.0,0.0,0.0,-0.0001420803708447,-0.0023921188809413,0.0026368884013265,0.0,0.0,0.0,0.0,0.0,0.0,0.0,0.0,0.0,0.0,0.0,0.0,0.0,0.0,0.0,0.0,0.0,0.0,0.0,0.0,0.0,0,0,0,1,15,,124
1.500538053,0,1735643777088230371,map,0.9745309733956946,-0.222098016971222,0.0211583557117117,-0.504621555721764,0.4969605834015626,-0.4827006739198556,0.5151575714705577,0.0,0.0,0.0,1,0.0001493948511779,0,1735643777088253974,map,0.9765851759248246,-0.2511299011468515,0.1472619359671793,-0.5018514167120217,0.4794316667028785,-0.4893477615847056,0.5280428019949475,0.0,0.0,0.0,16,0.0170340724289417,0,1735643777088270664,map,0.9822190770654714,0.053161606964867,0.0238944350481723,-0.4935864933302536,0.4929558575925929,-0.4982226873743258,0.5149184885519258,0.0,0.0,0.0,17,0.0028711634222418,0,1735643777088284730,map,1.0073889268132787,-0.265122265081998,0.2355021874946802,-0.2331105416186005,0.6706771227593842,-0.6639544305723803,0.2345552952222203,0.0,0.0,0.0,121,0.011080109514296,0,1735643777088297367,map,1.003279560474931,0.202266196171141,0.2405253021676901,-0.4958543102568452,0.4911967606640445,-0.50647358860332,0.5062990710638654,0.0,0.0,0.0,122,0.2105052471160888,0,1735643777088310956,map,1.0002358005870793,0.2002104520755204,0.1422851525499432,-0.4968583814412415,0.5073775348215377,-0.4715870401526808,0.5227862369171966,0.0,0.0,0.0,124,0.5074633955955505,0,1735643777088322877,map,0.9905335568054036,-0.0319107207823324,0.2408616476705813,-0.5458414551132326,0.4530608895010245,-0.4488054781304813,0.54347638318926,0.0,0.0,0.0,125,0.0668821558356285,0,1735643777088343858,map,0.9910963200535438,-0.027213590834204,0.1443156489355757,0.4706846057447373,-0.5352087709420584,0.5380668677457381,-0.4499906879657655,0.0,0.0,0.0,126,0.1330602467060089,0,1735644242188269615,map,0.9759641904130744,0.3321338385158012,0.0223564157866682,-0.5135487826538293,0.5004183178233133,-0.477914285598823,0.5073924424370371,0.0,0.0,0.0,0,0.0142784547060728,0.9299756841824246,0.4655436176264751,0.1561627071512664,1.0,2.0244017627880304e-05,-0.0008028291048826,-0.0001335661268208,0.0,0.0,0.0,-0.0008028291048826,0.0673593509581381,-0.0022238751495252,0.0,0.0,0.0,-0.0001335661268208,-0.0022238751495252,0.0024736005293106,0.0,0.0,0.0,0.0,0.0,0.0,0.0,0.0,0.0,0.0,0.0,0.0,0.0,0.0,0.0,0.0,0.0,0.0,0.0,0.0,0.0,0,0,0,1,16,,124
1.599723275,0,1735643777088230371,map,0.9893257744126982,-0.2276315232541705,0.015990365499153,-0.4918680198700755,0.515777462135345,-0.4958192015815094,0.4961882504910697,0.0,0.0,0.0,1,5.276795491226949e-05,0,1735643777088253974,map,0.9847030437611526,-0.2542052912435736,0.1466492204321752,-0.5019407793785782,0.4902363546376067,-0.4925652432875006,0.5148817841928205,0.0,0.0,0.0,16,0.0135176219046115,0,1735643777088270664,map,0.9821233700827292,0.0534471101618475,0.0250100701572159,0.662922257314894,-0.6216997893818411,0.2818264175119496,-0.307566778166109,0.0,0.0,0.0,17,0.0021521933376789,0,1735643777088284730,map,1.0047410039833022,-0.2637186392144345,0.2357957792616563,0.2158516255566853,-0.6696833735269676,0.6757443182167362,-0.2197768672173554,0.0,0.0,0.0,121,0.0094991317018866,0,1735643777088297367,map,0.9961771127527356,0.2002024675380988,0.2406396821760728,-0.4873351734673199,0.5132852018182756,-0.511866418466703,0.486862916992062,0.0,0.0,0.0,122,0.1963521093130111,0,1735643777088310956,map,0.99179172662807,0.1978329436574182,0.1438708530770857,-0.4722072752525531,0.5056968972306306,-0.4979814080341772,0.5227862417682504,0.0,0.0,0.0,124,0.5034111738204956,0,1735643777088322877,map,0.9945438613441712,-0.0316811071310399,0.2413926939895699,0.4145859904524895,-0.5491290758991794,0.5744524968757533,-0.4433734806637111,0.0,0.0,0.0,125,0.0611860230565071,0,1735643777088343858,map,0.9990238805441548,-0.0276423130268148,0.1438025653794384,0.5680895133691207,-0.5065175886729752,0.4274862820251912,-0.4878213974860362,0.0,0.0,0.0,126,0.120484821498394,0,1735644242188269615,map,0.9693590895778992,0.3286971266430802,0.0251565126048661,-0.4972130121806471,0.4945369338750829,-0.4877096110196361,0.5199536295389766,0.0,0.0,0.0,0,0.0129500264301896,0.930007686353331,0.4599096012625638,0.1568757293868426,1.0,1.906957928461792e-05,-0.000758488675492,-0.0001253442036803,0.0,0.0,0.0,-0.000758488675492,0.0639049104421158,-0.0021573338273481,0.0,0.0,0.0,-0.0001253442036803,-0.0021573338273481,0.0023362290271565,0.0,0.0,0.0,0.0,0.0,0.0,0.0,0.0,0.0,0.0,0.0,0.0,0.0,0.0,0.0,0.0,0.0,0.0,0.0,0.0,0.0,0,0,0,1,17,,124
1.699760038,0,1735643777088230371,map,0.9844008202665522,-0.225839220766723,0.018536333952557,-0.4973838971389976,0.5086746120443556,-0.4908010853678361,0.5029649018869029,0.0,0.0,0.0,1,3.746756192413159e-05,0,1735643777088253974,map,0.97961264902547,-0.2520173856019051,0.1477407584062414,-0.5132119112009674,0.4925609382184061,-0.4800300884823044,0.5133891024306277,0.0,0.0,0.0,16,0.0118042146787047,0,1735643777088270664,map,0.9861092296563334,0.0536439083036361,0.0233726459977222,-0.4934952943331476,0.5008854292907039,-0.4917746117000044,0.5135503018036477,0.0,0.0,0.0,17,0.0012867312179878,0,1735643777088284730,map,1.0043090982328666,-0.2647809661038832,0.2363418214789824,-0.4992152239078644,0.4843042823637524,-0.4894368086036175,0.5260086811894439,0.0,0.0,0.0,121,0.0081613520160317,0,1735643777088297367,map,1.000157860925742,0.2010533587499093,0.2413495787010248,-0.4765752289546578,0.4893154847337426,-0.5242638549225274,0.5085212069996391,0.0,0.0,0.0,122,0.1904875040054321,0,1735643777088310956,map,0.998265494842093,0.1997604228905229,0.1434952617954243,-0.4931087220203457,0.5068974432096224,-0.4763340853436834,0.5224984301170733,0.0,0.0,0.0,124,0.4888403713703155,0,1735643777088322877,map,0.98958544685821,-0.0320413020104352,0.2417219889843512,-0.5367867105468279,0.4584108662954786,-0.4595556984254503,0.5390065538444239,0.0,0.0,0.0,125,0.0569183602929115,0,1735643777088343858,map,0.9993927300503144,-0.0276837654881888,0.143689286607664,-0.4970691294516908,0.620400017018922,-0.4795202030491732,0.371599884683431,0.0,0.0,0.0,126,0.1098342314362526,0,1735644242188269615,map,0.974161775638456,0.331602123585239,0.0240513160487239,-0.5117997653147662,0.5003562619560605,-0.4806442341689131,0.5066416203839629,0.0,0.0,0.0,0,0.0089958049356937,0.930008725123456,0.454553255237063,0.1579942390867148,1.0,1.8010176556987596e-05,-0.0007164450039504,-0.0001183608849433,0.0,0.0,0.0,-0.0007164450039504,0.0608423751664393,-0.0021393310728027,0.0,0.0,0.0,-0.0001183608849433,-0.0021393310728027,0.0022277066127759,0.0,0.0,0.0,0.0,0.0,0.0,0.0,0.0,0.0,0.0,0.0,0.0,0.0,0.0,0.0,0.0,0.0,0.0,0.0,0.0,0.0,0,0,0,1,18,,124
1.799539686,0,1735643777088230371,map,0.9861062648220338,-0.2268995037502558,0.0169762696424713,-0.4906260878982194,0.5077577158181789,-0.4970960351987378,0.5043447984172028,0.0,0.0,0.0,1,7.126887794584036e-05,0,1735643777088253974,map,0.9831965565477464,-0.2540527027616632,0.1466830561063436,-0.503176581708375,0.4956708214817377,-0.4907773327745593,0.5101581852588306,0.0,0.0,0.0,16,0.0119955129921436,0,1735643777088270664,map,0.9837313216148234,0.0534417588887536,0.0237410095383135,-0.4942331610707657,0.505584824740163,-0.495493864595356,0.5045823992558757,0.0,0.0,0.0,17,0.0024639794137328,0,1735643777088284730,map,1.0030972306165946,-0.2649353021943917,0.2357313068811946,-0.5005230204229716,0.4916389321796209,-0.4880590887233761,0.5191976428167357,0.0,0.0,0.0,121,0.0063452878966927,0,1735643777088297367,map,0.9949204683280136,0.1993406737973687,0.2402356861987326,0.4867795042534743,-0.5123085139878739,0.512463484820942,-0.4878184882304627,0.0,0.0,0.0,122,0.1735037416219711,0,1735643777088310956,map,0.9916720941149916,0.1974403776257173,0.143759175052184,-0.4757087913576422,0.508682712447772,-0.4956170623084142,0.5189477540471734,0.0,0.0,0.0,124,0.5245327949523926,0,1735643777088322877,map,0.9945299408915698,-0.0329025193368349,0.2411606502311201,-0.5102371903530658,0.4736206914512262,-0.4854911614249776,0.5288097790208661,0.0,0.0,0.0,125,0.048231553286314,0,1735643777088343858,map,0.9996569754200816,-0.0284594558519596,0.143103899189002,0.4918865012209932,-0.5126947678472339,0.5185998987842734,-0.4756531193207733,0.0,0.0,0.0,126,0.118388831615448,0,1735644242188269615,map,0.9704668441633084,0.3293316576106819,0.0237022465301536,-0.5040780065212809,0.493208052251523,-0.4773929113833476,0.5241633225405241,0.0,0.0,0.0,0,0.01391710806638,0.9303156610384904,0.4475935732616604,0.1548654721086175,1.0,1.8758046334555647e-05,-0.0007171885465619,-0.0001294173218795,0.0,0.0,0.0,-0.0007171885465619,0.0585120140120988,-0.0016347806839814,0.0,0.0,0.0,-0.0001294173218795,-0.0016347806839814,0.0022866641867721,0.0,0.0,0.0,0.0,0.0,0.0,0.0,0.0,0.0,0.0,0.0,0.0,0.0,0.0,0.0,0.0,0.0,0.0,0.0,0.0,0.0,0,0,0,1,19,,124
1.899437456,0,1735643777088230371,map,0.971954595657108,-0.2228446777393961,0.02060320138148,-0.503918252225768,0.4991667460773313,-0.4840734939196849,0.5124176101274086,0.0,0.0,0.0,1,0.0004470890853554,0,1735643777088253974,map,0.9744271106668848,-0.2520121105934957,0.1462925508502018,-0.5027768478949322,0.4839911200248383,-0.4890740650167546,0.5232347426212505,0.0,0.0,0.0,16,0.013565813191235,0,1735643777088270664,map,0.9798453535240093,0.0518157738575828,0.0229796795053975,-0.4951119834680275,0.495202789290375,-0.5000825749550535,0.5094661318789614,0.0,0.0,0.0,17,0.0078680990263819,0,1735643777088284730,map,1.0004104672766791,-0.2665845300201519,0.2345875806320763,-0.5027081288722931,0.5010329532324709,-0.4768966434871794,0.5184786479417727,0.0,0.0,0.0,121,0.0047668707557022,0,1735643777088297367,map,0.9922637135368696,0.1974061006671251,0.2390278997587317,-0.5069098397035661,0.5170127793078793,-0.4992884447816555,0.4758689413605,0.0,0.0,0.0,122,0.1686937659978866,0,1735643777088310956,map,0.992161347816548,0.1965597957996007,0.1418868846553063,-0.4816479975667868,0.5106765089955777,-0.488697924247734,0.5180724355106634,0.0,0.0,0.0,124,0.5616153478622437,0,1735643777088322877,map,0.9939424175597372,-0.0346308404071946,0.2395891813875657,0.3872150078584522,-0.5517639129861082,0.6048583238215206,-0.423990011815441,0.0,0.0,0.0,125,0.0421733558177948,0,1735643777088343858,map,0.995391033503166,-0.0300598234536374,0.1419438715277375,-0.4824996287102155,0.640418051032731,-0.4837158522839857,0.3508244610273345,0.0,0.0,0.0,126,0.1306320428848266,0,1735644242188269615,map,0.958453474839284,0.3225727903717716,0.027172649661553,-0.4819512861176017,0.4960032336798971,-0.4958153121813645,0.5252341632026337,0.0,0.0,0.0,0,0.042873341590166,0.9307433813630684,0.4404872860421319,0.1499566546483111,1.0,2.1296092862914377e-05,-0.0007390796852794,-0.0001628388747364,0.0,0.0,0.0,-0.0007390796852794,0.0565459003543761,-0.00089025578094,0.0,0.0,0.0,-0.0001628388747364,-0.00089025578094,0.0026301642657471,0.0,0.0,0.0,0.0,0.0,0.0,0.0,0.0,0.0,0.0,0.0,0.0,0.0,0.0,0.0,0.0,0.0,0.0,0.0,0.0,0.0,0,0,0,1,20,,124
1.999453572,0,1735643777088230371,map,0.9794144811800414,-0.2270617155226846,0.0171357276521,-0.4997907917075532,0.508473081060513,-0.4919983468668177,0.4996017584451484,0.0,0.0,0.0,1,0.0005364393582567,0,1735643777088253974,map,0.9812882582889288,-0.2563916133429059,0.1450877146470613,-0.5037428283247926,0.496288899662026,-0.4878148280393014,0.5118370683416557,0.0,0.0,0.0,16,0.0120215881615877,0,1735643777088270664,map,0.9748984911520906,0.0516610722859733,0.0242621027799628,-0.4802225265290333,0.5058331636065457,-0.5131197529828009,0.5002272030874921,0.0,0.0,0.0,17,0.0125770382583141,0,1735643777088284730,map,1.0012648964545063,-0.2673919001066981,0.2344421944929201,-0.1736228240254891,0.6951011067168382,-0.6759641471032051,0.1725167767188962,0.0,0.0,0.0,121,0.0035678835120052,0,1735643777088297367,map,0.9943445198796056,0.1977256525770569,0.238856924297757,-0.5062230199396797,0.4954076058927835,-0.4936020755393027,0.5046449733525774,0.0,0.0,0.0,122,0.1537647396326065,0,1735643777088310956,map,0.9890969868911604,0.1956764113714248,0.1420286479341216,-0.4799227866270363,0.5082405821882819,-0.4928781653293067,0.5181088144730535,0.0,0.0,0.0,124,0.5767088532447815,0,1735643777088322877,map,0.9921506445834748,-0.0349508862392967,0.2396877056117314,0.3756714773069938,-0.5745423020573311,0.609994727421713,-0.3958263720400059,0.0,0.0,0.0,125,0.0348012372851371,0,1735643777088343858,map,0.9970747855855217,-0.0312344011610373,0.1417567591359558,-0.4819988557830602,0.6171006270275791,-0.5012238820696758,0.3682913781084121,0.0,0.0,0.0,126,0.1304074972867965,0,1735644242188269615,map,0.968350698404966,0.3283858207613265,0.0226984819251502,-0.4994606441431186,0.4961292700893371,-0.4821280571133579,0.5214857129940005,0.0,0.0,0.0,0,0.0462873317301273,0.931035250462889,0.4351233066164345,0.146715951640116,1.0,2.1985744631378368e-05,-0.0007351970114805,-0.0001740018640019,0.0,0.0,0.0,-0.0007351970114805,0.0544286839383252,-0.0005002013632992,0.0,0.0,0.0,-0.0001740018640019,-0.0005002013632992,0.0027149614680771,0.0,0.0,0.0,0.0,0.0,0.0,0.0,0.0,0.0,0.0,0.0,0.0,0.0,0.0,0.0,0.0,0.0,0.0,0.0,0.0,0.0,0,0,0,1,21,,124
2.098074835,0,1735643777088230371,map,0.9766859953933384,-0.2255142668495223,0.0184771300873483,-0.4977449933010582,0.5070734333175371,-0.4912643146087504,0.5037716030695741,0.0,0.0,0.0,1,0.0005817217752337,0,1735643777088253974,map,0.9680126784820946,-0.2487851152244256,0.1478611456366976,-0.5078772894970401,0.4880925480094027,-0.4795838004346863,0.5232835768027224,0.0,0.0,0.0,16,0.0118290241807699,0,1735643777088270664,map,0.9772314271222264,0.0519736291214295,0.0240671533316658,-0.4953539103105059,0.5011822134207733,-0.4841465194651362,0.5186935898780123,0.0,0.0,0.0,17,0.0129071222618222,0,1735643777088284730,map,0.9952246169852496,-0.2653023453137393,0.235198389694943,-0.5046713358604153,0.5021004118903309,-0.4726803882263489,0.5193989504481223,0.0,0.0,0.0,121,0.0026973586063832,0,1735643777088297367,map,0.988544244286198,0.1967198279804465,0.2398615589775031,-0.4864792105532886,0.5130799857495606,-0.5127163551904164,0.4870409069502626,0.0,0.0,0.0,122,0.1306366771459579,0,1735643777088310956,map,0.9860301497153112,0.1951415836345195,0.1432964505419502,-0.475339746208583,0.5096898797597503,-0.4945266752487323,0.5193377702538927,0.0,0.0,0.0,124,0.579109787940979,0,1735643777088322877,map,0.9864792897260416,-0.034555914814911,0.2408075907089399,-0.5231299565951524,0.4954411826119626,-0.4766625785509057,0.5036525283308072,0.0,0.0,0.0,125,0.0278036091476678,0,1735643777088343858,map,0.9903260769462984,-0.0304654817134292,0.1432926274213373,0.532554191910427,-0.5286410379043247,0.464531471968844,-0.4702501432987866,0.0,0.0,0.0,126,0.1272020488977432,0,1735644242188269615,map,0.9584620705148924,0.3233972050312347,0.0273622174109758,-0.4865774068592158,0.4981582196818845,-0.4960452421882164,0.518671314996279,0.0,0.0,0.0,0,0.0607558898627758,0.931204505525105,0.4314918109341132,0.1449469593071459,1.0,2.1587985400479088e-05,-0.0007146865950847,-0.0001723803174203,0.0,0.0,0.0,-0.0007146865950847,0.0522315958289246,-0.0003425590892906,0.0,0.0,0.0,-0.0001723803174203,-0.0003425590892906,0.0026572701399753,0.0,0.0,0.0,0.0,0.0,0.0,0.0,0.0,0.0,0.0,0.0,0.0,0.0,0.0,0.0,0.0,0.0,0.0,0.0,0.0,0.0,0,0,0,1,22,,124
2.199959728,0,1735643777088230371,map,0.9738884405802948,-0.2242923185592116,0.0197984183933229,-0.5016980441350314,0.5082710235933275,-0.4852145052363374,0.5045062170030533,0.0,0.0,0.0,1,0.0006117014563642,0,1735643777088253974,map,0.9715693740129528,-0.2509729535050798,0.1473868965205641,-0.5063841635946535,0.4885948023618845,-0.4860794512893032,0.5182441171878216,0.0,0.0,0.0,16,0.0110920285806059,0,1735643777088270664,map,0.9749059906806554,0.0519367517693093,0.0248712557027118,-0.4854746017866841,0.5007526108416372,-0.5096699156615944,0.5037834959829951,0.0,0.0,0.0,17,0.0131783634424209,0,1735643777088284730,map,0.995167008788413,-0.2658525329793399,0.235428348491341,-0.4993384851284468,0.4951911525920801,-0.4803467128643794,0.5241315055446878,0.0,0.0,0.0,121,0.0022467982489615,0,1735643777088297367,map,0.9834039479117572,0.1949888211102737,0.2399713412980179,0.4753528532836426,-0.5051630397023226,0.52473535429387,-0.4934600046081713,0.0,0.0,0.0,122,0.116366371512413,0,1735643777088310956,map,0.9877814905576624,0.1956087882732086,0.143043394697274,-0.479511305184352,0.5100545699110938,-0.4909326056092514,0.5185541636733042,0.0,0.0,0.0,124,0.5899852514266968,0,1735643777088322877,map,0.9932598978008648,-0.036423844483232,0.2406583751286951,-0.522251730563449,0.4888301639271494,-0.4774490106357007,0.5102358699674397,0.0,0.0,0.0,125,0.0246490128338336,0,1735643777088343858,map,0.992428846337066,-0.0310671754286254,0.1428392005369962,0.5118320288139159,-0.5074743075815253,0.4876667287935555,-0.4926245660263759,0.0,0.0,0.0,126,0.12709741294384,0,1735644242188269615,map,0.9560595794916896,0.3226319992751234,0.0285024319542002,-0.4831686704677793,0.495900631991638,-0.4952378226327187,0.5247571801344857,0.0,0.0,0.0,0,0.0614800155162811,0.9313467295333474,0.4251439029480519,0.1441584206819776,1.0,2.109438604704096e-05,-0.0007034754130537,-0.0001673528017371,0.0,0.0,0.0,-0.0007034754130537,0.05084716746743,-0.0002175426618507,0.0,0.0,0.0,-0.0001673528017371,-0.0002175426618507,0.0025554161052229,0.0,0.0,0.0,0.0,0.0,0.0,0.0,0.0,0.0,0.0,0.0,0.0,0.0,0.0,0.0,0.0,0.0,0.0,0.0,0.0,0.0,0,0,0,1,23,,124
2.301531056,0,1735643777088230371,map,0.966160478326689,-0.2228490035116197,0.0226609819211065,-0.4936759094652896,0.4931765321684166,-0.4971853990511335,0.5156235870306161,0.0,0.0,0.0,1,0.0005967590841464,0,1735643777088253974,map,0.974779605046304,-0.2562856860086164,0.1469843137721247,-0.4984883462085825,0.4928544699176775,-0.4969729931144274,0.5114896717347137,0.0,0.0,0.0,16,0.0103411152958869,0,1735643777088270664,map,0.9749027391666768,0.0498338768990071,0.0247750640517564,-0.4925250161107368,0.5004607835385958,-0.4929671461219201,0.5137523775998147,0.0,0.0,0.0,17,0.0109849171712994,0,1735643777088284730,map,0.991832139970477,-0.2677614680868691,0.2358430089672257,-0.4966469021951324,0.4951425940965163,-0.4895040415203053,0.5182291572139093,0.0,0.0,0.0,121,0.0021786098368465,0,1735643777088297367,map,0.9953982107988932,0.1963669905772894,0.2408917533182905,-0.5291523330752733,0.4817776754845492,-0.4724911303687113,0.5144319308991203,0.0,0.0,0.0,122,0.11603394895792,0,1735643777088310956,map,0.9830942313621835,0.1925427300252735,0.1440797487488643,-0.4732695259729458,0.5052718049721618,-0.4957907732351205,0.5243165723686772,0.0,0.0,0.0,124,0.5949256420135498,0,1735643777088322877,map,0.9866589298785204,-0.0379189672193947,0.2411696889516709,-0.5241642552040201,0.4766550166519502,-0.4746988086054665,0.5222191779085626,0.0,0.0,0.0,125,0.023877365514636,0,1735643777088343858,map,0.984459838614366,-0.0326054205432892,0.1442423321118977,-0.4980734803702927,0.4812789910344154,-0.508462871963844,0.5116237375014948,0.0,0.0,0.0,126,0.1284803599119186,0,1735644242188269615,map,0.9572029293914572,0.3221775584909379,0.0280281759681451,-0.4929422117813303,0.4924467437698674,-0.4870206184595977,0.5266071567969958,0.0,0.0,0.0,0,0.0523223094642162,0.9314022535933718,0.418135060176139,0.1448098345709969,1.0,2.028636048363736e-05,-0.0006831146038655,-0.0001595478780223,0.0,0.0,0.0,-0.0006831146038655,0.0498583846606525,-0.0003134885074078,0.0,0.0,0.0,-0.0001595478780223,-0.0003134885074078,0.0024587002554325,0.0,0.0,0.0,0.0,0.0,0.0,0.0,0.0,0.0,0.0,0.0,0.0,0.0,0.0,0.0,0.0,0.0,0.0,0.0,0.0,0.0,0,0,0,1,24,,124
2.399610354,0,1735643777088230371,map,0.9749070432829408,-0.2282111748067756,0.0187504065999822,-0.494473070675871,0.5074028737199958,-0.4918705927995572,0.506065238932766,0.0,0.0,0.0,1,0.0004279969725757,0,1735643777088253974,map,0.9705915181011218,-0.2537433260890276,0.1478884918327542,-0.5041690470026934,0.4903117965419348,-0.4910152784487915,0.5141127410851362,0.0,0.0,0.0,16,0.011855917982757,0,1735643777088270664,map,0.973253622419442,0.0500144526300371,0.0252564890831515,-0.4941920035299198,0.4917862074039715,-0.4973388028417547,0.5163087303563945,0.0,0.0,0.0,17,0.0107392640784382,0,1735643777088284730,map,0.991186770766535,-0.2679108133891377,0.2358986248151684,-0.4960391050946662,0.4849105532663302,-0.4977268810746559,0.5206485507552284,0.0,0.0,0.0,121,0.0022224101703613,0,1735643777088297367,map,0.9877052378227008,0.1948925797718022,0.2407225964235098,-0.5045489198191926,0.5147593004792164,-0.499848282241746,0.4802134367335111,0.0,0.0,0.0,122,0.1091913729906082,0,1735643777088310956,map,0.983265586535558,0.1928350322693976,0.1438892206224617,-0.4787771800108418,0.5090013606966192,-0.4925795277225827,0.5187055384112006,0.0,0.0,0.0,124,0.617914617061615,0,1735643777088322877,map,0.9847739034105368,-0.0378729606363542,0.2411101663096683,-0.5278711911783097,0.4944985085383499,-0.4667214912444617,0.5089148064144784,0.0,0.0,0.0,125,0.0235611759126186,0,1735643777088343858,map,0.9853255525984704,-0.0329490157261048,0.1440969631515337,0.5264358691768518,-0.5029021330589795,0.4748160456147158,-0.4944739053130563,0.0,0.0,0.0,126,0.1374033391475677,0,1735644242188269615,map,0.9628979005764212,0.3257890377231411,0.0253296646248878,-0.5029303262898662,0.4945063425721732,-0.4838893907774852,0.5180498253516314,0.0,0.0,0.0,0,0.0410474948585033,0.9315297280028036,0.4094648400357538,0.1447341546753642,1.0,1.9864899465731512e-05,-0.0006823155683198,-0.0001533974969014,0.0,0.0,0.0,-0.0006823155683198,0.0496681944890122,-0.0002852010945834,0.0,0.0,0.0,-0.0001533974969014,-0.0002852010945834,0.0023604897039337,0.0,0.0,0.0,0.0,0.0,0.0,0.0,0.0,0.0,0.0,0.0,0.0,0.0,0.0,0.0,0.0,0.0,0.0,0.0,0.0,0.0,0,0,0,1,25,,124
2.499436189,0,1735643777088230371,map,0.9717850616882068,-0.2268559094478178,0.020166247580158,-0.4937449805723992,0.5017315009018493,-0.4964825606914832,0.5079236774275897,0.0,0.0,0.0,1,0.0004819539608433,0,1735643777088253974,map,0.9714363397987282,-0.2547511754676962,0.1475957260165432,-0.5081242282955527,0.4979830151286755,-0.4871623298029688,0.5064538968981732,0.0,0.0,0.0,16,0.0134291183203458,0,1735643777088270664,map,0.9705835411420772,0.0494643808286685,0.0265049425947707,-0.4988381943393694,0.4873301670564327,-0.4831579695062449,0.5293657909683899,0.0,0.0,0.0,17,0.0110460463911294,0,1735643777088284730,map,0.9901771800875308,-0.2682140067032144,0.2358437345994839,-0.4967502538303122,0.48783051342659,-0.4916658777563421,0.522996405474794,0.0,0.0,0.0,121,0.0023680268786847,0,1735643777088297367,map,0.989893790851882,0.1943952202717818,0.2405886793513867,-0.4883290501532607,0.4684392642014552,-0.5073010030890045,0.5336151111013469,0.0,0.0,0.0,122,0.1062056422233581,0,1735643777088310956,map,0.9828709601592308,0.1919177216619994,0.144045683515975,-0.4848200274048515,0.5035080020723162,-0.4860971240327732,0.5245367659977418,0.0,0.0,0.0,124,0.6416497230529785,0,1735643777088322877,map,0.9834356660612796,-0.0385185945715417,0.2411014186885059,-0.5188300385589117,0.4963471009931855,-0.4779607846000888,0.5059727609358886,0.0,0.0,0.0,125,0.0235609617084264,0,1735643777088343858,map,0.9881818109495766,-0.0344857158918701,0.1436845935056735,-0.506876161531346,0.5078829547441944,-0.4931807605537155,0.4918375733626034,0.0,0.0,0.0,126,0.1478288620710373,0,1735644242188269615,map,0.9613681858557964,0.3242651715658806,0.0262820765636926,-0.5016557844097865,0.4939195504994194,-0.4854211408049508,0.5184122564738154,0.0,0.0,0.0,0,0.0390668548643589,0.9316621248352092,0.4002999522076781,0.144689400680765,1.0,1.9539087901672032e-05,-0.0006864077147908,-0.0001476457253525,0.0,0.0,0.0,-0.0006864077147908,0.0498577585388881,-0.0002639776882059,0.0,0.0,0.0,-0.0001476457253525,-0.0002639776882059,0.0022697517113986,0.0,0.0,0.0,0.0,0.0,0.0,0.0,0.0,0.0,0.0,0.0,0.0,0.0,0.0,0.0,0.0,0.0,0.0,0.0,0.0,0.0,0,0,0,1,26,,124
