%time,field.boxes0.header.seq,field.boxes0.header.stamp,field.boxes0.header.frame_id,field.boxes0.pose.position.x,field.boxes0.pose.position.y,field.boxes0.pose.position.z,field.boxes0.pose.orientation.x,field.boxes0.pose.orientation.y,field.boxes0.pose.orientation.z,field.boxes0.pose.orientation.w,field.boxes0.scale.x,field.boxes0.scale.y,field.boxes0.scale.z,field.boxes0.id,field.boxes0.pdf,field.boxes1.header.seq,field.boxes1.header.stamp,field.boxes1.header.frame_id,field.boxes1.pose.position.x,field.boxes1.pose.position.y,field.boxes1.pose.position.z,field.boxes1.pose.orientation.x,field.boxes1.pose.orientation.y,field.boxes1.pose.orientation.z,field.boxes1.pose.orientation.w,field.boxes1.scale.x,field.boxes1.scale.y,field.boxes1.scale.z,field.boxes1.id,field.boxes1.pdf,field.boxes2.header.seq,field.boxes2.header.stamp,field.boxes2.header.frame_id,field.boxes2.pose.position.x,field.boxes2.pose.position.y,field.boxes2.pose.position.z,field.boxes2.pose.orientation.x,field.boxes2.pose.orientation.y,field.boxes2.pose.orientation.z,field.boxes2.pose.orientation.w,field.boxes2.scale.x,field.boxes2.scale.y,field.boxes2.scale.z,field.boxes2.id,field.boxes2.pdf,field.boxes3.header.seq,field.boxes3.header.stamp,field.boxes3.header.frame_id,field.boxes3.pose.position.x,field.boxes3.pose.position.y,field.boxes3.pose.position.z,field.boxes3.pose.orientation.x,field.boxes3.pose.orientation.y,field.boxes3.pose.orientation.z,field.boxes3.pose.orientation.w,field.boxes3.scale.x,field.boxes3.scale.y,field.boxes3.scale.z,field.boxes3.id,field.boxes3.pdf,field.boxes4.header.seq,field.boxes4.header.stamp,field.boxes4.header.frame_id,field.boxes4.pose.position.x,field.boxes4.pose.position.y,field.boxes4.pose.position.z,field.boxes4.pose.orientation.x,field.boxes4.pose.orientation.y,field.boxes4.pose.orientation.z,field.boxes4.pose.orientation.w,field.boxes4.scale.x,field.boxes4.scale.y,field.boxes4.scale.z,field.boxes4.id,field.boxes4.pdf,field.boxes5.header.seq,field.boxes5.header.stamp,field.boxes5.header.frame_id,field.boxes5.pose.position.x,field.boxes5.pose.position.y,field.boxes5.pose.position.z,field.boxes5.pose.orientation.x,field.boxes5.pose.orientation.y,field.boxes5.pose.orientation.z,field.boxes5.pose.orientation.w,field.boxes5.scale.x,field.boxes5.scale.y,field.boxes5.scale.z,field.boxes5.id,field.boxes5.pdf,field.boxes6.header.seq,field.boxes6.header.stamp,field.boxes6.header.frame_id,field.boxes6.pose.position.x,field.boxes6.pose.position.y,field.boxes6.pose.position.z,field.boxes6.pose.orientation.x,field.boxes6.pose.orientation.y,field.boxes6.pose.orientation.z,field.boxes6.pose.orientation.w,field.boxes6.scale.x,field.boxes6.scale.y,field.boxes6.scale.z,field.boxes6.id,field.boxes6.pdf,field.boxes7.header.seq,field.boxes7.header.stamp,field.boxes7.header.frame_id,field.boxes7.pose.position.x,field.boxes7.pose.position.y,field.boxes7.pose.position.z,field.boxes7.pose.orientation.x,field.boxes7.pose.orientation.y,field.boxes7.pose.orientation.z,field.boxes7.pose.orientation.w,field.boxes7.scale.x,field.boxes7.scale.y,field.boxes7.scale.z,field.boxes7.id,field.boxes7.pdf,field.boxes8.header.seq,field.boxes8.header.stamp,field.boxes8.header.frame_id,field.boxes8.pose.position.x,field.boxes8.pose.position.y,field.boxes8.pose.position.z,field.boxes8.pose.orientation.x,field.boxes8.pose.orientation.y,field.boxes8.pose.orientation.z,field.boxes8.pose.orientation.w,field.boxes8.scale.x,field.boxes8.scale.y,field.boxes8.scale.z,field.boxes8.id,field.boxes8.pdf,field.pose.pose.position.x,field.pose.pose.position.y,field.pose.pose.position.z,field.pose.pose.orientation.w,field.pose.covariance0,field.pose.covariance1,field.pose.covariance2,field.pose.covariance3,field.pose.covariance4,field.pose.covariance5,field.pose.covariance6,field.pose.covariance7,field.pose.covariance8,field.pose.covariance9,field.pose.covariance10,field.pose.covariance11,field.pose.covariance12,field.pose.covariance13,field.pose.covariance14,field.pose.covariance15,field.pose.covariance16,field.pose.covariance17,field.pose.covariance18,field.pose.covariance19,field.pose.covariance20,field.pose.covariance21,field.pose.covariance22,field.pose.covariance23,field.pose.covariance24,field.pose.covariance25,field.pose.covariance26,field.pose.covariance27,field.pose.covariance28,field.pose.covariance29,field.pose.covariance30,field.pose.covariance31,field.pose.covariance32,field.pose.covariance33,field.pose.covariance34,field.pose.covariance35,field.buttons0,field.buttons1,field.buttons2,field.buttons3,intersection_length,vacuum,desired_box
0.0,0,1735643777088230371,map,0.9735283259794236,-0.2189293001038896,0.0236732051451687,-0.4888487279092711,0.4887608202254808,-0.5035333666786108,0.5182604851571317,0.0,0.0,0.0,1,0.1111111119389534,0,1735643777088253974,map,0.9926763373066224,-0.2526507022264684,0.1456093208307433,-0.5036525430534042,0.5127129497309584,-0.4920980848744403,0.4912219680724048,0.0,0.0,0.0,16,0.1111111119389534,0,1735643777088270664,map,0.986849939101331,0.0557582668635824,0.0242459601484869,-0.4830827850441498,0.5056977651398685,-0.5093764382059998,0.5014343798814543,0.0,0.0,0.0,17,0.1111111119389534,0,1735643777088284730,map,1.012096124051951,-0.2586437060371066,0.2349004239270606,-0.5063952031803749,0.5114797642890586,-0.4779553895461625,0.5034987532481997,0.0,0.0,0.0,121,0.1111111119389534,0,1735643777088297367,map,1.0171336485400009,0.2097502489154793,0.239514140392958,-0.4971655699853669,0.4640410446048335,-0.4972081243395065,0.5387730375900127,0.0,0.0,0.0,122,0.1111111119389534,0,1735643777088310956,map,1.0075809658937611,0.2054745696279145,0.1417688287118866,-0.4889988332075043,0.4993634119938707,-0.4778747634784459,0.5321203193958655,0.0,0.0,0.0,124,0.1111111119389534,0,1735643777088322877,map,1.001600106014089,-0.0277146163497802,0.2402602074556694,-0.5050251341596788,0.5109824093653059,-0.4937717949653767,0.4899346953246885,0.0,0.0,0.0,125,0.1111111119389534,0,1735643777088343858,map,1.0014988897984949,-0.0227511729181602,0.1437199033598447,0.6434690704138658,-0.5302794197867939,0.3555656525561388,-0.4222846896272984,0.0,0.0,0.0,126,0.1111111119389534,0,1735644242188269615,map,0.984441935253513,0.3370853848645198,0.0214193316906703,-0.5149406478425946,0.4972612831074833,-0.4728410845841379,0.5137982622110006,0.0,0.0,0.0,0,0.1111111119389534,0.9402229259330728,0.2616214789408893,0.0456872862345597,1.0,0.0,0.0,0.0,0.0,0.0,0.0,0.0,0.0,0.0,0.0,0.0,0.0,0.0,0.0,0.0,0.0,0.0,0.0,0.0,0.0,0.0,0.0,0.0,0.0,0.0,0.0,0.0,0.0,0.0,0.0,0.0,0.0,0.0,0.0,0.0,0.0,0,0,0,1,1,,125
0.100744914,0,1735643777088230371,map,0.9925624579869204,-0.2231623218541277,0.0163988182107453,-0.4774753733316644,0.5300869396899076,-0.5087824458285799,0.4818355809284576,0.0,0.0,0.0,1,0.0,0,1735643777088253974,map,0.9907348491047424,-0.2517193150782628,0.1457093168800526,-0.4982935725806582,0.5065369774526577,-0.4947644339772496,0.5003318507441862,0.0,0.0,0.0,16,0.0,0,1735643777088270664,map,0.9945250681767892,0.0566646002716475,0.0218037187150826,0.7118338688284651,-0.534483878903033,0.2693030447644385,-0.3675532566337436,0.0,0.0,0.0,17,0.0,0,1735643777088284730,map,1.0102012221812149,-0.2576626049559131,0.2346128676840084,-0.4938585011412046,0.5025336194173227,-0.488228931396749,0.5149720892952134,0.0,0.0,0.0,121,0.0,0,1735643777088297367,map,1.020235073053763,0.2110505457420151,0.2390532041082078,-0.5017391485042474,0.4842379807974529,-0.496920627125835,0.5165668351223349,0.0,0.0,0.0,122,0.0,0,1735643777088310956,map,1.0077174226959895,0.2053146480714705,0.1416122339203785,-0.7372681630818152,0.3491286446025399,-0.2253549465940919,0.532691273881536,0.0,0.0,0.0,124,0.0,0,1735643777088322877,map,1.0033558730884335,-0.0267320273141676,0.2398036108305298,-0.5019165149579221,0.5057561785962039,-0.4970687639618166,0.4951900076917253,0.0,0.0,0.0,125,0.0,0,1735643777088343858,map,1.003408736687733,-0.021900019593995,0.1426543132439686,-0.5122463789129242,0.4878711257213212,-0.4868221994524796,0.5124349305992498,0.0,0.0,0.0,126,0.0,0,1735644242188269615,map,0.9743072144783744,0.3308852858043679,0.024810189116848,-0.4988716977965291,0.5050734640105109,-0.4849281028688854,0.5107568503094362,0.0,0.0,0.0,0,0.0,0.940075160784667,0.2661154637384521,0.0469514373964639,1.0,2.183453908337452e-08,-6.640543305450738e-07,-1.8679748404608e-07,0.0,0.0,0.0,-6.640543305450738e-07,2.019589936072581e-05,5.681076103418844e-06,0.0,0.0,0.0,-1.8679748404608e-07,5.681076103418844e-06,1.59807816014373e-06,0.0,0.0,0.0,0.0,0.0,0.0,0.0,0.0,0.0,0.0,0.0,0.0,0.0,0.0,0.0,0.0,0.0,0.0,0.0,0.0,0.0,0,0,0,1,2,,125
0.199462321,0,1735643777088230371,map,0.980013286507126,-0.2198493188116755,0.0211475265296939,-0.4900667803555137,0.4941895826600502,-0.5040669950059434,0.5113977627326348,0.0,0.0,0.0,1,0.0,0,1735643777088253974,map,0.9789198875846614,-0.2477396570910607,0.148130957496299,-0.5038292752064605,0.4875240364265326,-0.4876214832607579,0.5202899810816002,0.0,0.0,0.0,16,0.0,0,1735643777088270664,map,0.991299142156935,0.0565992288478997,0.0231690136777996,-0.4935571722404118,0.510716942975726,-0.5012125278689233,0.4943232988589767,0.0,0.0,0.0,17,0.0,0,1735643777088284730,map,1.0076807313670748,-0.2566243842488608,0.2346583769268737,-0.4851307504653714,0.4824663062648762,-0.5050874493088096,0.5260808747927954,0.0,0.0,0.0,121,0.0,0,1735643777088297367,map,1.007176489623618,0.2059338176332421,0.239526120749507,-0.5080953826584969,0.491919133875999,-0.4903695451612841,0.5093057598595544,0.0,0.0,0.0,122,9.28603575327605e-15,0,1735643777088310956,map,1.00532763781817,0.2046955841765387,0.1421132134645696,-0.4831845522485044,0.5006825777886247,-0.4870200324651981,0.52788363561011,0.0,0.0,0.0,124,0.0003849001077469,0,1735643777088322877,map,0.9918589001325164,-0.027779445082378,0.2402801808780429,-0.6000588818634879,0.4638335688627385,-0.388430217518565,0.5233638550867609,0.0,0.0,0.0,125,0.0,0,1735643777088343858,map,1.006342316172083,-0.0219995224980081,0.1424491583362218,-0.4998380554965456,0.4868194068950483,-0.4995716293889415,0.5134169557557127,0.0,0.0,0.0,126,0.0,0,1735644242188269615,map,0.9703090124094244,0.3277294675016559,0.0266681521742721,0.8633120701858374,-0.2348824460127613,0.1076662733452236,-0.4335094919496661,0.0,0.0,0.0,0,9.49999269504048e-32,0.9350483954502438,0.2233801810961688,0.1313730447758337,1.0,5.055129581410685e-05,0.0004291977717989,-0.0008488597505578,0.0,0.0,0.0,0.0004291977717989,0.0036660726979388,-0.0072117751208775,0.0,0.0,0.0,-0.0008488597505578,-0.0072117751208775,0.014255080970473,0.0,0.0,0.0,0.0,0.0,0.0,0.0,0.0,0.0,0.0,0.0,0.0,0.0,0.0,0.0,0.0,0.0,0.0,0.0,0.0,0.0,0,0,0,1,3,,125
0.300206855,0,1735643777088230371,map,0.9829474237896813,-0.2213280419941658,0.0217912465758311,-0.497867149347853,0.508305110400533,-0.4835322671106982,0.5098536682262206,0.0,0.0,0.0,1,0.0,0,1735643777088253974,map,0.9804837787122054,-0.2489404143384789,0.1492972531486401,-0.5066426996714074,0.4863689003371169,-0.4841862568249162,0.521844935164085,0.0,0.0,0.0,16,0.0,0,1735643777088270664,map,0.9975874028328272,0.0569198829556621,0.0221069057944331,-0.5074217303909696,0.502935923971312,-0.4836693834543364,0.5056110871164307,0.0,0.0,0.0,17,0.0,0,1735643777088284730,map,1.012625725969063,-0.2592332370841488,0.2362572946710238,-0.4918355111635479,0.4986356768372317,-0.4908340256937864,0.5182106241334682,0.0,0.0,0.0,121,0.0,0,1735643777088297367,map,1.017505998820719,0.2094203159980557,0.2410097132373317,-0.5136812630601806,0.4867310332272532,-0.4966848911370055,0.5025222186039625,0.0,0.0,0.0,122,0.0005921411793678,0,1735643777088310956,map,1.0103953299052912,0.2058721777122951,0.1428477943535729,-0.4977711639401054,0.5106815371667917,-0.4712292764346645,0.5190098312917956,0.0,0.0,0.0,124,0.7213242650032043,0,1735643777088322877,map,1.0103062541000174,-0.0270379185961582,0.2413568148188761,-0.5052693716570393,0.4954372392693939,-0.493607577374052,0.5055653900034508,0.0,0.0,0.0,125,4.743395301739506e-41,0,1735643777088343858,map,1.0032407294422283,-0.0226911853493592,0.1443995216071697,0.6184320749730176,-0.5423109280442794,0.3798931184552711,-0.4232278872175719,0.0,0.0,0.0,126,0.0,0,1735644242188269615,map,0.9715395905898078,0.328445538554378,0.0275569863426185,-0.4930934969205954,0.493485603091995,-0.4832281673569915,0.5289813806821109,0.0,0.0,0.0,0,0.0014328563120216,0.9313769431128076,0.1798439105000979,0.1956421259079928,1.0,7.83521586587741e-05,0.0008014223561788,-0.0013445274173609,0.0,0.0,0.0,0.0008014223561788,0.008435775095697,-0.0138029396620497,0.0,0.0,0.0,-0.0013445274173609,-0.0138029396620497,0.0230828550965709,0.0,0.0,0.0,0.0,0.0,0.0,0.0,0.0,0.0,0.0,0.0,0.0,0.0,0.0,0.0,0.0,0.0,0.0,0.0,0.0,0.0,0,0,0,1,4,,125
0.398996249,0,1735643777088230371,map,0.9818388694506,-0.2212850021253314,0.0211282831735155,-0.4867146250032315,0.4982122527429292,-0.4990232698201217,0.5156250587421186,0.0,0.0,0.0,1,1.2008666868120858e-36,0,1735643777088253974,map,0.9844555683720404,-0.2503279800509607,0.1475822885573705,-0.5021404226390396,0.4932094273083068,-0.4909594828368803,0.5133792389439227,0.0,0.0,0.0,16,1.52080263612436e-28,0,1735643777088270664,map,0.9841662396515498,0.0543178383656799,0.0260970330970409,-0.4874624883873731,0.4964285990229494,-0.5031202392943074,0.5126489961949993,0.0,0.0,0.0,17,2.388052955382136e-08,0,1735643777088284730,map,1.0112252223184914,-0.2590819478226042,0.235428713402928,-0.4898692547008114,0.5161787427771475,-0.4814474439025209,0.5116600214630841,0.0,0.0,0.0,121,1.449928363280137e-22,0,1735643777088297367,map,1.0111261981704618,0.206581388075439,0.2398902372058886,0.5156741774102963,-0.4991501061335524,0.4883068054950383,-0.4964733406803514,0.0,0.0,0.0,122,0.2080300152301788,0,1735643777088310956,map,1.0072598176451233,0.204396877925424,0.1429343946163203,-0.4880920100884542,0.5044793929253083,-0.4785275458617822,0.5275207291216383,0.0,0.0,0.0,124,0.8466993570327759,0,1735643777088322877,map,1.0128607774930736,-0.0273283912781966,0.2411110749798599,-0.4983931744120781,0.5105241763990176,-0.5000795046713351,0.4908052546776868,0.0,0.0,0.0,125,0.000224287257879,0,1735643777088343858,map,1.007136045002628,-0.0226278354421573,0.1438028139316566,0.4973848450855601,-0.4983141957001072,0.5089105967203552,-0.4952789948995423,0.0,0.0,0.0,126,8.59895692428836e-08,0,1735644242188269615,map,0.9741975099018876,0.3304585615403506,0.0258281645467711,-0.4999284355615249,0.4966146421597158,-0.4902039928625136,0.5129770968486138,0.0,0.0,0.0,0,0.1939541697502136,0.9301153374963592,0.1436431521989965,0.2222238504611915,1.0,6.904832185283585e-05,0.0008238222049124,-0.0012097645458535,0.0,0.0,0.0,0.0008238222049124,0.0119905996828566,-0.0148914660727469,0.0,0.0,0.0,-0.0012097645458535,-0.0148914660727469,0.0212926363981452,0.0,0.0,0.0,0.0,0.0,0.0,0.0,0.0,0.0,0.0,0.0,0.0,0.0,0.0,0.0,0.0,0.0,0.0,0.0,0.0,0.0,0,0,0,1,5,,125
0.498122609,0,1735643777088230371,map,0.9741121004011792,-0.2189439338050783,0.0252653458517732,-0.4924541670107785,0.4855220816621354,-0.4919667846459804,0.5288911839095854,0.0,0.0,0.0,1,4.825945957957767e-13,0,1735643777088253974,map,0.9911125620302048,-0.2525066305661904,0.147330594790032,-0.5167759158774049,0.5226184233998721,-0.4714933485977586,0.4873465486901224,0.0,0.0,0.0,16,4.4829498446752325e-10,0,1735643777088270664,map,0.9935636334140976,0.0557493210038213,0.0235698742763063,-0.4963123198408731,0.48439402793774,-0.4917094764936875,0.5265532238992813,0.0,0.0,0.0,17,0.0015270508592948,0,1735643777088284730,map,1.0134145964199648,-0.2597844326299037,0.2359172096514805,-0.5129506309281869,0.5309590111543494,-0.4611644532769807,0.4922311710346208,0.0,0.0,0.0,121,1.046462472231724e-07,0,1735643777088297367,map,1.0137163141675911,0.2074433426247743,0.2404396040424871,-0.5150194944752231,0.4789565657124111,-0.4896645803562454,0.5153485492518638,0.0,0.0,0.0,122,0.3429554402828216,0,1735643777088310956,map,1.0077463722072937,0.2048102071339342,0.1428248842365156,-0.4830744815087706,0.4919381816668307,-0.4805753085556885,0.5419254962999707,0.0,0.0,0.0,124,0.7524259686470032,0,1735643777088322877,map,1.003187597186901,-0.0277858119696866,0.2412968446672105,-0.4458827632379523,0.4634843354326839,-0.5452807712737309,0.5376241370464468,0.0,0.0,0.0,125,0.1139790341258049,0,1735643777088343858,map,1.0009731939372877,-0.0231745075791757,0.1447336561104059,-0.4874355049667143,0.4634474432957207,-0.5078452479437238,0.5382530073687298,0.0,0.0,0.0,126,0.0067300233058631,0,1735644242188269615,map,0.9785225840150846,0.332645741795115,0.0252300951849384,-0.5053151583185935,0.4899311045862806,-0.4819102973730863,0.5219066667691701,0.0,0.0,0.0,0,0.1897018551826477,0.9301047855315592,0.1144441360814632,0.2285643039367643,1.0,5.7540824930502246e-05,0.000688059039045,-0.0010084716427541,0.0,0.0,0.0,0.000688059039045,0.0142550791135404,-0.013335230076751,0.0,0.0,0.0,-0.0010084716427541,-0.013335230076751,0.0179448704165005,0.0,0.0,0.0,0.0,0.0,0.0,0.0,0.0,0.0,0.0,0.0,0.0,0.0,0.0,0.0,0.0,0.0,0.0,0.0,0.0,0.0,0,0,0,1,6,,125
0.599888036,0,1735643777088230371,map,0.9915208746795284,-0.2239929380999439,0.0186908708174274,-0.4869467347813693,0.5193342306989832,-0.4956104630827846,0.4975390469027794,0.0,0.0,0.0,1,5.784693835053645e-10,0,1735643777088253974,map,0.9829522303087848,-0.2496035407531004,0.1491324982260746,-0.3678466403107068,0.7379862757896775,-0.5057392150710373,0.2535605495686165,0.0,0.0,0.0,16,6.314361939985247e-07,0,1735643777088270664,map,0.9956621097579424,0.0559631336420932,0.0227602394502691,-0.4957533109694761,0.5037422649823229,-0.4928820546332348,0.5074836601840521,0.0,0.0,0.0,17,0.0071923425421118,0,1735643777088284730,map,1.0078978594127512,-0.2584328487964182,0.235780288102835,-0.48376401460325,0.4770873426752222,-0.5060579941027943,0.5312865067350178,0.0,0.0,0.0,121,3.0243427318055183e-05,0,1735643777088297367,map,1.0071307710855804,0.2043125330164883,0.2406707766447882,-0.4887496613836919,0.4901980443863612,-0.5113159786119386,0.509299141755834,0.0,0.0,0.0,122,0.3411404490470886,0,1735643777088310956,map,1.0102460944125091,0.2052678126557808,0.1423765928184271,-0.4955158426048883,0.5050334525436188,-0.4747280820865481,0.5234868762613514,0.0,0.0,0.0,124,0.658523678779602,0,1735643777088322877,map,0.995525812401084,-0.0290475604608904,0.2414138579402987,-0.551570704295659,0.4846879770255843,-0.4381535127981336,0.5185256235831489,0.0,0.0,0.0,125,0.3095486462116241,0,1735643777088343858,map,0.993688430082359,-0.0241112082503967,0.1458300781034068,0.646737344641524,-0.5492589387550276,0.3462683121207477,-0.4001795612781587,0.0,0.0,0.0,126,0.0402551814913749,0,1735644242188269615,map,0.9751487219300968,0.329824265844839,0.0266823172438162,-0.4950551457662619,0.5000932456116458,-0.4866108242597004,0.5177229510628737,0.0,0.0,0.0,0,0.1532903015613556,0.9300952826676988,0.0911989031867223,0.2336284474701073,1.0,4.932124890981694e-05,0.0005910902683117,-0.0008646930084172,0.0,0.0,0.0,0.0005910902683117,0.0154606843541619,-0.0121365003837134,0.0,0.0,0.0,-0.0008646930084172,-0.0121365003837134,0.0155351907982154,0.0,0.0,0.0,0.0,0.0,0.0,0.0,0.0,0.0,0.0,0.0,0.0,0.0,0.0,0.0,0.0,0.0,0.0,0.0,0.0,0.0,0,0,0,1,7,,125
0.698993738,0,1735643777088230371,map,0.9873397175280616,-0.2229291207319267,0.0210298187165211,-0.4805690685889228,0.5054750768970608,-0.510695795514002,0.5027306648652005,0.0,0.0,0.0,1,2.528977027793644e-09,0,1735643777088253974,map,0.975089254396702,-0.2478124868567761,0.1511129566749142,-0.5024536427693012,0.4785370358660886,-0.4830759666290373,0.534022707979519,0.0,0.0,0.0,16,3.6535591334541095e-06,0,1735643777088270664,map,0.9925481147052588,0.0553678221956859,0.0247042077135437,-0.4975019584114241,0.4777774240580277,-0.4824392555009189,0.5398823012370311,0.0,0.0,0.0,17,0.0074233929626643,0,1735643777088284730,map,1.018133121352066,-0.2623390890820263,0.2362805064650406,-0.4845145398356935,0.5018594087909667,-0.5084766561854213,0.5048111375656055,0.0,0.0,0.0,121,0.000110314154881,0,1735643777088297367,map,1.0173756109849048,0.2091146471337285,0.2411939461427057,-0.5092354622497726,0.4963892405670877,-0.4904365111510701,0.503735043814163,0.0,0.0,0.0,122,0.2654978930950165,0,1735643777088310956,map,1.0065662647495106,0.2039876749535166,0.143597164661022,-0.4769632525684814,0.4966992826619837,-0.4868930151845163,0.5373370172125645,0.0,0.0,0.0,124,0.5849278569221497,0,1735643777088322877,map,1.003375469754618,-0.0287085344532007,0.2420915889085342,0.5056378024506694,-0.5014915277547012,0.4929217138952832,-0.4998648260216456,0.0,0.0,0.0,125,0.4297540187835693,0,1735643777088343858,map,0.9979405738535592,-0.0242538111897134,0.1458791899536498,-0.46977690700355,0.4695338716942141,-0.5298167871084168,0.5273914799047605,0.0,0.0,0.0,126,0.0560517236590385,0,1735644242188269615,map,0.9803225932586968,0.3332585651818178,0.0255922694905778,-0.503648347579334,0.4911139990263418,-0.4828061873358363,0.5215779590925929,0.0,0.0,0.0,0,0.1166689619421958,0.9297419533986722,0.0697284215837602,0.2434723011902647,1.0,4.402998380254643e-05,0.0005703070317657,-0.0007809532338404,0.0,0.0,0.0,0.0005703070317657,0.0167549698717336,-0.0120989037971555,0.0,0.0,0.0,-0.0007809532338404,-0.0120989037971555,0.0142716021408854,0.0,0.0,0.0,0.0,0.0,0.0,0.0,0.0,0.0,0.0,0.0,0.0,0.0,0.0,0.0,0.0,0.0,0.0,0.0,0.0,0.0,0,0,0,1,8,,125
0.798936103,0,1735643777088230371,map,0.9828309059280924,-0.2236712063829076,0.0206876918396618,-0.4853852523373397,0.4967347645103123,-0.5089907345858498,0.5085117133813729,0.0,0.0,0.0,1,1.3648703278690275e-09,0,1735643777088253974,map,0.9882122485510484,-0.2539437384788289,0.1473251834629941,-0.4846085972901365,0.4878408603531619,-0.5078049735589175,0.5189411442843982,0.0,0.0,0.0,16,1.934059582708869e-06,0,1735643777088270664,map,0.9862927040541508,0.0537178795352739,0.025124770703044,-0.4930136757028474,0.4861928740716771,-0.496345519106843,0.523636448726069,0.0,0.0,0.0,17,0.0052825105376541,0,1735643777088284730,map,1.0126213066030996,-0.262703430737732,0.2354186863669165,-0.5055982183438408,0.5345687407530031,-0.4664310558387994,0.490967181353688,0.0,0.0,0.0,121,0.0001429232215741,0,1735643777088297367,map,1.012712988330397,0.2078684427859038,0.2404230469700951,-0.5166682997829358,0.4945045412924078,-0.4871549965612399,0.5011977014771865,0.0,0.0,0.0,122,0.2241228818893432,0,1735643777088310956,map,1.0070767149973283,0.204918160857257,0.1418365275549498,-0.4779356479883048,0.4917766850576468,-0.4792655825460949,0.5477569806058742,0.0,0.0,0.0,124,0.5086115002632141,0,1735643777088322877,map,0.9965078968733724,-0.0297385710978149,0.2413405874544968,0.5746205674551813,-0.5460842376669204,0.4209073156575538,-0.4409537849425675,0.0,0.0,0.0,125,0.4736493825912475,0,1735643777088343858,map,0.9971564847031134,-0.0249466649732955,0.1446857876841568,0.6504652254848331,-0.5683593812699597,0.3382872913272639,-0.3733956516670445,0.0,0.0,0.0,126,0.0531836226582527,0,1735644242188269615,map,0.9832680762627692,0.3365711195091533,0.0220597943516656,-0.4960425641104335,0.49343033311374,-0.4850146895665588,0.524622751945305,0.0,0.0,0.0,0,0.0826106667518615,0.9294708393711304,0.05452365515868,0.2507567621061985,1.0,3.97257859074812e-05,0.0005399173874984,-0.0007099800086017,0.0,0.0,0.0,0.0005399173874984,0.0167427859289821,-0.0116406493671023,0.0,0.0,0.0,-0.0007099800086017,-0.0116406493671023,0.0131103755363621,0.0,0.0,0.0,0.0,0.0,0.0,0.0,0.0,0.0,0.0,0.0,0.0,0.0,0.0,0.0,0.0,0.0,0.0,0.0,0.0,0.0,0,0,0,1,9,,125
0.899705354,0,1735643777088230371,map,0.9783669373248518,-0.2221977879490217,0.0230333206180913,-0.489201817970581,0.4994143198673867,-0.4996409778881804,0.5114937063352948,0.0,0.0,0.0,1,2.623614936414498e-10,0,1735643777088253974,map,0.980264784746075,-0.2513025844287059,0.1495088981247168,-0.5072311149807855,0.4923167374821817,-0.4840539958249105,0.5157834381949336,0.0,0.0,0.0,16,9.128447118200712e-07,0,1735643777088270664,map,0.9784548344354498,0.0528427255045063,0.0288446327797543,-0.4799099518703612,0.4949485286899772,-0.5084209876572751,0.5159655912490824,0.0,0.0,0.0,17,0.0034601225052028,0,1735643777088284730,map,1.0012708275002242,-0.2590778931120409,0.2366227637811284,-0.48711119013166,0.4765514713664091,-0.50379032559836,0.5308640988242909,0.0,0.0,0.0,121,0.0001069756181095,0,1735643777088297367,map,1.0011067608227693,0.2040255641621627,0.2413043892657972,-0.4930045277271164,0.4922963921388663,-0.5058857196446941,0.5085965361533527,0.0,0.0,0.0,122,0.1897106915712356,0,1735643777088310956,map,1.0047914077041658,0.2052232948378921,0.1427100984916721,-0.5016323392753891,0.5086774418153446,-0.467836439277603,0.5203280911745501,0.0,0.0,0.0,124,0.4459958076477051,0,1735643777088322877,map,0.9905826231179472,-0.02937561696016,0.2423156081761088,-0.4682377669231816,0.5497989028333907,-0.527946073725641,0.4469312064598669,0.0,0.0,0.0,125,0.4765833020210266,0,1735643777088343858,map,0.9912838245993976,-0.0246512778128094,0.1457671458181565,-0.4748427415927124,0.4899807960290821,-0.5328451989917519,0.5005189149181714,0.0,0.0,0.0,126,0.0426147356629371,0,1735644242188269615,map,0.9797540480010024,0.3356438395059674,0.0238069133614626,-0.4995168473534491,0.4967746972852234,-0.4791114404528024,0.5235933985207283,0.0,0.0,0.0,0,0.0638332888484001,0.929061930388516,0.0430469192031429,0.2593180505783259,1.0,3.725806632129655e-05,0.0005281621125584,-0.0006704890975726,0.0,0.0,0.0,0.0005281621125584,0.0162539465498219,-0.0113608852554962,0.0,0.0,0.0,-0.0006704890975726,-0.0113608852554962,0.0124589989254527,0.0,0.0,0.0,0.0,0.0,0.0,0.0,0.0,0.0,0.0,0.0,0.0,0.0,0.0,0.0,0.0,0.0,0.0,0.0,0.0,0.0,0,0,0,1,10,,125
0.99967959,0,1735643777088230371,map,0.9851440421424712,-0.2244922716407897,0.0203019073985926,0.4780359053916992,-0.512625994442022,0.5153697313198208,-0.4930418876910991,0.0,0.0,0.0,1,1.858500679741137e-11,0,1735643777088253974,map,0.9851427096741416,-0.2534404496531851,0.1489259145052341,-0.4845983434470918,0.4955785822235964,-0.514881366129122,0.5044437463014025,0.0,0.0,0.0,16,1.7408746089131458e-07,0,1735643777088270664,map,0.9878221384039716,0.0551388076960824,0.0250680705208718,-0.4964800108658289,0.4829351374082255,-0.4885992702619022,0.530614742507878,0.0,0.0,0.0,17,0.0017178384587168,0,1735643777088284730,map,1.0062028269068364,-0.2616259743957748,0.2365736110122635,-0.4985524583430794,0.5121484095793111,-0.4839904353570243,0.5048789075891096,0.0,0.0,0.0,121,3.403711161809042e-05,0,1735643777088297367,map,0.9963784511792738,0.2027983411557551,0.2419945725973804,-0.4918753470025213,0.4930459172805348,-0.5080409409831009,0.5068123604936553,0.0,0.0,0.0,122,0.1624621003866195,0,1735643777088310956,map,0.9969765594015128,0.202728837432599,0.1444761831711143,-0.4693989415396417,0.4974227611659024,-0.4912649201996421,0.5393459080560387,0.0,0.0,0.0,124,0.4023464322090149,0,1735643777088322877,map,0.9993915144978158,-0.0289448939288185,0.2417770479831985,-0.5030839023022997,0.4954756094830471,-0.4948768206783538,0.5064656355637345,0.0,0.0,0.0,125,0.4233051538467407,0,1735643777088343858,map,0.989018293367668,-0.0244653651550056,0.1466780121358864,-0.4660110058112613,0.472080251868673,-0.540469641771779,0.5175582523556859,0.0,0.0,0.0,126,0.0311523880809545,0,1735644242188269615,map,0.9797540480010024,0.3356438395059674,0.0238069133614626,-0.4995168473534491,0.4967746972852234,-0.4791114404528024,0.5235933985207283,0.0,0.0,0.0,0,0.0475207269191741,0.9285531220829738,0.0355911718265791,0.2685259167283668,1.0,3.645982830088424e-05,0.0005180828369452,-0.0006563859309824,0.0,0.0,0.0,0.0005180828369452,0.015332196734724,-0.0110145927439157,0.0,0.0,0.0,-0.0006563859309824,-0.0110145927439157,0.0121742106498731,0.0,0.0,0.0,0.0,0.0,0.0,0.0,0.0,0.0,0.0,0.0,0.0,0.0,0.0,0.0,0.0,0.0,0.0,0.0,0.0,0.0,0,0,0,1,11,,125
1.100199349,0,1735643777088230371,map,0.9757136142420756,-0.2218615669938901,0.0240189314742831,-0.4817336044381171,0.487076000464831,-0.5107516110063722,0.5194444108666864,0.0,0.0,0.0,1,3.5084608829283326e-11,0,1735643777088253974,map,0.9884475938102162,-0.2548857341006433,0.1473349164979032,-0.4986557598352639,0.5053771323048516,-0.5024506403821571,0.4934366639255745,0.0,0.0,0.0,16,8.903403880822226e-08,0,1735643777088270664,map,0.9802405320160732,0.0539740913077872,0.0279121137898745,0.7729089929453992,-0.5555552985339501,0.1720292663490325,-0.253724122649771,0.0,0.0,0.0,17,0.0020423242822289,0,1735643777088284730,map,1.0108243887802268,-0.263511911366833,0.2354838582198357,-0.478349813539807,0.5063603066689758,-0.5042940039913664,0.5103609049044492,0.0,0.0,0.0,121,1.6325606338796206e-05,0,1735643777088297367,map,1.0073683795423642,0.2092189539082083,0.2409042816510731,-0.5084225360897922,0.4815099545389154,-0.4941472326129127,0.515240915472515,0.0,0.0,0.0,122,0.1426844149827957,0,1735643777088310956,map,1.0012494507563343,0.2059683819415234,0.1422942635516361,-0.4782114079571103,0.4930571572421524,-0.4794472807036328,0.5462039857213216,0.0,0.0,0.0,124,0.3411683440208435,0,1735643777088322877,map,0.9818193387531948,-0.0295062955804649,0.2426372949918849,-0.4361037437068766,0.4469082733976461,-0.5501468107321865,0.5544592018668149,0.0,0.0,0.0,125,0.3899938762187958,0,1735643777088343858,map,0.9921492633177288,-0.0241174123789658,0.1450254154842618,-0.4832515168446708,0.4747358489656167,-0.5130586084421537,0.5271287408950689,0.0,0.0,0.0,126,0.0258265174925327,0,1735644242188269615,map,0.9797540480010024,0.3356438395059674,0.0238069133614626,-0.4995168473534491,0.4967746972852234,-0.4791114404528024,0.5235933985207283,0.0,0.0,0.0,0,0.0351882949471473,0.9278832525472356,0.0310961319413117,0.2795219378109254,1.0,3.835748641982078e-05,0.0005080312602916,-0.0006827119983135,0.0,0.0,0.0,0.0005080312602916,0.0142767728927686,-0.0106404131020548,0.0,0.0,0.0,-0.0006827119983135,-0.0106404131020548,0.0124897303718458,0.0,0.0,0.0,0.0,0.0,0.0,0.0,0.0,0.0,0.0,0.0,0.0,0.0,0.0,0.0,0.0,0.0,0.0,0.0,0.0,0.0,0,0,0,1,12,,125
1.199947326,0,1735643777088230371,map,0.9780626360227108,-0.2231629931471247,0.0220972549978641,-0.4801408254209526,0.5017860188667381,-0.5069791799617083,0.510536668731356,0.0,0.0,0.0,1,2.3454763131702805e-10,0,1735643777088253974,map,0.975613903319926,-0.2508904482908245,0.1505865490409258,-0.494436826082805,0.4786438560271616,-0.5012116273821651,0.5246133706621804,0.0,0.0,0.0,16,4.088572893579112e-07,0,1735643777088270664,map,0.9811103446827536,0.0548297693738479,0.0264491413593868,-0.4878098216096029,0.4796695004211823,-0.4949490174768166,0.5357090800104427,0.0,0.0,0.0,17,0.0036074225790798,0,1735643777088284730,map,1.003592641878557,-0.2619205389591791,0.2360535906277403,-0.4872641964821753,0.498629575125681,-0.5018249426761722,0.5119705817179535,0.0,0.0,0.0,121,2.5111849026870917e-05,0,1735643777088297367,map,1.0008132819411486,0.2068914529439712,0.2407106587560996,-0.5075945814588648,0.4949623439811547,-0.4897958790956185,0.5074051790583453,0.0,0.0,0.0,122,0.16839399933815,0,1735643777088310956,map,0.99422428197088,0.2035809824099645,0.1436472183446386,-0.476872315812558,0.492131659034252,-0.4831931854506695,0.5449069371202736,0.0,0.0,0.0,124,0.3089015483856201,0,1735643777088322877,map,0.9895359092161488,-0.0294542279700219,0.2421510290950201,-0.4935549830333153,0.4898038488604027,-0.5029359282340254,0.5133723019952471,0.0,0.0,0.0,125,0.360746830701828,0,1735643777088343858,map,0.988009580947795,-0.024291028829235,0.1457301281476412,-0.4889054370439819,0.4666620677283239,-0.5078766640658767,0.5340966974899537,0.0,0.0,0.0,126,0.0327286422252655,0,1735644242188269615,map,0.9797540480010024,0.3356438395059674,0.0238069133614626,-0.4995168473534491,0.4967746972852234,-0.4791114404528024,0.5235933985207283,0.0,0.0,0.0,0,0.0259234942495822,0.927095973174442,0.0283851022681111,0.291900726089811,1.0,4.2844616271286544e-05,0.0004945639854657,-0.0007471424668167,0.0,0.0,0.0,0.0004945639854657,0.0132667557759926,-0.01022463093462,0.0,0.0,0.0,-0.0007471424668167,-0.01022463093462,0.0133677946727456,0.0,0.0,0.0,0.0,0.0,0.0,0.0,0.0,0.0,0.0,0.0,0.0,0.0,0.0,0.0,0.0,0.0,0.0,0.0,0.0,0.0,0,0,0,1,13,,125
1.30079764,0,1735643777088230371,map,0.9714741046141486,-0.2222936799829035,0.0228099470864483,-0.4847279060961961,0.4973540816012454,-0.503176067910372,0.5142874869646706,0.0,0.0,0.0,1,1.0429930252797703e-09,0,1735643777088253974,map,0.9830380330175984,-0.2552402225123806,0.1465956539989923,-0.4938569253585874,0.5008817071582996,-0.5026241953577307,0.5025850882691848,0.0,0.0,0.0,16,3.470740068678424e-07,0,1735643777088270664,map,0.9748490147615508,0.0538237552869342,0.0268605448803341,-0.4884848461397223,0.4845837806926245,-0.4980614252281899,0.5277271371468012,0.0,0.0,0.0,17,0.0055589517578482,0,1735643777088284730,map,0.999806805323346,-0.2622356113861436,0.2345364232472457,-0.490334163949946,0.5031296951541276,-0.4916944384432316,0.5144603937346562,0.0,0.0,0.0,121,2.315974597877357e-05,0,1735643777088297367,map,1.0002818622593574,0.208038120275221,0.2391610273993732,-0.5202129411173937,0.4892287879596909,-0.4801233029948487,0.509426444981805,0.0,0.0,0.0,122,0.1679266393184662,0,1735643777088310956,map,0.9904990751102548,0.2032818058874558,0.1423162400027768,-0.4766797218361171,0.5006306563588542,-0.4820397545928017,0.5383150227293093,0.0,0.0,0.0,124,0.2713311910629272,0,1735643777088322877,map,0.9848306489591478,-0.0293035081385904,0.2436745215361027,0.6080387829101946,-0.5308332547580791,0.3821082773594933,-0.4499979538768974,0.0,0.0,0.0,125,0.350788950920105,0,1735643777088343858,map,0.9849106985390624,-0.0241475394515429,0.1474173522201981,-0.4794715171576476,0.4867092326635125,-0.5264365309280864,0.5060491734792584,0.0,0.0,0.0,126,0.0391251482069492,0,1735644242188269615,map,0.9797540480010024,0.3356438395059674,0.0238069133614626,-0.4995168473534491,0.4967746972852234,-0.4791114404528024,0.5235933985207283,0.0,0.0,0.0,0,0.0193490553647279,0.92630361516245,0.0251001672336619,0.3044771770761705,1.0,4.794609238680579e-05,0.0004930749662183,-0.0008233208198774,0.0,0.0,0.0,0.0004930749662183,0.0124594107397688,-0.0100313668714794,0.0,0.0,0.0,-0.0008233208198774,-0.0100313668714794,0.0144691247484808,0.0,0.0,0.0,0.0,0.0,0.0,0.0,0.0,0.0,0.0,0.0,0.0,0.0,0.0,0.0,0.0,0.0,0.0,0.0,0.0,0.0,0,0,0,1,14,,125
1.400582107,0,1735643777088230371,map,0.9714741046141486,-0.2222936799829035,0.0228099470864483,-0.4847279060961961,0.4973540816012454,-0.503176067910372,0.5142874869646706,0.0,0.0,0.0,1,1.5386598661848436e-09,0,1735643777088253974,map,0.9800310432741272,-0.2540998680892751,0.149644279032112,-0.4937085779644565,0.4933238936260508,-0.5009070520433341,0.5118354239745464,0.0,0.0,0.0,16,4.121706353998889e-07,0,1735643777088270664,map,0.9748490147615508,0.0538237552869342,0.0268605448803341,-0.4884848461397223,0.4845837806926245,-0.4980614252281899,0.5277271371468012,0.0,0.0,0.0,17,0.0069362120702862,0,1735643777088284730,map,1.004703206662735,-0.2645214994877349,0.2357618755426305,-0.4871665169615165,0.5171612165788116,-0.4896577128577589,0.5054190192871818,0.0,0.0,0.0,121,1.5262137821991928e-05,0,1735643777088297367,map,1.002423813568912,0.2094903935454627,0.2409230082417779,-0.5042433241535682,0.4894248447967799,-0.4931297740589054,0.5128596467639275,0.0,0.0,0.0,122,0.1474316865205764,0,1735643777088310956,map,0.9891017454288475,0.2026758353460511,0.1447657354438241,-0.4678137266250073,0.4903588499653325,-0.4925319416270957,0.5459952398317613,0.0,0.0,0.0,124,0.2433324158191681,0,1735643777088322877,map,0.991801504426176,-0.0293604817491623,0.2420129953747128,-0.4699344202069443,0.4922701585939534,-0.5262420713368897,0.5098048783777053,0.0,0.0,0.0,125,0.3118404746055603,0,1735643777088343858,map,0.9904843245827925,-0.0243275693650864,0.1445197581831808,-0.4840475198888405,0.4647460163390682,-0.5125465604614464,0.5357286273343717,0.0,0.0,0.0,126,0.0352618508040905,0,1735644242188269615,map,0.9797540480010024,0.3356438395059674,0.0238069133614626,-0.4995168473534491,0.4967746972852234,-0.4791114404528024,0.5235933985207283,0.0,0.0,0.0,0,0.0147854965180158,0.9255312289185222,0.0209035667817698,0.3169471877911002,1.0,5.3101813365011904e-05,0.000505582852248,-0.0009032760715487,0.0,0.0,0.0,0.000505582852248,0.0118753437320571,-0.0100952522164666,0.0,0.0,0.0,-0.0009032760715487,-0.0100952522164666,0.0156815327731419,0.0,0.0,0.0,0.0,0.0,0.0,0.0,0.0,0.0,0.0,0.0,0.0,0.0,0.0,0.0,0.0,0.0,0.0,0.0,0.0,0.0,0,0,0,1,15,,125
1.500356244,0,1735643777088230371,map,0.9714741046141486,-0.2222936799829035,0.0228099470864483,-0.4847279060961961,0.4973540816012454,-0.503176067910372,0.5142874869646706,0.0,0.0,0.0,1,4.0237180254365507e-10,0,1735643777088253974,map,0.9786381203273348,-0.2544344958909859,0.1497202420973321,-0.4913297392192571,0.4869963759616005,-0.5117332113976223,0.5094690741464892,0.0,0.0,0.0,16,1.476763742402909e-07,0,1735643777088270664,map,0.9748490147615508,0.0538237552869342,0.0268605448803341,-0.4884848461397223,0.4845837806926245,-0.4980614252281899,0.5277271371468012,0.0,0.0,0.0,17,0.0051039881072938,0,1735643777088284730,map,1.0094596193453684,-0.2672396763394273,0.2341253943621858,-0.3241633090470978,0.7588639058189831,-0.5131338643800607,0.2360876081864075,0.0,0.0,0.0,121,5.333236913429573e-06,0,1735643777088297367,map,1.0039661269507376,0.2100347219862779,0.2394896058428204,-0.5181202409194846,0.4789918009921485,-0.4838402724403927,0.5177034491836418,0.0,0.0,0.0,122,0.1261663287878036,0,1735643777088310956,map,0.9891017454288475,0.2026758353460511,0.1447657354438241,-0.4678137266250073,0.4903588499653325,-0.4925319416270957,0.5459952398317613,0.0,0.0,0.0,124,0.2161176055669784,0,1735643777088322877,map,0.9898904258149208,-0.0303086331017952,0.2415388517122381,-0.4420696987406651,0.4625400355651356,-0.5463373905317398,0.5405058303679156,0.0,0.0,0.0,125,0.2735226452350616,0,1735643777088343858,map,0.9904843245827925,-0.0243275693650864,0.1445197581831808,-0.4840475198888405,0.4647460163390682,-0.5125465604614464,0.5357286273343717,0.0,0.0,0.0,126,0.0274106543511152,0,1735644242188269615,map,0.9797540480010024,0.3356438395059674,0.0238069133614626,-0.4995168473534491,0.4967746972852234,-0.4791114404528024,0.5235933985207283,0.0,0.0,0.0,0,0.0116833923384547,0.925056505614882,0.0153260564707971,0.3252462951525064,1.0,5.316338325498513e-05,0.0005137005357962,-0.000905918012035,0.0,0.0,0.0,0.0005137005357962,0.0115997640678386,-0.0101586243061392,0.0,0.0,0.0,-0.000905918012035,-0.0101586243061392,0.0157345647197627,0.0,0.0,0.0,0.0,0.0,0.0,0.0,0.0,0.0,0.0,0.0,0.0,0.0,0.0,0.0,0.0,0.0,0.0,0.0,0.0,0.0,0,0,0,1,16,,125
1.598904991,0,1735643777088230371,map,0.9714741046141486,-0.2222936799829035,0.0228099470864483,-0.4847279060961961,0.4973540816012454,-0.503176067910372,0.5142874869646706,0.0,0.0,0.0,1,1.5240585182763056e-10,0,1735643777088253974,map,0.9743761433066822,-0.254770850123022,0.1483516092539075,-0.4896846676214065,0.4804356276117815,-0.5128999001576401,0.5160661066530806,0.0,0.0,0.0,16,7.7827081668147e-08,0,1735643777088270664,map,0.9748490147615508,0.0538237552869342,0.0268605448803341,-0.4884848461397223,0.4845837806926245,-0.4980614252281899,0.5277271371468012,0.0,0.0,0.0,17,0.0036347962450236,0,1735643777088284730,map,1.0060361786724177,-0.2685060177772924,0.2316047171927575,-0.3326437060665377,0.7756090427983128,-0.4874025362164687,0.2240927157083821,0.0,0.0,0.0,121,3.180269004587899e-06,0,1735643777088297367,map,0.992236935685642,0.2052626634842257,0.2383051460914855,-0.5059337156595759,0.4952483381819799,-0.4971221551014549,0.5016270744229896,0.0,0.0,0.0,122,0.1257278323173523,0,1735643777088310956,map,0.9891017454288475,0.2026758353460511,0.1447657354438241,-0.4678137266250073,0.4903588499653325,-0.4925319416270957,0.5459952398317613,0.0,0.0,0.0,124,0.1939009726047516,0,1735643777088322877,map,0.983681534366772,-0.0315515713185062,0.2398386346552636,-0.457920064615104,0.4595986909940815,-0.532806418370588,0.543319039057653,0.0,0.0,0.0,125,0.24983811378479,0,1735643777088343858,map,0.9904843245827925,-0.0243275693650864,0.1445197581831808,-0.4840475198888405,0.4647460163390682,-0.5125465604614464,0.5357286273343717,0.0,0.0,0.0,126,0.0228320080786943,0,1735644242188269615,map,0.9797540480010024,0.3356438395059674,0.0238069133614626,-0.4995168473534491,0.4967746972852234,-0.4791114404528024,0.5235933985207283,0.0,0.0,0.0,0,0.0097417579963803,0.9247859733555964,0.008699306792203,0.3307058312516686,1.0,5.120712866948369e-05,0.0005121668502163,-0.0008762604073783,0.0,0.0,0.0,0.0005121668502163,0.0116200459858685,-0.0101399218359303,0.0,0.0,0.0,-0.0008762604073783,-0.0101399218359303,0.0152859066398773,0.0,0.0,0.0,0.0,0.0,0.0,0.0,0.0,0.0,0.0,0.0,0.0,0.0,0.0,0.0,0.0,0.0,0.0,0.0,0.0,0.0,0,0,0,1,17,,125
1.698915977,0,1735643777088230371,map,0.9714741046141486,-0.2222936799829035,0.0228099470864483,-0.4847279060961961,0.4973540816012454,-0.503176067910372,0.5142874869646706,0.0,0.0,0.0,1,8.595884420925515e-11,0,1735643777088253974,map,0.9722956311535722,-0.2546201061101862,0.1486975170973367,-0.4955664214683346,0.4840046550083789,-0.5051764913119373,0.5147330652571771,0.0,0.0,0.0,16,6.320215106825344e-08,0,1735643777088270664,map,0.9748490147615508,0.0538237552869342,0.0268605448803341,-0.4884848461397223,0.4845837806926245,-0.4980614252281899,0.5277271371468012,0.0,0.0,0.0,17,0.0027907032053917,0,1735643777088284730,map,1.0060361786724177,-0.2685060177772924,0.2316047171927575,-0.3326437060665377,0.7756090427983128,-0.4874025362164687,0.2240927157083821,0.0,0.0,0.0,121,2.9031396024947757e-06,0,1735643777088297367,map,1.0013819467528775,0.2119250142477698,0.2355038724800311,-0.5198696096762887,0.4887674923688805,-0.480315471683851,0.5100382093525732,0.0,0.0,0.0,122,0.0962729156017303,0,1735643777088310956,map,0.9891017454288475,0.2026758353460511,0.1447657354438241,-0.4678137266250073,0.4903588499653325,-0.4925319416270957,0.5459952398317613,0.0,0.0,0.0,124,0.1723402738571167,0,1735643777088322877,map,0.9813439933819144,-0.0312196357419467,0.2394793806406915,-0.4541384068470347,0.4671282901690097,-0.5348681231225255,0.5380200357027619,0.0,0.0,0.0,125,0.2493527233600616,0,1735643777088343858,map,0.9904843245827925,-0.0243275693650864,0.1445197581831808,-0.4840475198888405,0.4647460163390682,-0.5125465604614464,0.5357286273343717,0.0,0.0,0.0,126,0.0205593518912792,0,1735644242188269615,map,0.9797540480010024,0.3356438395059674,0.0238069133614626,-0.4995168473534491,0.4967746972852234,-0.4791114404528024,0.5235933985207283,0.0,0.0,0.0,0,0.0077686859294772,0.9246552750568076,0.0032435432190569,0.3338207098642513,1.0,4.865268295805249e-05,0.0004958351396146,-0.0008345001323403,0.0,0.0,0.0,0.0004958351396146,0.0114804989303656,-0.0098654915466233,0.0,0.0,0.0,-0.0008345001323403,-0.0098654915466233,0.0146016315734377,0.0,0.0,0.0,0.0,0.0,0.0,0.0,0.0,0.0,0.0,0.0,0.0,0.0,0.0,0.0,0.0,0.0,0.0,0.0,0.0,0.0,0,0,0,1,18,,125
1.799557505,0,1735643777088230371,map,0.9714741046141486,-0.2222936799829035,0.0228099470864483,-0.4847279060961961,0.4973540816012454,-0.503176067910372,0.5142874869646706,0.0,0.0,0.0,1,4.8106092026545255e-11,0,1735643777088253974,map,0.9722956311535722,-0.2546201061101862,0.1486975170973367,-0.4955664214683346,0.4840046550083789,-0.5051764913119373,0.5147330652571771,0.0,0.0,0.0,16,4.641905704261262e-08,0,1735643777088270664,map,0.9748490147615508,0.0538237552869342,0.0268605448803341,-0.4884848461397223,0.4845837806926245,-0.4980614252281899,0.5277271371468012,0.0,0.0,0.0,17,0.002226514276117,0,1735643777088284730,map,1.001059547174289,-0.2688917603485458,0.2286739974685423,-0.4729926846381547,0.516822249552839,-0.5146427403640697,0.4942828465934205,0.0,0.0,0.0,121,2.060637370959739e-06,0,1735643777088297367,map,0.9937067561814418,0.2096295346986884,0.2347423930433299,-0.5141471808628577,0.4880898037610411,-0.4854139408068204,0.5116584074806909,0.0,0.0,0.0,122,0.0891268476843833,0,1735643777088310956,map,0.9891017454288475,0.2026758353460511,0.1447657354438241,-0.4678137266250073,0.4903588499653325,-0.4925319416270957,0.5459952398317613,0.0,0.0,0.0,124,0.1520538032054901,0,1735643777088322877,map,0.9801532303362288,-0.0307609616515051,0.237689344033255,-0.4644645659288075,0.4760022571365315,-0.5279578306902648,0.5281619516874734,0.0,0.0,0.0,125,0.2417256385087967,0,1735643777088343858,map,0.9904843245827925,-0.0243275693650864,0.1445197581831808,-0.4840475198888405,0.4647460163390682,-0.5125465604614464,0.5357286273343717,0.0,0.0,0.0,126,0.0187983177602291,0,1735644242188269615,map,0.9797540480010024,0.3356438395059674,0.0238069133614626,-0.4995168473534491,0.4967746972852234,-0.4791114404528024,0.5235933985207283,0.0,0.0,0.0,0,0.0058887018822133,0.9246164893311116,-0.0004508020426957,0.3351844731712556,1.0,4.611909341926402e-05,0.0004723177348342,-0.0007915311746351,0.0,0.0,0.0,0.0004723177348342,0.0111219295089915,-0.0094369429746375,0.0,0.0,0.0,-0.0007915311746351,-0.0094369429746375,0.0138666019549555,0.0,0.0,0.0,0.0,0.0,0.0,0.0,0.0,0.0,0.0,0.0,0.0,0.0,0.0,0.0,0.0,0.0,0.0,0.0,0.0,0.0,0,0,0,1,19,,125
1.900695835,0,1735643777088230371,map,0.9714741046141486,-0.2222936799829035,0.0228099470864483,-0.4847279060961961,0.4973540816012454,-0.503176067910372,0.5142874869646706,0.0,0.0,0.0,1,4.1351120444454985e-11,0,1735643777088253974,map,0.9678704466207791,-0.2533224966334406,0.1479301224616817,-0.4994997367128023,0.4970875520022564,-0.495754057435143,0.5075745198538224,0.0,0.0,0.0,16,4.773926320922328e-08,0,1735643777088270664,map,0.9748490147615508,0.0538237552869342,0.0268605448803341,-0.4884848461397223,0.4845837806926245,-0.4980614252281899,0.5277271371468012,0.0,0.0,0.0,17,0.0020925782155245,0,1735643777088284730,map,0.9830610527259652,-0.2610092564333224,0.2323201982815776,-0.4881431374771541,0.4924335546403243,-0.4980233617982069,0.5207669370279445,0.0,0.0,0.0,121,4.848290700465441e-06,0,1735643777088297367,map,0.9778614863543496,0.2019870531556676,0.2378050497578041,0.4965258668268337,-0.501199290301574,0.5036583709156293,-0.4985875854648554,0.0,0.0,0.0,122,0.0912305638194084,0,1735643777088310956,map,0.976935951935694,0.2014627990545555,0.1401145114656364,-0.4794603177668869,0.5032406764903007,-0.4816706022406997,0.5337228270830678,0.0,0.0,0.0,124,0.1349234879016876,0,1735643777088322877,map,0.9783635107993248,-0.0304172852769052,0.2373017592694334,-0.5120950211487246,0.4889329010312747,-0.4773356662948918,0.5204363258715141,0.0,0.0,0.0,125,0.2515257894992828,0,1735643777088343858,map,0.9709119504284086,-0.0258095301859483,0.1432320867564024,-0.4922278007267177,0.4755782891893955,-0.503008919433889,0.5277490975959862,0.0,0.0,0.0,126,0.0184117779135704,0,1735644242188269615,map,0.9797540480010024,0.3356438395059674,0.0238069133614626,-0.4995168473534491,0.4967746972852234,-0.4791114404528024,0.5235933985207283,0.0,0.0,0.0,0,0.0043777874670922,0.924718181764318,-0.0024869879691924,0.3340907716754259,1.0,4.4009624416758416e-05,0.0004447676187673,-0.0007540678180633,0.0,0.0,0.0,0.0004447676187673,0.01064460804296,-0.0089227832136273,0.0,0.0,0.0,-0.0007540678180633,-0.0089227832136273,0.0131959993334853,0.0,0.0,0.0,0.0,0.0,0.0,0.0,0.0,0.0,0.0,0.0,0.0,0.0,0.0,0.0,0.0,0.0,0.0,0.0,0.0,0.0,0,0,0,1,20,,125
2.001179555,0,1735643777088230371,map,0.9714741046141486,-0.2222936799829035,0.0228099470864483,-0.4847279060961961,0.4973540816012454,-0.503176067910372,0.5142874869646706,0.0,0.0,0.0,1,3.471255574649668e-11,0,1735643777088253974,map,0.9701868241249896,-0.2556830932922401,0.1439941758803715,-0.4981969937373601,0.5068769067701667,-0.4942213569878393,0.5006204221875735,0.0,0.0,0.0,16,2.6421403731546892e-08,0,1735643777088270664,map,0.9748490147615508,0.0538237552869342,0.0268605448803341,-0.4884848461397223,0.4845837806926245,-0.4980614252281899,0.5277271371468012,0.0,0.0,0.0,17,0.0020441019441932,0,1735643777088284730,map,0.9832188359268056,-0.2625973617673083,0.2301205563874005,-0.492460899360733,0.5057982334053752,-0.4843210463593177,0.5168012516802141,0.0,0.0,0.0,121,3.5643927276396425e-06,0,1735643777088297367,map,0.9728428003111766,0.201796556229167,0.2372429506383171,-0.4936417083542824,0.4945557188416252,-0.5078322452548707,0.5038242902178364,0.0,0.0,0.0,122,0.079512670636177,0,1735643777088310956,map,0.9715418101509206,0.2011264460496838,0.1397254812002989,-0.4758157936063142,0.5015912642118695,-0.4823691154603021,0.5378899243071749,0.0,0.0,0.0,124,0.1216235980391502,0,1735643777088322877,map,0.9689931171742894,-0.0304843878057908,0.2377475830118755,-0.5086570029690043,0.4920776428327301,-0.4831155312139806,0.5154871775850577,0.0,0.0,0.0,125,0.2676130831241607,0,1735643777088343858,map,0.9696920990858076,-0.0253111471822618,0.140901033369683,-0.4946497743997302,0.4796673439650913,-0.5017281141263013,0.5229815860190843,0.0,0.0,0.0,126,0.017727930098772,0,1735644242188269615,map,0.9797540480010024,0.3356438395059674,0.0238069133614626,-0.4995168473534491,0.4967746972852234,-0.4791114404528024,0.5235933985207283,0.0,0.0,0.0,0,0.0032826671376824,0.9248600141090558,-0.0035513418421082,0.3321894324144856,1.0,4.231625629623664e-05,0.0004205690122413,-0.0007235532548374,0.0,0.0,0.0,0.0004205690122413,0.010160378929012,-0.008457414818761,0.0,0.0,0.0,-0.0007235532548374,-0.008457414818761,0.012639920232547,0.0,0.0,0.0,0.0,0.0,0.0,0.0,0.0,0.0,0.0,0.0,0.0,0.0,0.0,0.0,0.0,0.0,0.0,0.0,0.0,0.0,0,0,0,1,21,,125
2.100699653,0,1735643777088230371,map,0.9714741046141486,-0.2222936799829035,0.0228099470864483,-0.4847279060961961,0.4973540816012454,-0.503176067910372,0.5142874869646706,0.0,0.0,0.0,1,2.366084758675946e-11,0,1735643777088253974,map,0.960136805958445,-0.251859204020962,0.1475896457360549,-0.5023350817254078,0.4944068866443012,-0.4876347731002123,0.5152025079229733,0.0,0.0,0.0,16,3.784070656820404e-08,0,1735643777088270664,map,0.9748490147615508,0.0538237552869342,0.0268605448803341,-0.4884848461397223,0.4845837806926245,-0.4980614252281899,0.5277271371468012,0.0,0.0,0.0,17,0.0019626233261078,0,1735643777088284730,map,0.98176392495171,-0.2633269325112953,0.2290111590985633,-0.4901738730158527,0.5045599680464591,-0.4915886977401799,0.5133121517280774,0.0,0.0,0.0,121,2.5782055672607385e-06,0,1735643777088297367,map,0.9751211401819848,0.2041460944716134,0.2349222059768823,-0.5004591512464281,0.4914970763705598,-0.4951350512969903,0.5126524581332109,0.0,0.0,0.0,122,0.0660612657666206,0,1735643777088310956,map,0.9732920457234812,0.2034284241297376,0.1368630697215809,-0.4815456562946122,0.4991608229520424,-0.4766837646227638,0.5401155823328005,0.0,0.0,0.0,124,0.1050288677215576,0,1735643777088322877,map,0.9724311232173236,-0.0303619449589492,0.2355139069638237,-0.4916097302174742,0.5027997525727351,-0.5034429349072662,0.5020532773125344,0.0,0.0,0.0,125,0.2597532272338867,0,1735643777088343858,map,0.969926372574776,-0.0252578987206591,0.138889353439587,-0.4869437292799179,0.4786074097090818,-0.5107462606992162,0.5224547914109862,0.0,0.0,0.0,126,0.0164080690592527,0,1735644242188269615,map,0.9797540480010024,0.3356438395059674,0.0238069133614626,-0.4995168473534491,0.4967746972852234,-0.4791114404528024,0.5235933985207283,0.0,0.0,0.0,0,0.0025131476577371,0.9250131392659396,-0.0037709636820187,0.3299399111568881,1.0,4.08851836880368e-05,0.000400746016755,-0.0006978980947317,0.0,0.0,0.0,0.000400746016755,0.0096995564319517,-0.0080626119485059,0.0,0.0,0.0,-0.0006978980947317,-0.0080626119485059,0.0121716456674509,0.0,0.0,0.0,0.0,0.0,0.0,0.0,0.0,0.0,0.0,0.0,0.0,0.0,0.0,0.0,0.0,0.0,0.0,0.0,0.0,0.0,0,0,0,1,22,,125
2.198549177,0,1735643777088230371,map,0.9714741046141486,-0.2222936799829035,0.0228099470864483,-0.4847279060961961,0.4973540816012454,-0.503176067910372,0.5142874869646706,0.0,0.0,0.0,1,7.769122151168872e-12,0,1735643777088253974,map,0.960136805958445,-0.251859204020962,0.1475896457360549,-0.5023350817254078,0.4944068866443012,-0.4876347731002123,0.5152025079229733,0.0,0.0,0.0,16,1.71435559082056e-08,0,1735643777088270664,map,0.9748490147615508,0.0538237552869342,0.0268605448803341,-0.4884848461397223,0.4845837806926245,-0.4980614252281899,0.5277271371468012,0.0,0.0,0.0,17,0.0015652604633942,0,1735643777088284730,map,0.9787185223674671,-0.2623220107347729,0.2293985767640282,-0.4926621029749419,0.5123796856669283,-0.4848857778238718,0.509545770733412,0.0,0.0,0.0,121,1.5853964896450634e-06,0,1735643777088297367,map,0.9658088779465548,0.1998856826921462,0.2373372688061614,-0.4938922013469504,0.4943540647330842,-0.5069322464963356,0.5046823254213681,0.0,0.0,0.0,122,0.0681750178337097,0,1735643777088310956,map,0.9732920457234812,0.2034284241297376,0.1368630697215809,-0.4815456562946122,0.4991608229520424,-0.4766837646227638,0.5401155823328005,0.0,0.0,0.0,124,0.1026655882596969,0,1735643777088322877,map,0.9669135375102972,-0.0299914871972914,0.2365918989207961,0.5086512096668673,-0.506979110904799,0.4891644590158824,-0.4949386427086809,0.0,0.0,0.0,125,0.256399542093277,0,1735643777088343858,map,0.969926372574776,-0.0252578987206591,0.138889353439587,-0.4869437292799179,0.4786074097090818,-0.5107462606992162,0.5224547914109862,0.0,0.0,0.0,126,0.0138759175315499,0,1735644242188269615,map,0.9797540480010024,0.3356438395059674,0.0238069133614626,-0.4995168473534491,0.4967746972852234,-0.4791114404528024,0.5235933985207283,0.0,0.0,0.0,0,0.0022414943668991,0.9251404928019348,-0.001563249234597,0.3275628864193892,1.0,3.946438331481876e-05,0.0003895078022058,-0.0006742145944289,0.0,0.0,0.0,0.0003895078022058,0.009385064654874,-0.0078275150237255,0.0,0.0,0.0,-0.0006742145944289,-0.0078275150237255,0.0117667491071686,0.0,0.0,0.0,0.0,0.0,0.0,0.0,0.0,0.0,0.0,0.0,0.0,0.0,0.0,0.0,0.0,0.0,0.0,0.0,0.0,0.0,0,0,0,1,23,,125
2.299978867,0,1735643777088230371,map,0.9714741046141486,-0.2222936799829035,0.0228099470864483,-0.4847279060961961,0.4973540816012454,-0.503176067910372,0.5142874869646706,0.0,0.0,0.0,1,3.1430981949076564e-12,0,1735643777088253974,map,0.960136805958445,-0.251859204020962,0.1475896457360549,-0.5023350817254078,0.4944068866443012,-0.4876347731002123,0.5152025079229733,0.0,0.0,0.0,16,8.925925776281929e-09,0,1735643777088270664,map,0.9748490147615508,0.0538237552869342,0.0268605448803341,-0.4884848461397223,0.4845837806926245,-0.4980614252281899,0.5277271371468012,0.0,0.0,0.0,17,0.0013403727207332,0,1735643777088284730,map,0.9771484247716706,-0.2615594539474609,0.2294337146621297,-0.4983880286945591,0.5085189098155509,-0.4772651013274648,0.5150105962685031,0.0,0.0,0.0,121,1.0333908448956208e-06,0,1735643777088297367,map,0.965252326327502,0.2006197581058374,0.2371206476237267,-0.495242365571464,0.4924315525144972,-0.5043034903180252,0.5078623387143403,0.0,0.0,0.0,122,0.0594686158001422,0,1735643777088310956,map,0.9732920457234812,0.2034284241297376,0.1368630697215809,-0.4815456562946122,0.4991608229520424,-0.4766837646227638,0.5401155823328005,0.0,0.0,0.0,124,0.0964832082390785,0,1735643777088322877,map,0.967647940818477,-0.0295659184126083,0.23596509644937,0.5122355387178109,-0.5097462063046956,0.4855896180678081,-0.491910846452083,0.0,0.0,0.0,125,0.2483829855918884,0,1735643777088343858,map,0.969926372574776,-0.0252578987206591,0.138889353439587,-0.4869437292799179,0.4786074097090818,-0.5107462606992162,0.5224547914109862,0.0,0.0,0.0,126,0.0124553656205534,0,1735644242188269615,map,0.9797540480010024,0.3356438395059674,0.0238069133614626,-0.4995168473534491,0.4967746972852234,-0.4791114404528024,0.5235933985207283,0.0,0.0,0.0,0,0.001833880203776,0.9252654393604424,-0.0005704299537493,0.3254791795330167,1.0,3.8179101787141e-05,0.0003761314455515,-0.000652110415762,0.0,0.0,0.0,0.0003761314455515,0.009016691167116,-0.0075489496849694,0.0,0.0,0.0,-0.000652110415762,-0.0075489496849694,0.0113763300853012,0.0,0.0,0.0,0.0,0.0,0.0,0.0,0.0,0.0,0.0,0.0,0.0,0.0,0.0,0.0,0.0,0.0,0.0,0.0,0.0,0.0,0,0,0,1,24,,125
2.399661651,0,1735643777088230371,map,0.9714741046141486,-0.2222936799829035,0.0228099470864483,-0.4847279060961961,0.4973540816012454,-0.503176067910372,0.5142874869646706,0.0,0.0,0.0,1,6.0546658832427705e-12,0,1735643777088253974,map,0.960136805958445,-0.251859204020962,0.1475896457360549,-0.5023350817254078,0.4944068866443012,-0.4876347731002123,0.5152025079229733,0.0,0.0,0.0,16,1.4234186274109106e-08,0,1735643777088270664,map,0.9748490147615508,0.0538237552869342,0.0268605448803341,-0.4884848461397223,0.4845837806926245,-0.4980614252281899,0.5277271371468012,0.0,0.0,0.0,17,0.0016022663330659,0,1735643777088284730,map,0.9747791646947686,-0.2642174363881239,0.229168628339793,-0.4933393936136239,0.5098555024425611,-0.4839076587403215,0.5123445980494439,0.0,0.0,0.0,121,1.163421416094934e-06,0,1735643777088297367,map,0.9627337526939784,0.1978620168864147,0.2370928082373576,-0.4951059727800075,0.4963919903435874,-0.5059024214203439,0.50252144993157,0.0,0.0,0.0,122,0.0577455759048461,0,1735643777088310956,map,0.9732920457234812,0.2034284241297376,0.1368630697215809,-0.4815456562946122,0.4991608229520424,-0.4766837646227638,0.5401155823328005,0.0,0.0,0.0,124,0.0865648761391639,0,1735643777088322877,map,0.962729426638999,-0.0322352793903993,0.2365650313424001,0.4880854572915911,-0.5052315606882609,0.5083942593833642,-0.4980451119035334,0.0,0.0,0.0,125,0.2628706097602844,0,1735643777088343858,map,0.969926372574776,-0.0252578987206591,0.138889353439587,-0.4869437292799179,0.4786074097090818,-0.5107462606992162,0.5224547914109862,0.0,0.0,0.0,126,0.0149444593116641,0,1735644242188269615,map,0.9797540480010024,0.3356438395059674,0.0238069133614626,-0.4995168473534491,0.4967746972852234,-0.4791114404528024,0.5235933985207283,0.0,0.0,0.0,0,0.0013843915658071,0.9254339266854048,-0.0016830098136344,0.3231883753619997,1.0,3.733324920380945e-05,0.0003565872532239,-0.0006352893143344,0.0,0.0,0.0,0.0003565872532239,0.0086857315351023,-0.0071858228355639,0.0,0.0,0.0,-0.0006352893143344,-0.0071858228355639,0.0110472236918879,0.0,0.0,0.0,0.0,0.0,0.0,0.0,0.0,0.0,0.0,0.0,0.0,0.0,0.0,0.0,0.0,0.0,0.0,0.0,0.0,0.0,0,0,0,1,25,,125
2.499577567,0,1735643777088230371,map,0.9714741046141486,-0.2222936799829035,0.0228099470864483,-0.4847279060961961,0.4973540816012454,-0.503176067910372,0.5142874869646706,0.0,0.0,0.0,1,1.3785245167596827e-10,0,1735643777088253974,map,0.960136805958445,-0.251859204020962,0.1475896457360549,-0.5023350817254078,0.4944068866443012,-0.4876347731002123,0.5152025079229733,0.0,0.0,0.0,16,1.26045080151016e-07,0,1735643777088270664,map,0.9748490147615508,0.0538237552869342,0.0268605448803341,-0.4884848461397223,0.4845837806926245,-0.4980614252281899,0.5277271371468012,0.0,0.0,0.0,17,0.0032181707210838,0,1735643777088284730,map,0.9728196720336308,-0.2637322207260535,0.2291895333096067,-0.4920361743185583,0.5071117707160904,-0.484898223757863,0.5153753658835648,0.0,0.0,0.0,121,6.022022716933861e-06,0,1735643777088297367,map,0.9685108999816257,0.2012065147466582,0.2345493798733021,-0.5033572694363451,0.5162245540119974,-0.5023467792571342,0.4772749548328356,0.0,0.0,0.0,122,0.0515188314020633,0,1735643777088310956,map,0.9732920457234812,0.2034284241297376,0.1368630697215809,-0.4815456562946122,0.4991608229520424,-0.4766837646227638,0.5401155823328005,0.0,0.0,0.0,124,0.0770148113369941,0,1735643777088322877,map,0.963712893631858,-0.0325291941910354,0.2356377233569769,-0.4968277730869908,0.5061818583533706,-0.497632192974034,0.4993038059931088,0.0,0.0,0.0,125,0.3278451859951019,0,1735643777088343858,map,0.969926372574776,-0.0252578987206591,0.138889353439587,-0.4869437292799179,0.4786074097090818,-0.5107462606992162,0.5224547914109862,0.0,0.0,0.0,126,0.0272072646766901,0,1735644242188269615,map,0.9797540480010024,0.3356438395059674,0.0238069133614626,-0.4995168473534491,0.4967746972852234,-0.4791114404528024,0.5235933985207283,0.0,0.0,0.0,0,0.0010473192669451,0.9257023745364044,-0.0037972567236496,0.3196108025838899,1.0,3.769896122131871e-05,0.0003286832328822,-0.0006348649030389,0.0,0.0,0.0,0.0003286832328822,0.008463415937511,-0.0067203482294092,0.0,0.0,0.0,-0.0006348649030389,-0.0067203482294092,0.0109423061475359,0.0,0.0,0.0,0.0,0.0,0.0,0.0,0.0,0.0,0.0,0.0,0.0,0.0,0.0,0.0,0.0,0.0,0.0,0.0,0.0,0.0,0,0,0,1,26,,125
