%time,field.boxes0.header.seq,field.boxes0.header.stamp,field.boxes0.header.frame_id,field.boxes0.pose.position.x,field.boxes0.pose.position.y,field.boxes0.pose.position.z,field.boxes0.pose.orientation.x,field.boxes0.pose.orientation.y,field.boxes0.pose.orientation.z,field.boxes0.pose.orientation.w,field.boxes0.scale.x,field.boxes0.scale.y,field.boxes0.scale.z,field.boxes0.id,field.boxes0.pdf,field.boxes1.header.seq,field.boxes1.header.stamp,field.boxes1.header.frame_id,field.boxes1.pose.position.x,field.boxes1.pose.position.y,field.boxes1.pose.position.z,field.boxes1.pose.orientation.x,field.boxes1.pose.orientation.y,field.boxes1.pose.orientation.z,field.boxes1.pose.orientation.w,field.boxes1.scale.x,field.boxes1.scale.y,field.boxes1.scale.z,field.boxes1.id,field.boxes1.pdf,field.boxes2.header.seq,field.boxes2.header.stamp,field.boxes2.header.frame_id,field.boxes2.pose.position.x,field.boxes2.pose.position.y,field.boxes2.pose.position.z,field.boxes2.pose.orientation.x,field.boxes2.pose.orientation.y,field.boxes2.pose.orientation.z,field.boxes2.pose.orientation.w,field.boxes2.scale.x,field.boxes2.scale.y,field.boxes2.scale.z,field.boxes2.id,field.boxes2.pdf,field.boxes3.header.seq,field.boxes3.header.stamp,field.boxes3.header.frame_id,field.boxes3.pose.position.x,field.boxes3.pose.position.y,field.boxes3.pose.position.z,field.boxes3.pose.orientation.x,field.boxes3.pose.orientation.y,field.boxes3.pose.orientation.z,field.boxes3.pose.orientation.w,field.boxes3.scale.x,field.boxes3.scale.y,field.boxes3.scale.z,field.boxes3.id,field.boxes3.pdf,field.boxes4.header.seq,field.boxes4.header.stamp,field.boxes4.header.frame_id,field.boxes4.pose.position.x,field.boxes4.pose.position.y,field.boxes4.pose.position.z,field.boxes4.pose.orientation.x,field.boxes4.pose.orientation.y,field.boxes4.pose.orientation.z,field.boxes4.pose.orientation.w,field.boxes4.scale.x,field.boxes4.scale.y,field.boxes4.scale.z,field.boxes4.id,field.boxes4.pdf,field.boxes5.header.seq,field.boxes5.header.stamp,field.boxes5.header.frame_id,field.boxes5.pose.position.x,field.boxes5.pose.position.y,field.boxes5.pose.position.z,field.boxes5.pose.orientation.x,field.boxes5.pose.orientation.y,field.boxes5.pose.orientation.z,field.boxes5.pose.orientation.w,field.boxes5.scale.x,field.boxes5.scale.y,field.boxes5.scale.z,field.boxes5.id,field.boxes5.pdf,field.boxes6.header.seq,field.boxes6.header.stamp,field.boxes6.header.frame_id,field.boxes6.pose.position.x,field.boxes6.pose.position.y,field.boxes6.pose.position.z,field.boxes6.pose.orientation.x,field.boxes6.pose.orientation.y,field.boxes6.pose.orientation.z,field.boxes6.pose.orientation.w,field.boxes6.scale.x,field.boxes6.scale.y,field.boxes6.scale.z,field.boxes6.id,field.boxes6.pdf,field.boxes7.header.seq,field.boxes7.header.stamp,field.boxes7.header.frame_id,field.boxes7.pose.position.x,field.boxes7.pose.position.y,field.boxes7.pose.position.z,field.boxes7.pose.orientation.x,field.boxes7.pose.orientation.y,field.boxes7.pose.orientation.z,field.boxes7.pose.orientation.w,field.boxes7.scale.x,field.boxes7.scale.y,field.boxes7.scale.z,field.boxes7.id,field.boxes7.pdf,field.boxes8.header.seq,field.boxes8.header.stamp,field.boxes8.header.frame_id,field.boxes8.pose.position.x,field.boxes8.pose.position.y,field.boxes8.pose.position.z,field.boxes8.pose.orientation.x,field.boxes8.pose.orientation.y,field.boxes8.pose.orientation.z,field.boxes8.pose.orientation.w,field.boxes8.scale.x,field.boxes8.scale.y,field.boxes8.scale.z,field.boxes8.id,field.boxes8.pdf,field.pose.pose.position.x,field.pose.pose.position.y,field.pose.pose.position.z,field.pose.pose.orientation.w,field.pose.covariance0,field.pose.covariance1,field.pose.covariance2,field.pose.covariance3,field.pose.covariance4,field.pose.covariance5,field.pose.covariance6,field.pose.covariance7,field.pose.covariance8,field.pose.covariance9,field.pose.covariance10,field.pose.covariance11,field.pose.covariance12,field.pose.covariance13,field.pose.covariance14,field.pose.covariance15,field.pose.covariance16,field.pose.covariance17,field.pose.covariance18,field.pose.covariance19,field.pose.covariance20,field.pose.covariance21,field.pose.covariance22,field.pose.covariance23,field.pose.covariance24,field.pose.covariance25,field.pose.covariance26,field.pose.covariance27,field.pose.covariance28,field.pose.covariance29,field.pose.covariance30,field.pose.covariance31,field.pose.covariance32,field.pose.covariance33,field.pose.covariance34,field.pose.covariance35,field.buttons0,field.buttons1,field.buttons2,field.buttons3,intersection_length,vacuum,desired_box
0.0,0,1735643777088230371,map,0.991000998888077,-0.2215720155984712,0.0185291522752059,-0.4775278885035535,0.5295149469596946,-0.5201471465835047,0.4701361319327076,0.0,0.0,0.0,1,0.1111111119389534,0,1735643777088253974,map,0.974768762519968,-0.2467566467722104,0.1494181122176784,-0.5278710090236629,0.4984987425047037,-0.465464826630963,0.506155802814684,0.0,0.0,0.0,16,0.1111111119389534,0,1735643777088270664,map,0.9877322807546672,0.0563951440718577,0.0253030220835958,-0.4938969586114577,0.5080751422178571,-0.4920784849823608,0.5057511332188209,0.0,0.0,0.0,17,0.1111111119389534,0,1735643777088284730,map,1.0121426318676117,-0.2563615242396321,0.235977798517759,0.3432832906908249,-0.5912300104176497,0.6229275734683118,-0.3802169056300699,0.0,0.0,0.0,121,0.1111111119389534,0,1735643777088297367,map,1.015809822559528,0.207857868878563,0.2415147324598779,-0.5148182239543222,0.4895089626308455,-0.4878485056133256,0.5072938077282599,0.0,0.0,0.0,122,0.1111111119389534,0,1735643777088310956,map,1.0084344264595366,0.208396297825779,0.1436420111789101,-0.4821065133708888,0.5033711927867083,-0.4859463221349631,0.5273015494395547,0.0,0.0,0.0,124,0.1111111119389534,0,1735643777088322877,map,0.9999377726671748,-0.0267184222393889,0.2417185962183463,-0.5995818283098664,0.4293046031229939,-0.3861338855374542,0.5541658698781038,0.0,0.0,0.0,125,0.1111111119389534,0,1735643777088343858,map,1.0045429391776777,-0.0197539838261375,0.1440821483336804,0.6519688656066301,-0.4950021561866979,0.3512810883963855,-0.4544348804671298,0.0,0.0,0.0,126,0.1111111119389534,0,1735644242188269615,map,0.9785207238630872,0.3329331966628048,0.0252131015288153,-0.5090826577242908,0.5010647810856232,-0.4818243127397207,0.5075571538387433,0.0,0.0,0.0,0,0.1111111119389534,0.9402850119576848,0.0123197810291897,0.09754035384527,1.0,0.0,0.0,0.0,0.0,0.0,0.0,0.0,0.0,0.0,0.0,0.0,0.0,0.0,0.0,0.0,0.0,0.0,0.0,0.0,0.0,0.0,0.0,0.0,0.0,0.0,0.0,0.0,0.0,0.0,0.0,0.0,0.0,0.0,0.0,0.0,0.0,0,0,0,1,1,,17
0.101227717,0,1735643777088230371,map,0.9922176853649184,-0.2215900260132957,0.0182539227915644,-0.4924790747930289,0.5213413061771022,-0.5025634535993934,0.4828018004013713,0.0,0.0,0.0,1,0.0,0,1735643777088253974,map,0.9734211710817328,-0.2460429364449856,0.14948051969681,-0.5243281873586391,0.4883446742853941,-0.467376471643075,0.5178403854401143,0.0,0.0,0.0,16,0.0,0,1735643777088270664,map,0.9921388060335596,0.057221301756299,0.0238650995600402,-0.4963045688968169,0.4869278341600634,-0.4919032455019597,0.5240365028096549,0.0,0.0,0.0,17,0.0,0,1735643777088284730,map,1.0145101741262983,-0.2565798411181212,0.2357885024496369,-0.3772362758692248,0.620303951282738,-0.5793127722510013,0.370557029481563,0.0,0.0,0.0,121,0.0,0,1735643777088297367,map,1.01730937633881,0.208844896226958,0.2410903455059067,-0.5110643954113939,0.4906867970229582,-0.4891271117211315,0.5087183106095947,0.0,0.0,0.0,122,0.0,0,1735643777088310956,map,1.0070903668018667,0.2072793675163828,0.1436515331455632,-0.4726316290859365,0.5000847262743143,-0.4945698020190194,0.5309758192851961,0.0,0.0,0.0,124,0.0,0,1735643777088322877,map,0.9977793339509372,-0.0263897365712469,0.2414493230298157,0.4634963573009526,-0.5290508065539613,0.534516320478421,-0.468581555330084,0.0,0.0,0.0,125,0.0,0,1735643777088343858,map,0.9993758721770156,-0.0203937974596739,0.1445441008147149,-0.4834877736515618,0.4589949521072133,-0.5074388814272807,0.5459569472819107,0.0,0.0,0.0,126,0.0,0,1735644242188269615,map,0.9900680656365596,0.3402299454434762,0.021531298618421,-0.503915544625844,0.4933121208745178,-0.4740145303871634,0.5272783897189045,0.0,0.0,0.0,0,0.0,0.9398855804178294,0.012984837181007,0.1033887830769123,1.0,1.595455550311136e-07,-2.656444028105691e-07,-2.336047093729144e-06,0.0,0.0,0.0,-2.656444028105691e-07,4.42299685070025e-07,3.889533838971738e-06,0.0,0.0,0.0,-2.336047093729144e-06,3.889533838971738e-06,3.4204124477527224e-05,0.0,0.0,0.0,0.0,0.0,0.0,0.0,0.0,0.0,0.0,0.0,0.0,0.0,0.0,0.0,0.0,0.0,0.0,0.0,0.0,0.0,0,0,0,1,2,,17
0.20148582,0,1735643777088230371,map,0.9761757649729252,-0.2185533151272808,0.0243685194348754,-0.4961829407363745,0.755618065491241,-0.3542233287257105,0.2395196480707902,0.0,0.0,0.0,1,0.0,0,1735643777088253974,map,0.986508473526332,-0.2493516709034752,0.1479902833427809,0.5355407040216348,-0.5206472499317377,0.4485314168768563,-0.4908585983243748,0.0,0.0,0.0,16,0.0,0,1735643777088270664,map,0.9928855019955574,0.0573971594883496,0.0237529477105459,-0.4901390649599128,0.4909068507565752,-0.4984057210037688,0.5199672087268554,0.0,0.0,0.0,17,0.0,0,1735643777088284730,map,1.01087442988009,-0.2562117160846243,0.2360771213256165,-0.4807659891748279,0.4826521725582876,-0.4997330205290918,0.5349559347931234,0.0,0.0,0.0,121,0.0,0,1735643777088297367,map,1.014115186699414,0.2070743885917955,0.2412967071711344,-0.5046117983054573,0.4860807916787822,-0.5067676291288749,0.5022737968866788,0.0,0.0,0.0,122,0.0,0,1735643777088310956,map,1.010072931157239,0.2085592720845975,0.1437726252855162,-0.4778413560081405,0.5007323104028869,-0.4913859063888755,0.5286536510885671,0.0,0.0,0.0,124,0.0,0,1735643777088322877,map,1.0046260650544254,-0.0255451946348756,0.2414233906333511,-0.473690960120661,0.4820876392597004,-0.5190922872264869,0.5232127480432316,0.0,0.0,0.0,125,0.0,0,1735643777088343858,map,1.0121524969738642,-0.0186751809169955,0.143401496348203,-0.4787329050093337,0.4882984111500487,-0.5248237243733396,0.5068920256470403,0.0,0.0,0.0,126,0.0,0,1735644242188269615,map,0.9800464650100538,0.3336359082802453,0.025431527458188,-0.506533660581527,0.4901523510964373,-0.4812269798555711,0.5211476923786564,0.0,0.0,0.0,0,0.0,0.939910021662582,0.0140561897457517,0.1027954663187014,1.0,1.075584522441754e-07,-1.2472588803816645e-07,-1.586367529359101e-06,0.0,0.0,0.0,-1.2472588803816645e-07,2.590459092683711e-06,1.3217196980840533e-06,0.0,0.0,0.0,-1.586367529359101e-06,1.3217196980840533e-06,2.350679920283243e-05,0.0,0.0,0.0,0.0,0.0,0.0,0.0,0.0,0.0,0.0,0.0,0.0,0.0,0.0,0.0,0.0,0.0,0.0,0.0,0.0,0.0,0,0,0,1,3,,17
0.300614782,0,1735643777088230371,map,0.9812888160453622,-0.2198933288873803,0.021267172551336,-0.4914455151003613,0.4856487689066596,-0.495887065099042,0.5260442924456507,0.0,0.0,0.0,1,0.0,0,1735643777088253974,map,0.980287570505861,-0.2476369555647428,0.1480733122606596,-0.398126283607686,0.7026890563384257,-0.5121425754085791,0.2922901552512728,0.0,0.0,0.0,16,0.0,0,1735643777088270664,map,0.9995883390316987,0.0589308107805248,0.0209747039530475,-0.5141500322879146,0.5026295821046567,-0.4793458079879606,0.5032304083181026,0.0,0.0,0.0,17,0.0,0,1735643777088284730,map,1.0113361839034676,-0.2565879787849893,0.235385144386077,-0.4853614420202051,0.4796205961122239,-0.5024602472570726,0.5309633267104085,0.0,0.0,0.0,121,0.0,0,1735643777088297367,map,1.0093071818251458,0.204776367471392,0.2406457432632865,-0.4948270828691207,0.487200485510937,-0.5051880927003294,0.51241275937563,0.0,0.0,0.0,122,0.0,0,1735643777088310956,map,1.0115046826172616,0.2094721530857524,0.1424803029239383,-0.4851225395814231,0.4979054161052,-0.4815306869941842,0.5337363728340869,0.0,0.0,0.0,124,0.0,0,1735643777088322877,map,0.9984755082889796,-0.0270122150283524,0.2408279065145204,-0.6078212265199202,0.4458248422864396,-0.381396378234463,0.5350984668841109,0.0,0.0,0.0,125,0.0,0,1735643777088343858,map,1.0067476995438944,-0.0195170515551702,0.1434618993116181,0.5084230556512062,-0.5054995667465622,0.4927146283420688,-0.4931617174102891,0.0,0.0,0.0,126,0.0,0,1735644242188269615,map,0.9853305267184064,0.3371668262811534,0.0226240050998747,-0.5096567623336851,0.4851997386981895,-0.4723650788298864,0.5307564700281948,0.0,0.0,0.0,0,0.0,0.9406755313112842,0.0080486982653806,0.0925890523706489,1.0,1.8386839059524807e-06,-1.388992249419312e-05,-2.4629100714673662e-05,0.0,0.0,0.0,-1.388992249419312e-05,0.0001102127059797,0.0001849361242877,0.0,0.0,0.0,-2.4629100714673662e-05,0.0001849361242877,0.0003301427564391,0.0,0.0,0.0,0.0,0.0,0.0,0.0,0.0,0.0,0.0,0.0,0.0,0.0,0.0,0.0,0.0,0.0,0.0,0.0,0.0,0.0,0,0,0,1,4,,17
0.403136864,0,1735643777088230371,map,0.9750989778523704,-0.2187627503766885,0.0235200778286705,-0.4988418270366149,0.4847300985672346,-0.4831565413674297,0.5317455403439076,0.0,0.0,0.0,1,0.0,0,1735643777088253974,map,0.988583463921274,-0.2503496957175736,0.1466951537301446,-0.5020451091039545,0.4880353437698423,-0.4923966708599376,0.5170277847295064,0.0,0.0,0.0,16,0.0,0,1735643777088270664,map,0.9888032332667648,0.0562278775122847,0.0241509596727353,-0.48824244812366,0.4935338441077759,-0.5004267653570309,0.5173168362664374,0.0,0.0,0.0,17,0.0,0,1735643777088284730,map,1.009167382275354,-0.2561558595955151,0.2352070518015988,-0.3521102358444408,0.6405902653506783,-0.585231266054411,0.3509513627041094,0.0,0.0,0.0,121,0.0,0,1735643777088297367,map,1.0168107243562106,0.207921433640554,0.2405563043436635,-0.5069874988698537,0.4861700604120265,-0.4922574078558717,0.5140865615435543,0.0,0.0,0.0,122,0.0,0,1735643777088310956,map,1.011427370705213,0.2092348869189264,0.1423564228293751,-0.4858541447687152,0.4950661776256039,-0.4820813750013996,0.5352128339819537,0.0,0.0,0.0,124,0.0,0,1735643777088322877,map,0.9972672606345344,-0.0270645118559666,0.2408806611877352,-0.5064533863040064,0.5320063380676203,-0.4900257235582084,0.4694134787246102,0.0,0.0,0.0,125,0.0,0,1735643777088343858,map,0.9943764842664916,-0.0213164057593093,0.1447686611866063,0.4697008799570433,-0.5048547609684666,0.5392393254361706,-0.4834497942891231,0.0,0.0,0.0,126,0.0,0,1735644242188269615,map,0.9785782079977317,0.3319191362923411,0.0249035524700108,-0.4971826918342552,0.4955348466911584,-0.4911730108401333,0.515755426609796,0.0,0.0,0.0,0,0.0,0.9416397181135991,0.0020566649447234,0.079400319008964,1.0,5.189571883794256e-06,-3.422169578258751e-05,-7.056889115808192e-05,0.0,0.0,0.0,-3.422169578258751e-05,0.0002317880180472,0.0004640582184721,0.0,0.0,0.0,-7.056889115808192e-05,0.0004640582184721,0.0009598849558937,0.0,0.0,0.0,0.0,0.0,0.0,0.0,0.0,0.0,0.0,0.0,0.0,0.0,0.0,0.0,0.0,0.0,0.0,0.0,0.0,0.0,0,0,0,1,5,,17
0.50249581,0,1735643777088230371,map,0.981767083943092,-0.2200302464922291,0.0205573065880333,-0.5043477368499573,0.4984893268523697,-0.4780011594716221,0.5183209844221844,0.0,0.0,0.0,1,0.0,0,1735643777088253974,map,0.9838341322031188,-0.2489979155108431,0.1466632945517052,-0.5103320998005108,0.4869347711577342,-0.4805893285387904,0.5210466138891997,0.0,0.0,0.0,16,0.0,0,1735643777088270664,map,0.9852054437370658,0.0550764456413571,0.0247713245252862,-0.4773640192842805,0.4996158125378616,-0.5029096575545184,0.5192200971585037,0.0,0.0,0.0,17,0.0,0,1735643777088284730,map,1.0124365234895445,-0.2573478545469457,0.2343466555730399,-0.4885440044608669,0.4781765802299736,-0.5024528191393117,0.5293515640515917,0.0,0.0,0.0,121,0.0,0,1735643777088297367,map,1.0245549920913692,0.2117760255400164,0.239913853011646,-0.505740920486068,0.4736979938695319,-0.4950178164043529,0.5242076815463043,0.0,0.0,0.0,122,0.0,0,1735643777088310956,map,1.009957873359371,0.2082516584340151,0.1418281562266888,-0.4790551807300036,0.4969372555220269,-0.4876399322942917,0.5345715988733384,0.0,0.0,0.0,124,0.0,0,1735643777088322877,map,1.0080022749299888,-0.0264846331344676,0.2402406591528917,0.5167435803932515,-0.5135744473799434,0.4819543369941063,-0.4867621351063787,0.0,0.0,0.0,125,0.0,0,1735643777088343858,map,1.00876273102832,-0.0201992201613155,0.1423048247984706,-0.5139836872101573,0.4921880856944604,-0.4887762936784869,0.5046477903649187,0.0,0.0,0.0,126,0.0,0,1735644242188269615,map,0.9809553413976568,0.3333124703568848,0.0231693310033081,-0.5035408385420366,0.4979448249362776,-0.4771055689881476,0.5204496625804059,0.0,0.0,0.0,0,0.0,0.9425009214159812,-0.0034125820861635,0.0676450741598654,1.0,8.03299887666426e-06,-5.206874784153925e-05,-0.0001094256877201,0.0,0.0,0.0,-5.206874784153925e-05,0.0003427199971303,0.0007081768720015,0.0,0.0,0.0,-0.0001094256877201,0.0007081768720015,0.0014908330372227,0.0,0.0,0.0,0.0,0.0,0.0,0.0,0.0,0.0,0.0,0.0,0.0,0.0,0.0,0.0,0.0,0.0,0.0,0.0,0.0,0.0,0,0,0,1,6,,17
0.602614089,0,1735643777088230371,map,0.9875191523714236,-0.222815827324632,0.0180856469077504,-0.4947884607867017,0.5099521517689968,-0.4941609119911717,0.5009372965137955,0.0,0.0,0.0,1,0.0,0,1735643777088253974,map,0.994187273876246,-0.2533044947362095,0.1452925120559001,0.509594524031913,-0.5093699147674972,0.4861748022218809,-0.4944590707944955,0.0,0.0,0.0,16,0.0,0,1735643777088270664,map,0.9884509746897044,0.0554760321055038,0.0236993850419054,0.7653621263164991,-0.4733346713161987,0.219724161144366,-0.3766913823538815,0.0,0.0,0.0,17,5.377453817345668e-06,0,1735643777088284730,map,1.013361114941443,-0.2593511873538259,0.2352307760471492,-0.3375564682015701,0.6345074317265456,-0.6047784909255322,0.3430727718325973,0.0,0.0,0.0,121,0.0,0,1735643777088297367,map,1.0149583758537282,0.2080759934227055,0.2404450909848668,-0.5104981924975551,0.4911668066033085,-0.4937058902806344,0.5043820550436384,0.0,0.0,0.0,122,4.648230039987632e-31,0,1735643777088310956,map,1.0054897763712851,0.2070769543661351,0.1426586841757622,-0.4927158012053877,0.5017196651298943,-0.4801905966267997,0.5243333937254788,0.0,0.0,0.0,124,1.7584322699038682e-38,0,1735643777088322877,map,0.9989896268700066,-0.0279583282496559,0.2405700438970242,-0.5623679728509833,0.4474440538258847,-0.4293440128204787,0.5469915908517637,0.0,0.0,0.0,125,1.7797050725493202e-12,0,1735643777088343858,map,0.9998332147692623,-0.0216379131661866,0.1433369039629732,0.5089163875115723,-0.5045588883176839,0.4924587489440201,-0.4938712578499428,0.0,0.0,0.0,126,0.0006154495640657,0,1735644242188269615,map,0.9809553413976568,0.3333124703568848,0.0231693310033081,-0.5035408385420366,0.4979448249362776,-0.4771055689881476,0.5204496625804059,0.0,0.0,0.0,0,0.0,0.9429274066754012,-0.0004840734685035,0.0606301341152116,1.0,7.976765667584073e-06,-3.713656074765139e-05,-0.0001117440577658,0.0,0.0,0.0,-3.713656074765139e-05,0.0003452169738825,0.000483748873191,0.0,0.0,0.0,-0.0001117440577658,0.000483748873191,0.0015731131920286,0.0,0.0,0.0,0.0,0.0,0.0,0.0,0.0,0.0,0.0,0.0,0.0,0.0,0.0,0.0,0.0,0.0,0.0,0.0,0.0,0.0,0,0,0,1,7,,17
0.701760714,0,1735643777088230371,map,0.9750471523673104,-0.219953719589755,0.0222216916761386,-0.4975043833155038,0.4890354697553484,-0.488712688084102,0.5239213742620527,0.0,0.0,0.0,1,1.0381304149653657e-10,0,1735643777088253974,map,0.9759654960070698,-0.248420166364757,0.1476841791248872,-0.5096894877038934,0.4680664184895842,-0.4792160243891686,0.539891151969651,0.0,0.0,0.0,16,3.0748638003156913e-16,0,1735643777088270664,map,0.984176001069704,0.0554326703493086,0.0242497197154086,-0.4901793632694838,0.5012135382119273,-0.5005741098378007,0.5078727611300873,0.0,0.0,0.0,17,0.2086794525384903,0,1735643777088284730,map,1.007074174626127,-0.2583580200740998,0.2357078504107154,-0.513630361474608,0.5132448642287201,-0.4626897184611973,0.5086076931630165,0.0,0.0,0.0,121,3.2251450985499693e-22,0,1735643777088297367,map,1.0115843785546152,0.2078198755942387,0.2410347784678696,-0.5090400946807051,0.490527815080241,-0.4912984314908926,0.508808899150411,0.0,0.0,0.0,122,5.086810139776077e-11,0,1735643777088310956,map,1.002549386947447,0.2070613702425374,0.1429958452749562,-0.4842064066468508,0.4983428326759131,-0.4843135948399711,0.5316379583286699,0.0,0.0,0.0,124,3.5254295482900495e-08,0,1735643777088322877,map,0.9980611858587256,-0.0275385166145583,0.2410263073281064,0.4881476328484968,-0.5021161270207956,0.5118257298140867,-0.4976200416284729,0.0,0.0,0.0,125,1.948312728927704e-06,0,1735643777088343858,map,0.9893556180723552,-0.0219676553976465,0.1450301435523237,0.4641628976453392,-0.5051143956342118,0.5465184339855564,-0.4803434740751067,0.0,0.0,0.0,126,0.0335448794066906,0,1735644242188269615,map,0.9809553413976568,0.3333124703568848,0.0231693310033081,-0.5035408385420366,0.4979448249362776,-0.4771055689881476,0.5204496625804059,0.0,0.0,0.0,0,1.168701293347921e-21,0.9429472930264589,0.0105892530947929,0.0579874229234329,1.0,6.982438227844787e-06,-3.095303423829758e-05,-9.81439277226394e-05,0.0,0.0,0.0,-3.095303423829758e-05,0.001160394780389,0.0002184350357688,0.0,0.0,0.0,-9.81439277226394e-05,0.0002184350357688,0.0014253615001271,0.0,0.0,0.0,0.0,0.0,0.0,0.0,0.0,0.0,0.0,0.0,0.0,0.0,0.0,0.0,0.0,0.0,0.0,0.0,0.0,0.0,0,0,0,1,8,,17
0.801050139,0,1735643777088230371,map,0.9885762178339128,-0.222799999111406,0.0168178104274094,-0.4938532592221417,0.5227515804223685,-0.4925030157879878,0.490184172491648,0.0,0.0,0.0,1,5.816946577397175e-05,0,1735643777088253974,map,0.9834646800293628,-0.2503584866623389,0.1468512673473042,-0.5132175154983523,0.4872007164695896,-0.4778068236310745,0.5205227016651636,0.0,0.0,0.0,16,1.7687156628198866e-07,0,1735643777088270664,map,0.9883488067435272,0.0578433792916005,0.0226110963634703,-0.5016250067179243,0.4975819228527752,-0.4848200217250232,0.5154940632247141,0.0,0.0,0.0,17,0.4707999527454376,0,1735643777088284730,map,1.0042969247663622,-0.257599032946978,0.2359125024156373,-0.5071441194248838,0.4902746090533953,-0.4689129432748954,0.531560251974858,0.0,0.0,0.0,121,4.051899007290194e-12,0,1735643777088297367,map,1.0065538953017188,0.2067658866289299,0.2412229818659849,-0.5028364896136904,0.4734701909892691,-0.4948751916348772,0.527332900227086,0.0,0.0,0.0,122,1.0372839653882693e-07,0,1735643777088310956,map,0.9994916214000394,0.2070879387407727,0.143657179644798,-0.4822045886456994,0.4992875225010256,-0.4850924408213846,0.5318609107856787,0.0,0.0,0.0,124,0.0010838123271241,0,1735643777088322877,map,0.9971093506867306,-0.0268152367005937,0.2417752605301055,0.54743993214446,-0.5136956772632361,0.4501842013044121,-0.4834878041384735,0.0,0.0,0.0,125,1.1525455647642957e-06,0,1735643777088343858,map,0.9884712977612184,-0.0217612079808531,0.1452928194918458,0.6484530935456845,-0.4741281826898872,0.3525484988362061,-0.4800214659976721,0.0,0.0,0.0,126,0.0348639376461505,0,1735644242188269615,map,0.9809553413976568,0.3333124703568848,0.0231693310033081,-0.5035408385420366,0.4979448249362776,-0.4771055689881476,0.5204496625804059,0.0,0.0,0.0,0,3.19930904879584e-07,0.9427178561252212,0.0276534671483622,0.0578147312604291,1.0,6.627742091280463e-06,-5.883509136787247e-05,-8.692207214433496e-05,0.0,0.0,0.0,-5.883509136787247e-05,0.0033609612371407,0.0001705896962168,0.0,0.0,0.0,-8.692207214433496e-05,0.0001705896962168,0.0012672265793967,0.0,0.0,0.0,0.0,0.0,0.0,0.0,0.0,0.0,0.0,0.0,0.0,0.0,0.0,0.0,0.0,0.0,0.0,0.0,0.0,0.0,0,0,0,1,9,,17
0.901973682,0,1735643777088230371,map,0.9826923695435132,-0.2203835010607887,0.018994682396209,-0.4953993059995136,0.4989901247014884,-0.4952801720745771,0.5101822558805541,0.0,0.0,0.0,1,0.0006881156004965,0,1735643777088253974,map,0.9768814069955898,-0.2472833307411684,0.1481299903606383,-0.5098796689460773,0.4719375258887775,-0.4769068430579982,0.5383842102976949,0.0,0.0,0.0,16,5.981825233902782e-05,0,1735643777088270664,map,0.980153983588038,0.0570095241569825,0.0253382242347592,-0.4918474167072069,0.4947017452825447,-0.4984696846140782,0.5146690931206124,0.0,0.0,0.0,17,0.6606936454772949,0,1735643777088284730,map,1.002426612396957,-0.2565428398711563,0.2362566255783972,-0.4909242371813119,0.4561516956114567,-0.4998089414137236,0.5487349506106143,0.0,0.0,0.0,121,8.832024001037553e-09,0,1735643777088297367,map,1.003371928489102,0.2071864834855144,0.2418755175927483,-0.5142609925531922,0.4918783137547642,-0.4899346897463892,0.5035428043166591,0.0,0.0,0.0,122,2.7937218760598626e-08,0,1735643777088310956,map,0.9973695528291412,0.2077002773193909,0.1440657290048038,-0.492328357440803,0.5009637874948226,-0.4755911515769612,0.5295858085524794,0.0,0.0,0.0,124,0.0026362342759966,0,1735643777088322877,map,0.9902727445515178,-0.0262616045113886,0.2417290007145142,0.4540877886561362,-0.5323335136920856,0.5411387859630058,-0.466469854031429,0.0,0.0,0.0,125,1.075971908903739e-06,0,1735643777088343858,map,0.9918576344149576,-0.0199715026635884,0.1447256706106535,0.4762019520981457,-0.4993148408554394,0.5361788046566545,-0.4862393237454,0.0,0.0,0.0,126,0.0403740964829921,0,1735644242188269615,map,0.9809553413976568,0.3333124703568848,0.0231693310033081,-0.5035408385420366,0.4979448249362776,-0.4771055689881476,0.5204496625804059,0.0,0.0,0.0,0,0.0006838843692094,0.942672832938256,0.0451596224755076,0.054783293847895,1.0,5.983211668432788e-06,-6.004522837007717e-05,-7.700150016932642e-05,0.0,0.0,0.0,-6.004522837007717e-05,0.0057830543824699,-0.0003240886012798,0.0,0.0,0.0,-7.700150016932642e-05,-0.0003240886012798,0.001223210436532,0.0,0.0,0.0,0.0,0.0,0.0,0.0,0.0,0.0,0.0,0.0,0.0,0.0,0.0,0.0,0.0,0.0,0.0,0.0,0.0,0.0,0,0,0,1,10,,17
1.00186903,0,1735643777088230371,map,0.9837221130987484,-0.2237014980985465,0.0172049747610616,-0.5028844688243458,0.50728385377521,-0.4883333349218152,0.5012991688785903,0.0,0.0,0.0,1,0.0003149700642097,0,1735643777088253974,map,0.9708171975617051,-0.2481880809809865,0.1479603525513807,-0.5313263625736321,0.4877322500433107,-0.4490339243007003,0.527425903354278,0.0,0.0,0.0,16,0.0009038626449182,0,1735643777088270664,map,0.9810844220640572,0.0559689255815298,0.0238144336177217,-0.4883749390768337,0.5119920172719847,-0.5025525462687163,0.4967846931722965,0.0,0.0,0.0,17,0.7771273255348206,0,1735643777088284730,map,1.0000853395198386,-0.2595296484580406,0.2363672200430632,-0.517895852735667,0.4853277328580157,-0.4646339166962464,0.5294867334443808,0.0,0.0,0.0,121,4.177880327915773e-06,0,1735643777088297367,map,1.00570127414234,0.2072311945081453,0.2419758836571043,-0.530471539385551,0.4844565476494482,-0.4756028535336834,0.5076452748249705,0.0,0.0,0.0,122,1.3788182151586172e-08,0,1735643777088310956,map,0.9909953847621472,0.2039167036317129,0.1445012693489096,-0.4823851588397196,0.5026085572986714,-0.4894977887036871,0.5244817551788881,0.0,0.0,0.0,124,0.0014717963058501,0,1735643777088322877,map,0.9834822504174844,-0.0288675636241375,0.2417351942512132,-0.4723962748069981,0.5533399952924392,-0.5178303529320881,0.4500092607274475,0.0,0.0,0.0,125,1.3130857951182406e-05,0,1735643777088343858,map,0.995538882621258,-0.0219502845653215,0.1439035729046653,-0.5072308152774024,0.5156860117718493,-0.49504449857465,0.4813686546991185,0.0,0.0,0.0,126,0.0769088342785835,0,1735644242188269615,map,0.9809553413976568,0.3333124703568848,0.0231693310033081,-0.5035408385420366,0.4979448249362776,-0.4771055689881476,0.5204496625804059,0.0,0.0,0.0,0,0.0052109691314399,0.942969512861602,0.0597745049796317,0.0472403820480642,1.0,6.31947310410479e-06,-1.1227149035181156e-05,-9.237966873609134e-05,0.0,0.0,0.0,-1.1227149035181156e-05,0.0073932700719753,-0.0013970136980985,0.0,0.0,0.0,-9.237966873609134e-05,-0.0013970136980985,0.0016809646719567,0.0,0.0,0.0,0.0,0.0,0.0,0.0,0.0,0.0,0.0,0.0,0.0,0.0,0.0,0.0,0.0,0.0,0.0,0.0,0.0,0.0,0,0,0,1,11,,17
1.102322415,0,1735643777088230371,map,0.9811662182763956,-0.223411612103952,0.0174242224204798,-0.502330445148683,0.5048634718986615,-0.4912676691197673,0.5014310280554907,0.0,0.0,0.0,1,0.0001855957962106,0,1735643777088253974,map,0.9727901631142716,-0.2492898458463214,0.1470605443801507,-0.5111828416877855,0.4772414536350249,-0.4783244773242468,0.5311670092247963,0.0,0.0,0.0,16,0.001287335762754,0,1735643777088270664,map,0.977839469217844,0.0553736938787056,0.0242354592042921,-0.4888973264914104,0.5049572374009207,-0.4988501813890274,0.507095739554294,0.0,0.0,0.0,17,0.7909570932388306,0,1735643777088284730,map,0.9997593808521064,-0.2605178297722868,0.236226976703555,-0.5188903725110189,0.4904739778284179,-0.4649838532342357,0.5234291495703957,0.0,0.0,0.0,121,8.831225386529695e-06,0,1735643777088297367,map,1.0061645730775213,0.2080625785777505,0.2418640858556079,-0.5119733182522881,0.4736825875568161,-0.4883807004746671,0.5243971958802738,0.0,0.0,0.0,122,2.54197529692135e-09,0,1735643777088310956,map,0.9939893729367508,0.2056827770271418,0.1435787960095585,-0.4884541857416041,0.5000071092294798,-0.4786442660332973,0.5313238802697765,0.0,0.0,0.0,124,0.0008491699700243,0,1735643777088322877,map,0.9886328606890562,-0.0286390957827896,0.2416857280095179,-0.4480107603715178,0.5498577230528846,-0.5364367128996816,0.4573603568782678,0.0,0.0,0.0,125,8.818262358545326e-06,0,1735643777088343858,map,0.992121863458584,-0.022781153731053,0.144042180053816,-0.5056430432427982,0.515246672293054,-0.4993337731244548,0.4790738591578457,0.0,0.0,0.0,126,0.0664906203746795,0,1735644242188269615,map,0.9809553413976568,0.3333124703568848,0.0231693310033081,-0.5035408385420366,0.4979448249362776,-0.4771055689881476,0.5204496625804059,0.0,0.0,0.0,0,0.0089834677055478,0.9431119213985704,0.0708744207894432,0.0427548934179877,1.0,6.015932450845465e-06,7.09639719816693e-06,-9.170785361545392e-05,0.0,0.0,0.0,7.09639719816693e-06,0.0081324536734779,-0.0018282698976805,0.0,0.0,0.0,-9.170785361545392e-05,-0.0018282698976805,0.0017621999733829,0.0,0.0,0.0,0.0,0.0,0.0,0.0,0.0,0.0,0.0,0.0,0.0,0.0,0.0,0.0,0.0,0.0,0.0,0.0,0.0,0.0,0,0,0,1,12,,17
1.204921544,0,1735643777088230371,map,0.9768398584184516,-0.2229875722246465,0.0194394929074465,-0.5018558059675688,0.5010461089431579,-0.4878264964943034,0.5090371853289865,0.0,0.0,0.0,1,0.0002035732904914,0,1735643777088253974,map,0.9717360616503226,-0.2495742788039878,0.1478363883381532,-0.51534205049512,0.4808292775659157,-0.4750706614160194,0.5268146196611015,0.0,0.0,0.0,16,0.0008805878460407,0,1735643777088270664,map,0.9733510461210066,0.0538835418997629,0.0261461234647804,-0.4938516786081827,0.4936682868641446,-0.4970871683942984,0.5150791095533186,0.0,0.0,0.0,17,0.7732552289962769,0,1735643777088284730,map,0.9982000700767372,-0.2608027172986408,0.2367673245161032,0.2431668789477937,-0.6417148458008669,0.676705691560424,-0.2667233260727065,0.0,0.0,0.0,121,3.2309239941241685e-06,0,1735643777088297367,map,1.0017766830048942,0.2050817570586046,0.2425859787739157,-0.5278676911456747,0.481534545339872,-0.474715443271774,0.5139313477577924,0.0,0.0,0.0,122,2.000394072609879e-09,0,1735643777088310956,map,0.9910049116688424,0.203739870159705,0.1445365091809604,-0.4880692637867475,0.5000416456435371,-0.4805329320473275,0.5299385318947512,0.0,0.0,0.0,124,0.0009896802948787,0,1735643777088322877,map,0.9820071223781868,-0.0297233341810728,0.2420230562785946,-0.446198605654914,0.5466213891422155,-0.5440694914140299,0.4539826535852708,0.0,0.0,0.0,125,3.680116151372204e-06,0,1735643777088343858,map,0.9830472584234224,-0.0238571020998711,0.1455281049141685,-0.4842116637850376,0.5318374783691061,-0.5304497671236855,0.4486769503940939,0.0,0.0,0.0,126,0.0465973615646362,0,1735644242188269615,map,0.9809553413976568,0.3333124703568848,0.0231693310033081,-0.5035408385420366,0.4979448249362776,-0.4771055689881476,0.5204496625804059,0.0,0.0,0.0,0,0.0142115158960223,0.9430079037620148,0.0788302349259128,0.0426301122236327,1.0,5.683004440740123e-06,-3.38001930958816e-06,-8.449764999826162e-05,0.0,0.0,0.0,-3.38001930958816e-06,0.0082664200568682,-0.0016995465835852,0.0,0.0,0.0,-8.449764999826162e-05,-0.0016995465835852,0.0016268329734341,0.0,0.0,0.0,0.0,0.0,0.0,0.0,0.0,0.0,0.0,0.0,0.0,0.0,0.0,0.0,0.0,0.0,0.0,0.0,0.0,0.0,0,0,0,1,13,,17
1.301632847,0,1735643777088230371,map,0.9718928060733498,-0.2236170022520462,0.0203542509263822,-0.5009968732066908,0.4942320460000864,-0.4855706310817066,0.5186115887392035,0.0,0.0,0.0,1,0.000157427319209,0,1735643777088253974,map,0.9689627504896612,-0.2507964519064555,0.1478735253932983,-0.5187834101865217,0.4828369752774844,-0.4710912254519118,0.5251716728102813,0.0,0.0,0.0,16,0.0005404250696301,0,1735643777088270664,map,0.9783023500710613,0.0551873819894187,0.0240014504536126,-0.4880359928737942,0.509429987566189,-0.5035682866216298,0.4987192979391898,0.0,0.0,0.0,17,0.7038971185684204,0,1735643777088284730,map,0.995368995898401,-0.2605595628263572,0.2366516477587719,-0.5084971890285447,0.4737963823711912,-0.4798376479373715,0.5354469426787049,0.0,0.0,0.0,121,1.2201813888168545e-06,0,1735643777088297367,map,0.9955662793766014,0.2028132620761024,0.2421523101574605,0.512386347994628,-0.4945678418916717,0.4948554141534578,-0.4979769063303562,0.0,0.0,0.0,122,1.1630205687396256e-09,0,1735643777088310956,map,0.9905541730174988,0.2038444228568051,0.1444206056285331,-0.4939967813242162,0.498412536053246,-0.4726733609107491,0.5330403529111316,0.0,0.0,0.0,124,0.0009550986578688,0,1735643777088322877,map,0.984674966498413,-0.0300199944528775,0.2420993232304249,-0.5412410267554567,0.4337213745811719,-0.4468904612128359,0.565006934351338,0.0,0.0,0.0,125,1.6024039268813794e-06,0,1735643777088343858,map,0.990665873582714,-0.0236573941432998,0.1446686309987535,0.5140346876835185,-0.5139838068058126,0.4870029620183614,-0.4841663982401665,0.0,0.0,0.0,126,0.0398689843714237,0,1735644242188269615,map,0.9809553413976568,0.3333124703568848,0.0231693310033081,-0.5035408385420366,0.4979448249362776,-0.4771055689881476,0.5204496625804059,0.0,0.0,0.0,0,0.0175780057907104,0.9429285150259832,0.0849864476941646,0.0425170602168282,1.0,5.359008980429469e-06,-9.492130714297196e-06,-7.834542784277532e-05,0.0,0.0,0.0,-9.492130714297196e-06,0.0081686479048015,-0.0015871980377444,0.0,0.0,0.0,-7.834542784277532e-05,-0.0015871980377444,0.00151079676802,0.0,0.0,0.0,0.0,0.0,0.0,0.0,0.0,0.0,0.0,0.0,0.0,0.0,0.0,0.0,0.0,0.0,0.0,0.0,0.0,0.0,0,0,0,1,14,,17
1.401871916,0,1735643777088230371,map,0.972512039018401,-0.2245148710124953,0.0198904805437816,-0.498909654578788,0.510188894487568,-0.491027987626322,0.4996878664499196,0.0,0.0,0.0,1,8.817028719931841e-05,0,1735643777088253974,map,0.9650777690912036,-0.2495923450797464,0.1483840395731619,-0.5151126303094341,0.4862637448044994,-0.4745025902455833,0.5225455391012669,0.0,0.0,0.0,16,0.0003300890384707,0,1735643777088270664,map,0.973392643151852,0.0529072179100608,0.0250063028343993,-0.504830183057657,0.4944103576502119,-0.4848759922327885,0.5153641010765416,0.0,0.0,0.0,17,0.6763376593589783,0,1735643777088284730,map,0.9936218983456092,-0.2639377604557267,0.2372236615532217,-0.5002754203557278,0.4858147056272218,-0.4852723612205962,0.5274649855863641,0.0,0.0,0.0,121,3.86653084660793e-07,0,1735643777088297367,map,0.9892000680256048,0.1989846519789472,0.2424208682570321,-0.4968870903941819,0.482088760418895,-0.5034178232069592,0.5169759585850628,0.0,0.0,0.0,122,4.564263411666048e-10,0,1735643777088310956,map,0.9870838759886602,0.2015884269213387,0.1448232656199473,-0.4937306774552983,0.5009582478689758,-0.4746871104632103,0.5290963987702683,0.0,0.0,0.0,124,0.0007735434919595,0,1735643777088322877,map,0.9859671060101614,-0.0327995365219676,0.2429509696874171,-0.5340789664770164,0.469078582590605,-0.4625105075318261,0.5299141169513076,0.0,0.0,0.0,125,6.029068799762172e-07,0,1735643777088343858,map,0.980571999562468,-0.026354262505143,0.1460252912486804,0.5990932268876389,-0.5395612913444371,0.397954878724102,-0.4377131856361709,0.0,0.0,0.0,126,0.0270855911076068,0,1735644242188269615,map,0.9809553413976568,0.3333124703568848,0.0231693310033081,-0.5035408385420366,0.4979448249362776,-0.4771055689881476,0.5204496625804059,0.0,0.0,0.0,0,0.0180803723633289,0.942875778683538,0.0893217334769635,0.0423899115334,1.0,5.040677420470288e-06,-1.2060101618956044e-05,-7.302852432877372e-05,0.0,0.0,0.0,-1.2060101618956044e-05,0.0078871972172742,-0.001489101997542,0.0,0.0,0.0,-7.302852432877372e-05,-0.001489101997542,0.0014103033185131,0.0,0.0,0.0,0.0,0.0,0.0,0.0,0.0,0.0,0.0,0.0,0.0,0.0,0.0,0.0,0.0,0.0,0.0,0.0,0.0,0.0,0,0,0,1,15,,17
1.501936895,0,1735643777088230371,map,0.9682095133452822,-0.2230098962530115,0.0214083204754621,-0.4952814584197835,0.5057183542749262,-0.4897393855904395,0.5090192111271746,0.0,0.0,0.0,1,6.0976431996095926e-05,0,1735643777088253974,map,0.969384964286576,-0.2518081934419982,0.1482253545488614,-0.5101333597758427,0.4910470193470116,-0.4812483543929005,0.5167560366636771,0.0,0.0,0.0,16,0.0001745795598253,0,1735643777088270664,map,0.9731684609067232,0.0526160248366588,0.025259145783012,-0.5093264321860748,0.4851738398752288,-0.4707774385083592,0.5325049614499732,0.0,0.0,0.0,17,0.6464082598686218,0,1735643777088284730,map,0.9932543291538412,-0.264858516152083,0.2376533280535407,-0.5063595667776134,0.4968920730744428,-0.4771352946435798,0.5186908206763974,0.0,0.0,0.0,121,1.304023413695177e-07,0,1735643777088297367,map,0.988604411567245,0.1986750785267278,0.242896408664559,-0.515769944075075,0.4915297111973905,-0.4874971795030504,0.5047042775483227,0.0,0.0,0.0,122,1.4942951043206418e-10,0,1735643777088310956,map,0.9843762537237262,0.2002789521160258,0.1454123572870545,-0.4993763478931184,0.5021843145193392,-0.4733511663100569,0.5238061194455267,0.0,0.0,0.0,124,0.0005680809845216,0,1735643777088322877,map,0.9808891213656246,-0.0329777300074851,0.2429936808665866,0.5289670613686629,-0.5220048085541615,0.4679753221447136,-0.4782299924689857,0.0,0.0,0.0,125,2.4426739742011705e-07,0,1735643777088343858,map,0.985342904038182,-0.0268871586950661,0.1452651133340272,0.4919987491300928,-0.5104161016804665,0.5124397041509434,-0.4845804201672136,0.0,0.0,0.0,126,0.0233279876410961,0,1735644242188269615,map,0.9809553413976568,0.3333124703568848,0.0231693310033081,-0.5035408385420366,0.4979448249362776,-0.4771055689881476,0.5204496625804059,0.0,0.0,0.0,0,0.0162361040711402,0.942825809914219,0.0917390655986209,0.0426273481497193,1.0,4.763088250299717e-06,-1.3118211935088706e-05,-6.864220779085649e-05,0.0,0.0,0.0,-1.3118211935088706e-05,0.0074818998099905,-0.0013874236753034,0.0,0.0,0.0,-6.864220779085649e-05,-0.0013874236753034,0.0013230050033075,0.0,0.0,0.0,0.0,0.0,0.0,0.0,0.0,0.0,0.0,0.0,0.0,0.0,0.0,0.0,0.0,0.0,0.0,0.0,0.0,0.0,0,0,0,1,16,,17
1.602161897,0,1735643777088230371,map,0.9699427878505248,-0.2247352307939339,0.021256148837052,-0.4934972400328128,0.5021391766747754,-0.4959362142137783,0.5082951827035951,0.0,0.0,0.0,1,3.453375757089816e-05,0,1735643777088253974,map,0.9693000730283006,-0.252746322030403,0.1487392165113729,-0.5050269077228967,0.4912074766717884,-0.4886621571676054,0.5146574914347273,0.0,0.0,0.0,16,0.0001034989836625,0,1735643777088270664,map,0.9672990762411096,0.0513741620410002,0.0279081182299053,-0.4824237897054333,0.5048101623758592,-0.506449227243118,0.5059082597795334,0.0,0.0,0.0,17,0.6499960422515869,0,1735643777088284730,map,0.9909491579853472,-0.2654019623984316,0.2385396524617509,-0.4938311591610891,0.4872343690321206,-0.4926811902467353,0.5253557848282887,0.0,0.0,0.0,121,8.729652023475866e-08,0,1735643777088297367,map,0.98939851391231,0.199157140365768,0.2440973895753044,-0.4988759195731361,0.4735162118854659,-0.50039057587097,0.5258464467230108,0.0,0.0,0.0,122,3.3605199178943224e-10,0,1735643777088310956,map,0.9801987977535672,0.1982686027963846,0.1467269240799575,-0.4818915503596846,0.4982080153307683,-0.4841627172408814,0.5339997850056154,0.0,0.0,0.0,124,0.0007897897739894,0,1735643777088322877,map,0.9819704318314232,-0.0340698564420525,0.2443071398291399,-0.5152525009580804,0.4531689530106191,-0.4821657532414757,0.5446732476308923,0.0,0.0,0.0,125,3.605245524340717e-07,0,1735643777088343858,map,0.9761905426101268,-0.0278417781855229,0.1474810909065698,0.5762587136128562,-0.5293435561422728,0.4216690240155452,-0.4581664858342288,0.0,0.0,0.0,126,0.0217681769281625,0,1735644242188269615,map,0.9809553413976568,0.3333124703568848,0.0231693310033081,-0.5035408385420366,0.4979448249362776,-0.4771055689881476,0.5204496625804059,0.0,0.0,0.0,0,0.0140707036480307,0.9426663038762586,0.0924714297516019,0.0448639853293616,1.0,4.8899814068505815e-06,-1.4215616479674931e-05,-7.031254502005713e-05,0.0,0.0,0.0,-1.4215616479674931e-05,0.0070503697725028,-0.0012796019916351,0.0,0.0,0.0,-7.031254502005713e-05,-0.0012796019916351,0.0013252219135573,0.0,0.0,0.0,0.0,0.0,0.0,0.0,0.0,0.0,0.0,0.0,0.0,0.0,0.0,0.0,0.0,0.0,0.0,0.0,0.0,0.0,0,0,0,1,17,,17
1.702069991,0,1735643777088230371,map,0.9610510036617338,-0.2239169334779277,0.0241695535980537,-0.4978487566855455,0.4972119824842263,-0.49288739468091,0.5118484894042645,0.0,0.0,0.0,1,2.685642903088592e-05,0,1735643777088253974,map,0.9656460455929716,-0.2544849336543768,0.1494693635011062,-0.5061965651260445,0.4963970572869631,-0.4835482529375551,0.5133576589985547,0.0,0.0,0.0,16,6.83814287185669e-05,0,1735643777088270664,map,0.9657258616601428,0.0498045179518364,0.0278380937593445,-0.4953483903392091,0.4896266173622102,-0.4891092970756209,0.52504080153164,0.0,0.0,0.0,17,0.6057508587837219,0,1735643777088284730,map,0.9832133247547704,-0.2655294742329502,0.2389486675271744,-0.5011244472490287,0.4996562290860984,-0.4809392462959641,0.5176054312669897,0.0,0.0,0.0,121,8.793278283292238e-08,0,1735643777088297367,map,0.9853076182628392,0.1970208539227136,0.2449666294758,-0.5011022751464912,0.4732267336127427,-0.4980803295358203,0.5261833841606114,0.0,0.0,0.0,122,6.734560686894041e-10,0,1735643777088310956,map,0.9773405492123692,0.196814713178581,0.1473310147884032,-0.4875792124205016,0.4986765932510994,-0.4800550135394381,0.5321046428424878,0.0,0.0,0.0,124,0.0010215960210189,0,1735643777088322877,map,0.9774912745961128,-0.0358567373505332,0.245091317641947,-0.4933019625456959,0.5010538874197228,-0.5038905849745339,0.5016895992784496,0.0,0.0,0.0,125,6.350203420879552e-07,0,1735643777088343858,map,0.9750553713339783,-0.0295393460328434,0.1476700652226761,0.512748284984878,-0.5084085887756059,0.4876608983457726,-0.4907104556954718,0.0,0.0,0.0,126,0.0262148305773735,0,1735644242188269615,map,0.9809553413976568,0.3333124703568848,0.0231693310033081,-0.5035408385420366,0.4979448249362776,-0.4771055689881476,0.5204496625804059,0.0,0.0,0.0,0,0.0111086582764983,0.9425158025971506,0.0917390678556948,0.047275724171946,1.0,5.003376568359488e-06,-1.1552096172815702e-05,-7.25767787905558e-05,0.0,0.0,0.0,-1.1552096172815702e-05,0.0066678005800111,-0.00123853950783,0.0,0.0,0.0,-7.25767787905558e-05,-0.00123853950783,0.0013504787060773,0.0,0.0,0.0,0.0,0.0,0.0,0.0,0.0,0.0,0.0,0.0,0.0,0.0,0.0,0.0,0.0,0.0,0.0,0.0,0.0,0.0,0,0,0,1,18,,17
1.799471059,0,1735643777088230371,map,0.9670912539125558,-0.2275801863025169,0.0213082585304899,-0.4909745527632509,0.5086090946391069,-0.4965543485457399,0.5036810065206244,0.0,0.0,0.0,1,9.41387679631589e-06,0,1735643777088253974,map,0.9606336013114284,-0.2524429645761033,0.150111914645061,-0.505684518418954,0.4882674170851182,-0.4866716439955985,0.5186798706090676,0.0,0.0,0.0,16,5.375876935431734e-05,0,1735643777088270664,map,0.9666837419210922,0.0497127050312049,0.0272390203990531,-0.4954357206128429,0.5050257930330463,-0.4930982361490097,0.5063067495292858,0.0,0.0,0.0,17,0.5740265250205994,0,1735643777088284730,map,0.9818272558787622,-0.2660331314610081,0.2390797282031736,-0.4974133525220916,0.4934682131474666,-0.4864991533002735,0.521907705618433,0.0,0.0,0.0,121,5.1753449525904216e-08,0,1735643777088297367,map,0.98440531688098,0.196736769765393,0.2451147283040116,-0.5060228200639075,0.4820539732808984,-0.4938664941903494,0.5173594092454513,0.0,0.0,0.0,122,2.45998249548407e-10,0,1735643777088310956,map,0.9743255240708572,0.1954488144924732,0.1476896995420695,-0.4791875518929425,0.502587582571988,-0.4862434450681756,0.5304265491880336,0.0,0.0,0.0,124,0.0007307037594728,0,1735643777088322877,map,0.9758061007340386,-0.0367789806771327,0.2451315212742023,-0.5074745314007666,0.4961835206515266,-0.4909412283903779,0.5052209655981973,0.0,0.0,0.0,125,3.8293481452456046e-07,0,1735643777088343858,map,0.9682815246062264,-0.0300079943310045,0.1482239503903707,-0.4777667122112702,0.4850173382632506,-0.5246870585665275,0.5110779205362622,0.0,0.0,0.0,126,0.0226758066564798,0,1735644242188269615,map,0.9809553413976568,0.3333124703568848,0.0231693310033081,-0.5035408385420366,0.4979448249362776,-0.4771055689881476,0.5204496625804059,0.0,0.0,0.0,0,0.0084152678027749,0.942475685401954,0.0900856680491959,0.0482273279161111,1.0,4.769009967806316e-06,-9.750155381134664e-06,-6.944411044467444e-05,0.0,0.0,0.0,-9.750155381134664e-06,0.0063660708639413,-0.0012016740839806,0.0,0.0,0.0,-6.944411044467444e-05,-0.0012016740839806,0.0012957007737881,0.0,0.0,0.0,0.0,0.0,0.0,0.0,0.0,0.0,0.0,0.0,0.0,0.0,0.0,0.0,0.0,0.0,0.0,0.0,0.0,0.0,0,0,0,1,19,,17
1.902110273,0,1735643777088230371,map,0.959993074430729,-0.2243858466663117,0.0235487130633988,-0.4939243843186479,0.4939797149783586,-0.49459199295829,0.517108793453458,0.0,0.0,0.0,1,2.6509713279665448e-05,0,1735643777088253974,map,0.9604298271192486,-0.2526618422742412,0.149203616158982,-0.5092347102111446,0.4976515934421501,-0.4793621429787773,0.513064164934031,0.0,0.0,0.0,16,3.674162508104928e-05,0,1735643777088270664,map,0.965259126978169,0.0492286963259611,0.0271164644334224,-0.4985165069414832,0.4945486375952128,-0.4820408622838456,0.5239652130134475,0.0,0.0,0.0,17,0.6329216361045837,0,1735643777088284730,map,0.9811539620548052,-0.2666077568590366,0.2384959016021923,-0.4960995964197227,0.4914276384710826,-0.4905625627734711,0.5212796165054294,0.0,0.0,0.0,121,2.2203725080771622e-08,0,1735643777088297367,map,0.9769392182704392,0.1932597187088739,0.243838038522435,-0.5082008807804514,0.492570743227759,-0.4917315369031644,0.5072534113289714,0.0,0.0,0.0,122,6.17763618038225e-10,0,1735643777088310956,map,0.9746836911983412,0.1956580497232952,0.1469734127106967,-0.4894963153721093,0.5015668382842522,-0.4784353816084033,0.5290781129435319,0.0,0.0,0.0,124,0.0008823448442853,0,1735643777088322877,map,0.9728136957635688,-0.0367886553349334,0.2441873503689188,-0.4678381945297142,0.5307122269577125,-0.5239893653910034,0.4742437146171747,0.0,0.0,0.0,125,3.4352143529758905e-07,0,1735643777088343858,map,0.9670946876939556,-0.0306024138835855,0.1478434066341746,-0.5080863804761689,0.467991145626245,-0.4926370931148137,0.5292836782647345,0.0,0.0,0.0,126,0.0189420226961374,0,1735644242188269615,map,0.9809553413976568,0.3333124703568848,0.0231693310033081,-0.5035408385420366,0.4979448249362776,-0.4771055689881476,0.5204496625804059,0.0,0.0,0.0,0,0.0068829474039375,0.9426273397427336,0.0873902040111663,0.0465240644128233,1.0,4.967541211885204e-06,-1.702944522595078e-05,-7.087974369398028e-05,0.0,0.0,0.0,-1.702944522595078e-05,0.0061858123219701,-0.0010543597548939,0.0,0.0,0.0,-7.087974369398028e-05,-0.0010543597548939,0.0012860367597697,0.0,0.0,0.0,0.0,0.0,0.0,0.0,0.0,0.0,0.0,0.0,0.0,0.0,0.0,0.0,0.0,0.0,0.0,0.0,0.0,0.0,0,0,0,1,20,,17
2.002849759,0,1735643777088230371,map,0.9623417266501568,-0.2270775608749366,0.0207813003029188,-0.4931287599493111,0.5051499337163555,-0.4942052383563646,0.5073546619065848,0.0,0.0,0.0,1,1.619743306946475e-05,0,1735643777088253974,map,0.9633425896086344,-0.2559073004411804,0.1476479665017207,-0.5010648382150594,0.4926153509306877,-0.4925805082949517,0.5134477449359756,0.0,0.0,0.0,16,2.1672090952051803e-05,0,1735643777088270664,map,0.9627804139551644,0.0481858340919971,0.0263607060788594,-0.4910810232291418,0.4926794711856083,-0.4946405976672698,0.5209962057787508,0.0,0.0,0.0,17,0.6341670155525208,0,1735643777088284730,map,0.9803843601185264,-0.2679755462696896,0.2374351485474427,-0.4930555601894141,0.4905448619219523,-0.4938146954783465,0.5219281555328315,0.0,0.0,0.0,121,9.65236957028992e-09,0,1735643777088297367,map,0.9801666217109846,0.1947728214487436,0.2430584787168867,-0.4994399136186438,0.4856958439291517,-0.5000557899238213,0.5143962741294048,0.0,0.0,0.0,122,3.330818398872281e-10,0,1735643777088310956,map,0.9734899941797924,0.1949507456539192,0.1456977352050104,-0.4955827920511765,0.5059966004368688,-0.4780878783802545,0.519419981435985,0.0,0.0,0.0,124,0.0007698434637859,0,1735643777088322877,map,0.966798536884666,-0.0374601451392905,0.2425102854975824,-0.5320649709407648,0.4795326115983227,-0.4648099987743718,0.520487277607113,0.0,0.0,0.0,125,2.1137772421298e-07,0,1735643777088343858,map,0.9662997271352408,-0.0312916602054441,0.1467147738166122,0.4829239059821588,-0.4976221192334497,0.5207634283497442,-0.4979580094485537,0.0,0.0,0.0,126,0.0163328349590301,0,1735644242188269615,map,0.9809553413976568,0.3333124703568848,0.0231693310033081,-0.5035408385420366,0.4979448249362776,-0.4771055689881476,0.5204496625804059,0.0,0.0,0.0,0,0.0052913594990968,0.9427013288397472,0.0857579809412742,0.0457602280476828,1.0,4.840479359904092e-06,-1.863385348412613e-05,-6.863482906224589e-05,0.0,0.0,0.0,-1.863385348412613e-05,0.0059445328734455,-0.0009792171207819,0.0,0.0,0.0,-6.863482906224589e-05,-0.0009792171207819,0.0012364658339206,0.0,0.0,0.0,0.0,0.0,0.0,0.0,0.0,0.0,0.0,0.0,0.0,0.0,0.0,0.0,0.0,0.0,0.0,0.0,0.0,0.0,0,0,0,1,21,,17
2.102035368,0,1735643777088230371,map,0.9580385845091148,-0.2270512965661664,0.02191643887387,-0.4972587032770142,0.5084784977002116,-0.4918469971549176,0.5022648014558544,0.0,0.0,0.0,1,1.2001150935248006e-05,0,1735643777088253974,map,0.9552752817757988,-0.2533099195979443,0.1489447649923665,-0.5061864124524019,0.4928928182228922,-0.4872428935822738,0.5132507654611292,0.0,0.0,0.0,16,1.4379012100107502e-05,0,1735643777088270664,map,0.9582529177406176,0.0476383343427422,0.0275806118082606,-0.4909513104199483,0.4995477955801828,-0.5024745015620684,0.5068907042034472,0.0,0.0,0.0,17,0.6515180468559265,0,1735643777088284730,map,0.9768653924764072,-0.2688456093046569,0.2383386216326031,-0.4902551366216748,0.4889989751883715,-0.4979049499719443,0.5221307921146017,0.0,0.0,0.0,121,3.363329614813892e-09,0,1735643777088297367,map,0.9784262775486552,0.1952629656890459,0.2444214479693359,-0.5100906959046688,0.4809821932158069,-0.493232749892318,0.5149612278555207,0.0,0.0,0.0,122,8.382769478565422e-11,0,1735643777088310956,map,0.9671426773574584,0.1932780212732024,0.1468281522560955,-0.4842981017809785,0.5026953648640256,-0.4854935972943746,0.5263541447939147,0.0,0.0,0.0,124,0.0004763075849041,0,1735643777088322877,map,0.970944765893056,-0.0380199437944035,0.2433580354528791,-0.5070237025744652,0.4703297297746829,-0.4935553941436768,0.5273708213671231,0.0,0.0,0.0,125,9.050516780462205e-08,0,1735643777088343858,map,0.9677299112263164,-0.0314234400384312,0.1462146814348276,0.5194943012371913,-0.5006972055282458,0.4888515554652042,-0.4903591908769921,0.0,0.0,0.0,126,0.0139041049405932,0,1735644242188269615,map,0.9809553413976568,0.3333124703568848,0.0231693310033081,-0.5035408385420366,0.4979448249362776,-0.4771055689881476,0.5204496625804059,0.0,0.0,0.0,0,0.0040294281207025,0.942726652999884,0.0850032939992329,0.0455402951693808,1.0,4.633925145636989e-06,-1.818820821638199e-05,-6.563202602889044e-05,0.0,0.0,0.0,-1.818820821638199e-05,0.0056862874337337,-0.0009312216617565,0.0,0.0,0.0,-6.563202602889044e-05,-0.0009312216617565,0.0011812786213597,0.0,0.0,0.0,0.0,0.0,0.0,0.0,0.0,0.0,0.0,0.0,0.0,0.0,0.0,0.0,0.0,0.0,0.0,0.0,0.0,0.0,0,0,0,1,22,,17
2.201901783,0,1735643777088230371,map,0.9568524017902822,-0.2274750604121439,0.0217434217225238,-0.4962225619142915,0.5016442952047142,-0.4917384507170805,0.5102053177125349,0.0,0.0,0.0,1,7.352717602771008e-06,0,1735643777088253974,map,0.9561877527781004,-0.2550632371953367,0.148738347866369,-0.5052265707041829,0.4953961203962464,-0.4839390819361122,0.5149094688638695,0.0,0.0,0.0,16,8.131104550557211e-06,0,1735643777088270664,map,0.958976944849375,0.0479102759117828,0.0266382547131565,-0.4984855226409967,0.4925145523648179,-0.488428295992873,0.5199801910647309,0.0,0.0,0.0,17,0.6305733919143677,0,1735643777088284730,map,0.9738453955478562,-0.2684086821959784,0.2384136742656649,-0.4936297230850336,0.4883731351015679,-0.4941189963609524,0.52313267421688,0.0,0.0,0.0,121,1.3628898010153991e-09,0,1735643777088297367,map,0.9734286342949208,0.1937445902120469,0.2443373850462201,-0.5071855768240927,0.4797459048989934,-0.4963677943685183,0.515970609732755,0.0,0.0,0.0,122,2.933311232800051e-11,0,1735643777088310956,map,0.9662599503310269,0.1937431935456163,0.1469307774459369,-0.486267460709179,0.5037447151560008,-0.4824629999526312,0.5263218333724664,0.0,0.0,0.0,124,0.0003170940908603,0,1735643777088322877,map,0.962742407579968,-0.0382951160610806,0.2438196824934628,-0.5210856808225592,0.4760657583199764,-0.4776663621479846,0.5231309142740719,0.0,0.0,0.0,125,3.554167804509234e-08,0,1735643777088343858,map,0.96534788803924,-0.0324306125594184,0.1470206820752197,-0.5041244183477295,0.5054849423094707,-0.4978044669771096,0.492477671150267,0.0,0.0,0.0,126,0.0104266470298171,0,1735644242188269615,map,0.9809553413976568,0.3333124703568848,0.0231693310033081,-0.5035408385420366,0.4979448249362776,-0.4771055689881476,0.5204496625804059,0.0,0.0,0.0,0,0.0030820462852716,0.942742355294636,0.0845637495146411,0.0453979121693766,1.0,4.437874504635493e-06,-1.754925740998125e-05,-6.28276459561506e-05,0.0,0.0,0.0,-1.754925740998125e-05,0.0054433079310971,-0.0008893569228475,0.0,0.0,0.0,-6.28276459561506e-05,-0.0008893569228475,0.0011303646855118,0.0,0.0,0.0,0.0,0.0,0.0,0.0,0.0,0.0,0.0,0.0,0.0,0.0,0.0,0.0,0.0,0.0,0.0,0.0,0.0,0.0,0,0,0,1,23,,17
2.301523426,0,1735643777088230371,map,0.9592461886502256,-0.2293476561496855,0.0201311587388079,-0.4970091637557464,0.5103848228469599,-0.4876927560981092,0.5046236215237271,0.0,0.0,0.0,1,7.17507009539986e-06,0,1735643777088253974,map,0.9561877527781004,-0.2550632371953367,0.148738347866369,-0.5052265707041829,0.4953961203962464,-0.4839390819361122,0.5149094688638695,0.0,0.0,0.0,16,4.779883965966292e-06,0,1735643777088270664,map,0.9564659693412711,0.0476292806153182,0.0272896782498153,-0.4935886218303937,0.4923212364877188,-0.490459765116522,0.5229142293958187,0.0,0.0,0.0,17,0.6935951709747314,0,1735643777088284730,map,0.9738453955478562,-0.2684086821959784,0.2384136742656649,-0.4936297230850336,0.4883731351015679,-0.4941189963609524,0.52313267421688,0.0,0.0,0.0,121,7.986881711552484e-10,0,1735643777088297367,map,0.9701841798456192,0.1921652884085599,0.2436778868604397,-0.4999142069842051,0.484871198769687,-0.500200299553939,0.5145729944188193,0.0,0.0,0.0,122,1.0573111136613632e-10,0,1735643777088310956,map,0.965340635305971,0.193370094244894,0.1467678629317869,-0.4888187936887259,0.5029462516841502,-0.4804977270457017,0.5265198848642635,0.0,0.0,0.0,124,0.0004105666594114,0,1735643777088322877,map,0.9622524538112498,-0.0386258642708997,0.2437438687399783,-0.5227567362712539,0.4921087692651662,-0.477016394438211,0.5069612542714872,0.0,0.0,0.0,125,5.1965834302336595e-08,0,1735643777088343858,map,0.961849498506234,-0.0322112510071359,0.1472799406352396,0.5107890731553336,-0.5041245447860716,0.4894206581850014,-0.4953992182382926,0.0,0.0,0.0,126,0.0092888865619897,0,1735644242188269615,map,0.9809553413976568,0.3333124703568848,0.0231693310033081,-0.5035408385420366,0.4979448249362776,-0.4771055689881476,0.5204496625804059,0.0,0.0,0.0,0,0.0023814961314201,0.9428880905695504,0.0835858043595834,0.0434197556803104,1.0,4.741454785092427e-06,-2.0096023789771435e-05,-6.68404325090689e-05,0.0,0.0,0.0,-2.0096023789771435e-05,0.0052385000986729,-0.0008078062276437,0.0,0.0,0.0,-6.68404325090689e-05,-0.0008078062276437,0.0011732675281392,0.0,0.0,0.0,0.0,0.0,0.0,0.0,0.0,0.0,0.0,0.0,0.0,0.0,0.0,0.0,0.0,0.0,0.0,0.0,0.0,0.0,0,0,0,1,24,,17
2.401587555,0,1735643777088230371,map,0.9559084757565484,-0.2271066555805682,0.0206652199005927,-0.4938869601920268,0.5091448812687802,-0.4923967578427337,0.5043734660903993,0.0,0.0,0.0,1,6.06341018283274e-06,0,1735643777088253974,map,0.9561877527781004,-0.2550632371953367,0.148738347866369,-0.5052265707041829,0.4953961203962464,-0.4839390819361122,0.5149094688638695,0.0,0.0,0.0,16,2.9094762794557028e-06,0,1735643777088270664,map,0.9572377278793612,0.0477225590263884,0.0259847109714775,-0.4941598644541208,0.5013548580598505,-0.4893496427390284,0.5147681631702349,0.0,0.0,0.0,17,0.6855247616767883,0,1735643777088284730,map,0.9738453955478562,-0.2684086821959784,0.2384136742656649,-0.4936297230850336,0.4883731351015679,-0.4941189963609524,0.52313267421688,0.0,0.0,0.0,121,4.4847900393385487e-10,0,1735643777088297367,map,0.9739464669599706,0.1944669172027604,0.2435934062316029,-0.5064681059664463,0.4788891425773271,-0.4949715985037718,0.5188047450004036,0.0,0.0,0.0,122,6.635583749137197e-11,0,1735643777088310956,map,0.9642653357904838,0.1931560627525799,0.1460208990512879,-0.4885162555294934,0.5029815876026292,-0.4811381688036635,0.5261819582011898,0.0,0.0,0.0,124,0.0003539453027769,0,1735643777088322877,map,0.9666936101394752,-0.0391434578860407,0.2437072956896098,-0.5029019644688899,0.5047767159592794,-0.4958479092261794,0.496412058752326,0.0,0.0,0.0,125,4.2084845830459023e-08,0,1735643777088343858,map,0.9618053893964522,-0.0325041532054426,0.1462855041419303,0.4847499634992046,-0.4978055827481051,0.5191153424259343,-0.4977211427399322,0.0,0.0,0.0,126,0.0086430395022034,0,1735644242188269615,map,0.9809553413976568,0.3333124703568848,0.0231693310033081,-0.5035408385420366,0.4979448249362776,-0.4771055689881476,0.5204496625804059,0.0,0.0,0.0,0,0.0018549807136878,0.9429718022108692,0.0840371704845457,0.0420689824984955,1.0,4.719979927103275e-06,-1.8385352458430288e-05,-6.688062577108288e-05,0.0,0.0,0.0,-1.8385352458430288e-05,0.0050338496478163,-0.0007901266167006,0.0,0.0,0.0,-6.688062577108288e-05,-0.0007901266167006,0.0011701269435427,0.0,0.0,0.0,0.0,0.0,0.0,0.0,0.0,0.0,0.0,0.0,0.0,0.0,0.0,0.0,0.0,0.0,0.0,0.0,0.0,0.0,0,0,0,1,25,,17
2.501842865,0,1735643777088230371,map,0.9559084757565484,-0.2271066555805682,0.0206652199005927,-0.4938869601920268,0.5091448812687802,-0.4923967578427337,0.5043734660903993,0.0,0.0,0.0,1,3.686545369419037e-06,0,1735643777088253974,map,0.9561877527781004,-0.2550632371953367,0.148738347866369,-0.5052265707041829,0.4953961203962464,-0.4839390819361122,0.5149094688638695,0.0,0.0,0.0,16,2.749841542026843e-06,0,1735643777088270664,map,0.9530321219947144,0.047337374776145,0.0270829436602748,-0.4897032757745928,0.5012195258999509,-0.4974159883495487,0.5114166824483762,0.0,0.0,0.0,17,0.7070783972740173,0,1735643777088284730,map,0.9738453955478562,-0.2684086821959784,0.2384136742656649,-0.4936297230850336,0.4883731351015679,-0.4941189963609524,0.52313267421688,0.0,0.0,0.0,121,7.793721779059125e-10,0,1735643777088297367,map,0.968510304664976,0.1930964573100139,0.244225270649807,-0.5042127111934935,0.4804642791441547,-0.4967814025766675,0.5178144999817539,0.0,0.0,0.0,122,5.2179458670531525e-11,0,1735643777088310956,map,0.960558107948018,0.1925981136634994,0.1467730990620695,-0.4900406390415747,0.5030302090695908,-0.4795360176059989,0.5261805666021013,0.0,0.0,0.0,124,0.0002642520412337,0,1735643777088322877,map,0.9618058195378212,-0.0394598610832617,0.244262262060163,-0.5026757290156286,0.5011478033904826,-0.49566596941122,0.5004830040901852,0.0,0.0,0.0,125,5.7763706706737146e-08,0,1735643777088343858,map,0.9568553653125992,-0.0327632875616589,0.1473138041100117,0.5265249474293231,-0.5011259330730501,0.4757886362201602,-0.4952468602424185,0.0,0.0,0.0,126,0.0082790534943342,0,1735644242188269615,map,0.9809553413976568,0.3333124703568848,0.0231693310033081,-0.5035408385420366,0.4979448249362776,-0.4771055689881476,0.5204496625804059,0.0,0.0,0.0,0,0.0016883617499843,0.9430764850731193,0.0862586623948666,0.0400289740480893,1.0,4.8124047788211485e-06,-1.1864420226775524e-05,-6.964714210072937e-05,0.0,0.0,0.0,-1.1864420226775524e-05,0.0049636157036678,-0.000873033688182,0.0,0.0,0.0,-6.964714210072937e-05,-0.000873033688182,0.0012291629230419,0.0,0.0,0.0,0.0,0.0,0.0,0.0,0.0,0.0,0.0,0.0,0.0,0.0,0.0,0.0,0.0,0.0,0.0,0.0,0.0,0.0,0,0,0,1,26,,17
