%time,field.boxes0.header.seq,field.boxes0.header.stamp,field.boxes0.header.frame_id,field.boxes0.pose.position.x,field.boxes0.pose.position.y,field.boxes0.pose.position.z,field.boxes0.pose.orientation.x,field.boxes0.pose.orientation.y,field.boxes0.pose.orientation.z,field.boxes0.pose.orientation.w,field.boxes0.scale.x,field.boxes0.scale.y,field.boxes0.scale.z,field.boxes0.id,field.boxes0.pdf,field.boxes1.header.seq,field.boxes1.header.stamp,field.boxes1.header.frame_id,field.boxes1.pose.position.x,field.boxes1.pose.position.y,field.boxes1.pose.position.z,field.boxes1.pose.orientation.x,field.boxes1.pose.orientation.y,field.boxes1.pose.orientation.z,field.boxes1.pose.orientation.w,field.boxes1.scale.x,field.boxes1.scale.y,field.boxes1.scale.z,field.boxes1.id,field.boxes1.pdf,field.boxes2.header.seq,field.boxes2.header.stamp,field.boxes2.header.frame_id,field.boxes2.pose.position.x,field.boxes2.pose.position.y,field.boxes2.pose.position.z,field.boxes2.pose.orientation.x,field.boxes2.pose.orientation.y,field.boxes2.pose.orientation.z,field.boxes2.pose.orientation.w,field.boxes2.scale.x,field.boxes2.scale.y,field.boxes2.scale.z,field.boxes2.id,field.boxes2.pdf,field.boxes3.header.seq,field.boxes3.header.stamp,field.boxes3.header.frame_id,field.boxes3.pose.position.x,field.boxes3.pose.position.y,field.boxes3.pose.position.z,field.boxes3.pose.orientation.x,field.boxes3.pose.orientation.y,field.boxes3.pose.orientation.z,field.boxes3.pose.orientation.w,field.boxes3.scale.x,field.boxes3.scale.y,field.boxes3.scale.z,field.boxes3.id,field.boxes3.pdf,field.boxes4.header.seq,field.boxes4.header.stamp,field.boxes4.header.frame_id,field.boxes4.pose.position.x,field.boxes4.pose.position.y,field.boxes4.pose.position.z,field.boxes4.pose.orientation.x,field.boxes4.pose.orientation.y,field.boxes4.pose.orientation.z,field.boxes4.pose.orientation.w,field.boxes4.scale.x,field.boxes4.scale.y,field.boxes4.scale.z,field.boxes4.id,field.boxes4.pdf,field.boxes5.header.seq,field.boxes5.header.stamp,field.boxes5.header.frame_id,field.boxes5.pose.position.x,field.boxes5.pose.position.y,field.boxes5.pose.position.z,field.boxes5.pose.orientation.x,field.boxes5.pose.orientation.y,field.boxes5.pose.orientation.z,field.boxes5.pose.orientation.w,field.boxes5.scale.x,field.boxes5.scale.y,field.boxes5.scale.z,field.boxes5.id,field.boxes5.pdf,field.boxes6.header.seq,field.boxes6.header.stamp,field.boxes6.header.frame_id,field.boxes6.pose.position.x,field.boxes6.pose.position.y,field.boxes6.pose.position.z,field.boxes6.pose.orientation.x,field.boxes6.pose.orientation.y,field.boxes6.pose.orientation.z,field.boxes6.pose.orientation.w,field.boxes6.scale.x,field.boxes6.scale.y,field.boxes6.scale.z,field.boxes6.id,field.boxes6.pdf,field.boxes7.header.seq,field.boxes7.header.stamp,field.boxes7.header.frame_id,field.boxes7.pose.position.x,field.boxes7.pose.position.y,field.boxes7.pose.position.z,field.boxes7.pose.orientation.x,field.boxes7.pose.orientation.y,field.boxes7.pose.orientation.z,field.boxes7.pose.orientation.w,field.boxes7.scale.x,field.boxes7.scale.y,field.boxes7.scale.z,field.boxes7.id,field.boxes7.pdf,field.boxes8.header.seq,field.boxes8.header.stamp,field.boxes8.header.frame_id,field.boxes8.pose.position.x,field.boxes8.pose.position.y,field.boxes8.pose.position.z,field.boxes8.pose.orientation.x,field.boxes8.pose.orientation.y,field.boxes8.pose.orientation.z,field.boxes8.pose.orientation.w,field.boxes8.scale.x,field.boxes8.scale.y,field.boxes8.scale.z,field.boxes8.id,field.boxes8.pdf,field.pose.pose.position.x,field.pose.pose.position.y,field.pose.pose.position.z,field.pose.pose.orientation.w,field.pose.covariance0,field.pose.covariance1,field.pose.covariance2,field.pose.covariance3,field.pose.covariance4,field.pose.covariance5,field.pose.covariance6,field.pose.covariance7,field.pose.covariance8,field.pose.covariance9,field.pose.covariance10,field.pose.covariance11,field.pose.covariance12,field.pose.covariance13,field.pose.covariance14,field.pose.covariance15,field.pose.covariance16,field.pose.covariance17,field.pose.covariance18,field.pose.covariance19,field.pose.covariance20,field.pose.covariance21,field.pose.covariance22,field.pose.covariance23,field.pose.covariance24,field.pose.covariance25,field.pose.covariance26,field.pose.covariance27,field.pose.covariance28,field.pose.covariance29,field.pose.covariance30,field.pose.covariance31,field.pose.covariance32,field.pose.covariance33,field.pose.covariance34,field.pose.covariance35,field.buttons0,field.buttons1,field.buttons2,field.buttons3,intersection_length,vacuum,desired_box
0.0,0,1735643777088230371,map,0.9806192549617276,-0.2186221705437203,0.0221251611784268,-0.5388764659870696,0.7193957758830439,-0.3438718334169748,0.2717241877885888,0.0,0.0,0.0,1,0.1111111119389534,0,1735643777088253974,map,0.9894608433769873,-0.2488837752495651,0.1474717254813148,-0.5041872332832041,0.5079721739747842,-0.4933846657146695,0.4942985695904687,0.0,0.0,0.0,16,0.1111111119389534,0,1735643777088270664,map,0.9804450216426844,0.0559616916575509,0.0276723836683997,-0.483776158392889,0.5018617847201315,-0.5058524294233872,0.5081423985996445,0.0,0.0,0.0,17,0.1111111119389534,0,1735643777088284730,map,1.0086776969702085,-0.2536958710757222,0.2359865996935295,-0.4824471632642885,0.496651251167765,-0.4954661006455147,0.5244955790880065,0.0,0.0,0.0,121,0.1111111119389534,0,1735643777088297367,map,1.026641334833992,0.21623138797564,0.2413901280259691,-0.6836080293129799,0.2648669282305124,-0.2560166570258836,0.6300643172834404,0.0,0.0,0.0,122,0.1111111119389534,0,1735643777088310956,map,1.0125655746471258,0.2132243648806183,0.1431653980949584,-0.4932176783588861,0.4987666531000043,-0.484447732294907,0.522760501744358,0.0,0.0,0.0,124,0.1111111119389534,0,1735643777088322877,map,1.0123284539993165,-0.0224030993726804,0.2419715234110509,-0.5189852538914816,0.5192816868348686,-0.4792936866396276,0.4809141273746513,0.0,0.0,0.0,125,0.1111111119389534,0,1735643777088343858,map,1.0117621643366723,-0.0158752450266059,0.1434134348236798,0.5095149242773214,-0.5074216576189147,0.4928715099800805,-0.4898933332552137,0.0,0.0,0.0,126,0.1111111119389534,0,1735644242188269615,map,0.9843248241890734,0.3386220654868304,0.0233110814035763,-0.5007330548386506,0.5083560894951558,-0.4844469166468608,0.5061142944202387,0.0,0.0,0.0,0,0.1111111119389534,0.9394292787422652,0.2497477071809209,0.0601015601274232,1.0,0.0,0.0,0.0,0.0,0.0,0.0,0.0,0.0,0.0,0.0,0.0,0.0,0.0,0.0,0.0,0.0,0.0,0.0,0.0,0.0,0.0,0.0,0.0,0.0,0.0,0.0,0.0,0.0,0.0,0.0,0.0,0.0,0.0,0.0,0.0,0.0,0,0,0,1,1,,126
0.101319954,0,1735643777088230371,map,0.9712075685101582,-0.2170696563910459,0.0252554893422433,-0.4970977368392692,0.4782133821145884,-0.4813442060895713,0.5408452241259085,0.0,0.0,0.0,1,0.0,0,1735643777088253974,map,0.990803016704899,-0.2490726753293322,0.1472258810978393,-0.504425586743278,0.5061436094402956,-0.4921495703404673,0.4971541757595353,0.0,0.0,0.0,16,0.0,0,1735643777088270664,map,0.9930517080917316,0.0597781864970537,0.0233690900238031,-0.4959842674990552,0.5027176342747786,-0.4885323002800812,0.5124556353145597,0.0,0.0,0.0,17,0.0,0,1735643777088284730,map,1.0084323190508528,-0.2530615905113732,0.2361235640056708,0.3656918011491464,-0.5813250829250186,0.6063383436967696,-0.4008546712931905,0.0,0.0,0.0,121,0.0,0,1735643777088297367,map,1.0158533330205315,0.2113616891128168,0.2417685882828321,-0.5077721482801879,0.4903067253875084,-0.4921708128925425,0.5094454351619963,0.0,0.0,0.0,122,0.0,0,1735643777088310956,map,1.0107381086398908,0.2125468086352095,0.1433851715896009,-0.4957768594601232,0.4930953630057372,-0.4732552911225692,0.5358093859112496,0.0,0.0,0.0,124,0.0,0,1735643777088322877,map,1.00948894925275,-0.0223826027642993,0.2416648482332491,-0.5294761538615118,0.5383140223974839,-0.466598109406906,0.4606074468353318,0.0,0.0,0.0,125,0.0,0,1735643777088343858,map,0.9989640799367736,-0.0181377145671009,0.1453785239000478,0.6783461226876976,-0.4741153918493246,0.3278662157750172,-0.4555928858086994,0.0,0.0,0.0,126,0.0,0,1735644242188269615,map,0.9833348122910618,0.337975094046343,0.0238391757310836,-0.5089851689228654,0.5039000560125403,-0.4857946697463929,0.5010213271040614,0.0,0.0,0.0,0,0.0,0.9403386107473816,0.2467433029480057,0.0471027789644183,1.0,8.268846955288975e-07,-2.732000925296753e-06,-1.1820207739023753e-05,0.0,0.0,0.0,-2.732000925296753e-06,9.02644479475854e-06,3.905359314886992e-05,0.0,0.0,0.0,-1.1820207739023753e-05,3.905359314886992e-05,0.0001689683117236,0.0,0.0,0.0,0.0,0.0,0.0,0.0,0.0,0.0,0.0,0.0,0.0,0.0,0.0,0.0,0.0,0.0,0.0,0.0,0.0,0.0,0,0,0,1,2,,126
0.200026134,0,1735643777088230371,map,0.9893251970057012,-0.2193334136145992,0.0193528671886706,-0.5315418277374505,0.7200164988453445,-0.3520392949512635,0.2740581353768574,0.0,0.0,0.0,1,0.0,0,1735643777088253974,map,0.9909967625013748,-0.2484522626510512,0.1471229752011638,-0.4953385691570261,0.4898505017462927,-0.5000993303039865,0.5143800615049926,0.0,0.0,0.0,16,0.0,0,1735643777088270664,map,0.9849088196501334,0.0577107820667089,0.0262261700676673,-0.4931775264908901,0.4902319430873343,-0.4876405341516104,0.5278780908443503,0.0,0.0,0.0,17,3.5085897637718443e-22,0,1735643777088284730,map,1.0153244777653954,-0.2548311229874811,0.2360277598939129,-0.5118405337719861,0.5049281900150733,-0.4714681135344274,0.5106707440576547,0.0,0.0,0.0,121,1.955205042506894e-28,0,1735643777088297367,map,1.0179869658609983,0.2120984879864564,0.2412085839984203,0.5155605542070785,-0.4962026235137882,0.4908345890151598,-0.4970529927382422,0.0,0.0,0.0,122,0.0,0,1735643777088310956,map,1.0104170297364397,0.2120010495574261,0.1434097199164395,-0.4881672424178369,0.4931083877785099,-0.4787496918527046,0.5378992413859536,0.0,0.0,0.0,124,1.4290308936182328e-09,0,1735643777088322877,map,1.0031239728264978,-0.0236259484360294,0.2414223887671243,0.4776772883650196,-0.5029715504784519,0.5218822405416613,-0.4964704972067925,0.0,0.0,0.0,125,1.5332155236711352e-14,0,1735643777088343858,map,1.0061125182951554,-0.0168878368116595,0.1438760568738766,-0.5113859005397254,0.4843397376802347,-0.4866020877751376,0.5168344874385734,0.0,0.0,0.0,126,5.902061417373262e-08,0,1735644242188269615,map,0.9823913054738797,0.3370318252668183,0.0239570066645892,-0.5025499635565248,0.5007992494073793,-0.4873167588495437,0.50908351227153,0.0,0.0,0.0,0,0.0116629786789417,0.9398231808671342,0.2157323335903106,0.0613972186162013,1.0,1.0825923865891827e-06,3.014662649457385e-05,-2.2615701128520723e-05,0.0,0.0,0.0,3.014662649457385e-05,0.0019293780708709,-0.0008605331312878,0.0,0.0,0.0,-2.2615701128520723e-05,-0.0008605331312878,0.000521307551066,0.0,0.0,0.0,0.0,0.0,0.0,0.0,0.0,0.0,0.0,0.0,0.0,0.0,0.0,0.0,0.0,0.0,0.0,0.0,0.0,0.0,0,0,0,1,3,,126
0.30064815,0,1735643777088230371,map,0.9813826644355744,-0.2192076506147903,0.0217881336030163,-0.4879852748710258,0.4910958076355796,-0.5069531593721105,0.513511220358858,0.0,0.0,0.0,1,0.0,0,1735643777088253974,map,0.9833222174188068,-0.246939818717924,0.1484453805264287,-0.5159082727040758,0.4798281041210998,-0.4739287926000288,0.5281999093106006,0.0,0.0,0.0,16,0.0,0,1735643777088270664,map,0.998732988548312,0.0609731400196779,0.0223333338225667,-0.5095237146313216,0.5032246556913192,-0.4869685140332772,0.5000121963241243,0.0,0.0,0.0,17,8.348320254455121e-30,0,1735643777088284730,map,1.009546634633931,-0.2532967931683916,0.2363299642869907,-0.3875714302865612,0.6382982620516177,-0.5612989157441921,0.3568014045262541,0.0,0.0,0.0,121,2.1954637272666305e-13,0,1735643777088297367,map,1.0220922561743686,0.2129610085736494,0.2418443039531482,-0.639364254139575,0.254111133298652,-0.2598264782326624,0.6775921219077385,0.0,0.0,0.0,122,0.0,0,1735643777088310956,map,1.0082428569909354,0.2105978637910542,0.1441342428624759,-0.4873152077223338,0.5007825512084478,-0.4854436239515039,0.5254381149978824,0.0,0.0,0.0,124,3.527905398370557e-12,0,1735643777088322877,map,1.0033061261254737,-0.0238630852919527,0.2421995139149867,-0.4686307081137407,0.5038413352750669,-0.5245637840369386,0.5013601547369908,0.0,0.0,0.0,125,2.301753232458736e-09,0,1735643777088343858,map,1.007577293190228,-0.0168579576873171,0.1442188729702219,0.5068210664654876,-0.5019328832022918,0.4940006080805751,-0.4971510701618195,0.0,0.0,0.0,126,0.0002045522269327,0,1735644242188269615,map,0.9823913054738797,0.3370318252668183,0.0239570066645892,-0.5025499635565248,0.5007992494073793,-0.4873167588495437,0.50908351227153,0.0,0.0,0.0,0,0.0321301482617855,0.9390469177693496,0.1741350352814734,0.0818441145603208,1.0,2.61969748088868e-06,0.000119481312805,-6.457828820338011e-05,0.0,0.0,0.0,0.000119481312805,0.0066380392329364,-0.0031970067386977,0.0,0.0,0.0,-6.457828820338011e-05,-0.0031970067386977,0.0016452073245485,0.0,0.0,0.0,0.0,0.0,0.0,0.0,0.0,0.0,0.0,0.0,0.0,0.0,0.0,0.0,0.0,0.0,0.0,0.0,0.0,0.0,0,0,0,1,4,,126
0.400421086,0,1735643777088230371,map,0.9805251086591164,-0.2192486868923017,0.023282122241324,-0.4820133743408439,0.4871821847879771,-0.5008998839456775,0.5285980817643723,0.0,0.0,0.0,1,0.0,0,1735643777088253974,map,0.9792635661805228,-0.2476224521518312,0.1497301144496884,-0.517382070299602,0.4871118997568538,-0.4611396990486552,0.5314018897304399,0.0,0.0,0.0,16,4.341412502820749e-28,0,1735643777088270664,map,0.9915216769114596,0.0583285593848815,0.0251678728107503,-0.4968599908566377,0.4863654741082859,-0.4913609909736456,0.524540896051739,0.0,0.0,0.0,17,4.15267771659812e-23,0,1735643777088284730,map,1.0082423155915563,-0.2550905633516328,0.2370903359798897,-0.4985963715798563,0.483786318680339,-0.4838124181002767,0.5322386684534398,0.0,0.0,0.0,121,1.709698153717909e-05,0,1735643777088297367,map,1.0132815921799143,0.2088063366809124,0.2428972420195961,0.537889720931692,-0.5054295953354869,0.4800239345295188,-0.4741229740835525,0.0,0.0,0.0,122,0.0,0,1735643777088310956,map,1.009110872190941,0.2102270751218634,0.1446201480611774,-0.4937379950736868,0.5012913063610865,-0.4710931455013548,0.531978445662088,0.0,0.0,0.0,124,1.661337040159694e-11,0,1735643777088322877,map,1.00306750627235,-0.0250586816828808,0.2429678798717881,0.5788962722494482,-0.5033107879549656,0.4233632594565271,-0.4819967917384822,0.0,0.0,0.0,125,2.5408451384545394e-11,0,1735643777088343858,map,1.0003717703350317,-0.0191358002430798,0.1457351441436268,-0.4880584609095929,0.4782846563125342,-0.5175307009954092,0.5149802906886445,0.0,0.0,0.0,126,0.0472848191857337,0,1735644242188269615,map,0.9823913054738797,0.3370318252668183,0.0239570066645892,-0.5025499635565248,0.5007992494073793,-0.4873167588495437,0.50908351227153,0.0,0.0,0.0,0,0.1062922477722168,0.9385959028800898,0.1343509351599469,0.097030202029999,1.0,2.9094157060474983e-06,0.0001673579362864,-7.905923679641759e-05,0.0,0.0,0.0,0.0001673579362864,0.0116415298762677,-0.0049742646883499,0.0,0.0,0.0,-7.905923679641759e-05,-0.0049742646883499,0.0022386348701856,0.0,0.0,0.0,0.0,0.0,0.0,0.0,0.0,0.0,0.0,0.0,0.0,0.0,0.0,0.0,0.0,0.0,0.0,0.0,0.0,0.0,0,0,0,1,5,,126
0.500582403,0,1735643777088230371,map,0.9791050681155432,-0.2198965196122808,0.0239317944035201,-0.4904730459018671,0.492954127284896,-0.4935684353441764,0.5223242472530188,0.0,0.0,0.0,1,1.6520351762176747e-31,0,1735643777088253974,map,0.9785091787826714,-0.2482993913370446,0.1500492863068166,-0.5016494682443204,0.4710891606788717,-0.4938080429390795,0.5315791854745094,0.0,0.0,0.0,16,8.983135444395884e-07,0,1735643777088270664,map,0.9879062299396766,0.0559345973999452,0.0265064245341419,-0.4869298887453759,0.5020445738025281,-0.5016096644808609,0.5091544695485365,0.0,0.0,0.0,17,3.5493030736688524e-08,0,1735643777088284730,map,1.0126110965230095,-0.2570550116850232,0.2371998334549064,-0.3541896183387394,0.6058104898230562,-0.60480354201463,0.3765050334961865,0.0,0.0,0.0,121,0.024409232661128,0,1735643777088297367,map,1.0122397654324995,0.2071664340428178,0.2428113069072773,0.5167411063369393,-0.4898282197581659,0.4942112194679023,-0.4988007765654247,0.0,0.0,0.0,122,5.537183509979999e-24,0,1735643777088310956,map,1.0107414803549992,0.2099939229403646,0.1445066241669864,-0.4945002091902411,0.507279983887605,-0.4770203405544501,0.5201808875334762,0.0,0.0,0.0,124,4.232208084431477e-05,0,1735643777088322877,map,1.001053159153071,-0.026597402329836,0.2428788074211872,0.534875373186357,-0.5330144583478263,0.46189983843247,-0.4652445180837566,0.0,0.0,0.0,125,1.369372029103033e-07,0,1735643777088343858,map,1.0060512733570866,-0.0197499704816122,0.1450835995280615,-0.5109203976242036,0.4984212366160105,-0.4895974008746997,0.5008303138173955,0.0,0.0,0.0,126,0.6486300230026245,0,1735644242188269615,map,0.9823913054738797,0.3370318252668183,0.0239570066645892,-0.5025499635565248,0.5007992494073793,-0.4873167588495437,0.50908351227153,0.0,0.0,0.0,0,0.1824241578578949,0.938562449819195,0.0956039141026816,0.1057356185713991,1.0,2.4301086247890554e-06,0.0001459459791799,-6.733881147871627e-05,0.0,0.0,0.0,0.0001459459791799,0.0172079331009505,-0.0058317653638344,0.0,0.0,0.0,-6.733881147871627e-05,-0.0058317653638344,0.0022444504442844,0.0,0.0,0.0,0.0,0.0,0.0,0.0,0.0,0.0,0.0,0.0,0.0,0.0,0.0,0.0,0.0,0.0,0.0,0.0,0.0,0.0,0,0,0,1,6,,126
0.600151753,0,1735643777088230371,map,0.979078105778422,-0.2202536660764039,0.0250159637119755,-0.5056686536078272,0.7584478175540255,-0.3391710350683289,0.2324201578535337,0.0,0.0,0.0,1,4.742579454563188e-36,0,1735643777088253974,map,0.978406625961727,-0.2488552345156556,0.1504974964474008,-0.5201744204233171,0.4911066985455319,-0.4705794357928026,0.5165150313300684,0.0,0.0,0.0,16,2.6131985464417085e-07,0,1735643777088270664,map,0.990009290981752,0.0562935659141159,0.0260955094572964,-0.503474567306368,0.5018193487879119,-0.4906557014957091,0.503932221481714,0.0,0.0,0.0,17,1.640744651254522e-09,0,1735643777088284730,map,1.01107148403531,-0.2575803837539119,0.2374566263319371,-0.4783600785694409,0.4922651504836505,-0.5022605163743501,0.5259097171014421,0.0,0.0,0.0,121,0.0487267896533012,0,1735643777088297367,map,1.0065033840405544,0.2039798108875071,0.2429875547600576,0.5081600125130199,-0.4958256089810632,0.4995475749201459,-0.49636940634242,0.0,0.0,0.0,122,1.0460627826146023e-27,0,1735643777088310956,map,1.0041129979800645,0.2065980271913153,0.1455937465524168,-0.4774601238611877,0.5030357921778041,-0.4933210784609082,0.5249963194696463,0.0,0.0,0.0,124,6.597788797080284e-06,0,1735643777088322877,map,1.007755282684258,-0.0258374597332583,0.2431957081240207,-0.4887272510472758,0.5259338568379385,-0.5002366597493318,0.4840480725694246,0.0,0.0,0.0,125,1.4444086815501578e-08,0,1735643777088343858,map,1.0037446032488049,-0.0200761134706997,0.1454547346457164,-0.4822745469142684,0.4851628977222029,-0.5237340371636144,0.507672022460106,0.0,0.0,0.0,126,0.7599318027496338,0,1735644242188269615,map,0.9823913054738797,0.3370318252668183,0.0239570066645892,-0.5025499635565248,0.5007992494073793,-0.4873167588495437,0.50908351227153,0.0,0.0,0.0,0,0.1451043486595153,0.9383384955261468,0.0708777648200818,0.1143288851801948,1.0,2.3838834020675736e-06,0.0001583217172771,-6.926597495755765e-05,0.0,0.0,0.0,0.0001583217172771,0.0184179516937443,-0.0062735263841093,0.0,0.0,0.0,-6.926597495755765e-05,-0.0062735263841093,0.0023668800525885,0.0,0.0,0.0,0.0,0.0,0.0,0.0,0.0,0.0,0.0,0.0,0.0,0.0,0.0,0.0,0.0,0.0,0.0,0.0,0.0,0.0,0,0,0,1,7,,126
0.701477708,0,1735643777088230371,map,0.9825746862375152,-0.2210018173237084,0.0220268749417604,-0.4826251583342778,0.4977595693046868,-0.5132486238720431,0.5058499953562116,0.0,0.0,0.0,1,1.421056772671797e-41,0,1735643777088253974,map,0.9862125409389128,-0.2509101867846973,0.1492205080512184,-0.5055428649960484,0.5001936131964659,-0.4902858916387979,0.503837776897485,0.0,0.0,0.0,16,3.644731094709641e-08,0,1735643777088270664,map,0.9809662544661456,0.0553498031479373,0.0281856433017088,-0.4769010122769833,0.4931372649603794,-0.5073847562839003,0.5214803653900227,0.0,0.0,0.0,17,3.99803939954424e-10,0,1735643777088284730,map,1.006832399553458,-0.2566209248754819,0.2377405204315029,-0.3615739867287413,0.6542599671681407,-0.5716281985088132,0.3383036360310011,0.0,0.0,0.0,121,0.0566621236503124,0,1735643777088297367,map,1.014406384364293,0.2108271981793973,0.2431484505462017,0.535742784420192,-0.4947979650508725,0.4773314109751749,-0.4902135930588457,0.0,0.0,0.0,122,3.8925096589202567e-32,0,1735643777088310956,map,1.0083933371561364,0.2113441664979334,0.1443633906173893,-0.4990028496169184,0.5022038299363601,-0.4675464845987312,0.5293276433465519,0.0,0.0,0.0,124,1.124765276472317e-06,0,1735643777088322877,map,0.9966097191012636,-0.0263680024575298,0.2432234408201635,-0.4649102713423102,0.4629324551125095,-0.5212881046383752,0.5457203437351897,0.0,0.0,0.0,125,7.668804480331913e-10,0,1735643777088343858,map,0.9964860924522764,-0.020319078371856,0.1459754805995468,-0.5027466625856922,0.4661160464888828,-0.4910121143713801,0.5374837002226839,0.0,0.0,0.0,126,0.834257185459137,0,1735644242188269615,map,0.9823913054738797,0.3370318252668183,0.0239570066645892,-0.5025499635565248,0.5007992494073793,-0.4873167588495437,0.50908351227153,0.0,0.0,0.0,0,0.107246421277523,0.9382275651380676,0.0545759014193484,0.1194437726300953,1.0,2.172036833805056e-06,0.0001511901068517,-6.457950323645788e-05,0.0,0.0,0.0,0.0001511901068517,0.0179759629843795,-0.0060730109617245,0.0,0.0,0.0,-6.457950323645788e-05,-0.0060730109617245,0.002254154561391,0.0,0.0,0.0,0.0,0.0,0.0,0.0,0.0,0.0,0.0,0.0,0.0,0.0,0.0,0.0,0.0,0.0,0.0,0.0,0.0,0.0,0,0,0,1,8,,126
0.799590971,0,1735643777088230371,map,0.9823702318086212,-0.2225367963127379,0.0200592330572313,0.4869379204215883,-0.4999950172451122,0.5142235230212289,-0.4984682665498324,0.0,0.0,0.0,1,7.350211585210875e-12,0,1735643777088253974,map,0.9816546936865572,-0.2510647442152015,0.1476662222438854,-0.5079735605509688,0.4917343362340294,-0.4830704075382533,0.5165299465766493,0.0,0.0,0.0,16,0.009793372824788,0,1735643777088270664,map,0.979179275468928,0.053896018207574,0.0267843554442802,-0.4799999904746164,0.4921230524825979,-0.5049207761572156,0.5219865133931851,0.0,0.0,0.0,17,0.002018658677116,0,1735643777088284730,map,1.00823760105416,-0.2589992270637266,0.235879089738845,-0.4971339750144132,0.5082682653490372,-0.4830738711605378,0.5110389577394489,0.0,0.0,0.0,121,0.0410174243152141,0,1735643777088297367,map,1.003492966260208,0.2046503108491702,0.2414833651749544,-0.5092293566927772,0.4950144049556904,-0.4910423842002255,0.5045032983911828,0.0,0.0,0.0,122,1.3952045074816508e-10,0,1735643777088310956,map,1.0014468468950837,0.2074781427013283,0.143587145511873,-0.4897694848733741,0.5022218348735805,-0.4837348389305971,0.5233542642110346,0.0,0.0,0.0,124,0.0097694629803299,0,1735643777088322877,map,0.9896565651319778,-0.0281225675165356,0.2418440000328885,-0.4724243850544184,0.531406812114149,-0.5248365921041281,0.4679407569694667,0.0,0.0,0.0,125,0.0002206837962148,0,1735643777088343858,map,1.002377941964087,-0.0203904960670068,0.143548116196508,0.5084053608529552,-0.5018003860038025,0.4920670335705007,-0.4975845617938112,0.0,0.0,0.0,126,0.8837330341339111,0,1735644242188269615,map,0.9823913054738797,0.3370318252668183,0.0239570066645892,-0.5025499635565248,0.5007992494073793,-0.4873167588495437,0.50908351227153,0.0,0.0,0.0,0,0.0762555301189422,0.9386232423492386,0.0385868170321917,0.1168961546419614,1.0,3.183183051347025e-06,8.3779075534539e-05,-6.54682779222422e-05,0.0,0.0,0.0,8.3779075534539e-05,0.0180238403202098,-0.0050723593339892,0.0,0.0,0.0,-6.54682779222422e-05,-0.0050723593339892,0.0020556158027664,0.0,0.0,0.0,0.0,0.0,0.0,0.0,0.0,0.0,0.0,0.0,0.0,0.0,0.0,0.0,0.0,0.0,0.0,0.0,0.0,0.0,0,0,0,1,9,,126
0.899400584,0,1735643777088230371,map,0.9799454346620466,-0.2224756070374496,0.0199914736062483,-0.4903153890823808,0.5059914234122717,-0.5033287395182902,0.5002236286273837,0.0,0.0,0.0,1,7.441949834152695e-12,0,1735643777088253974,map,0.9782628698455628,-0.2506854266078369,0.1475669971493876,-0.5059785103001467,0.4900618624885371,-0.4859998645536092,0.5173289569534887,0.0,0.0,0.0,16,0.0136030539870262,0,1735643777088270664,map,0.983478691997104,0.0552545173694885,0.0244555083845676,-0.4926427454771859,0.4966228169535073,-0.4899735188368577,0.5201873257284262,0.0,0.0,0.0,17,0.001297467504628,0,1735643777088284730,map,1.003209003754311,-0.2584400216379938,0.2357212480707863,-0.5023306990051771,0.5113236505400169,-0.4736191369376009,0.5117586407300648,0.0,0.0,0.0,121,0.0311829783022403,0,1735643777088297367,map,1.0004936380415426,0.204216892004539,0.2409412755532363,-0.4935946738848792,0.4901341289976982,-0.5058217868450964,0.510173650296624,0.0,0.0,0.0,122,3.942714904558997e-11,0,1735643777088310956,map,0.9991567289339418,0.2073445216260266,0.1433343477794681,-0.4962996913761355,0.5105975544214342,-0.4752942770655639,0.5167901933546408,0.0,0.0,0.0,124,0.0068427389487624,0,1735643777088322877,map,0.985166583939442,-0.0287900905415801,0.2412703179359743,-0.5121770189589552,0.5261467263669846,-0.4854268409723276,0.4745578001121152,0.0,0.0,0.0,125,0.0001019015253405,0,1735643777088343858,map,0.988617903459298,-0.0224300156783385,0.145413196584466,0.6788563666003616,-0.4868351537040661,0.3248375661916546,-0.4434254415736388,0.0,0.0,0.0,126,0.8473968505859375,0,1735644242188269615,map,0.9823913054738797,0.3370318252668183,0.0239570066645892,-0.5025499635565248,0.5007992494073793,-0.4873167588495437,0.50908351227153,0.0,0.0,0.0,0,0.0543610602617263,0.9387036406294736,0.0288808861274109,0.1177456418719736,1.0,2.923039697395081e-06,6.837810660566522e-05,-5.8306774318646535e-05,0.0,0.0,0.0,6.837810660566522e-05,0.0170693021407442,-0.0046393289798212,0.0,0.0,0.0,-5.8306774318646535e-05,-0.0046393289798212,0.0018565488794753,0.0,0.0,0.0,0.0,0.0,0.0,0.0,0.0,0.0,0.0,0.0,0.0,0.0,0.0,0.0,0.0,0.0,0.0,0.0,0.0,0.0,0,0,0,1,10,,126
1.001806006,0,1735643777088230371,map,0.9780022805909578,-0.223170617288257,0.019672548470688,-0.4837249133269915,0.5115337487063223,-0.5016988695534812,0.5026347346234744,0.0,0.0,0.0,1,6.847803574183686e-12,0,1735643777088253974,map,0.971297997379402,-0.2502936270029453,0.1488480673576387,-0.5081002401914483,0.4842488464781476,-0.480516720425874,0.5257764562940586,0.0,0.0,0.0,16,0.0103053878992795,0,1735643777088270664,map,0.9765787704515748,0.0544577297081527,0.0258017275416626,-0.4935042238579586,0.4960819402731189,-0.4952183987911343,0.5148932190930041,0.0,0.0,0.0,17,0.0016940551577135,0,1735643777088284730,map,0.998751335217035,-0.2588802147250408,0.2363281002516176,-0.4991626361151243,0.5045224712023367,-0.4796133328509992,0.5160085170906035,0.0,0.0,0.0,121,0.0388066731393337,0,1735643777088297367,map,1.0048436782608612,0.2090497168605338,0.2418206434103587,-0.5081487872648761,0.4815033376970194,-0.4928797820125505,0.5167290066090022,0.0,0.0,0.0,122,1.3435719203869212e-10,0,1735643777088310956,map,0.9906313844351082,0.2050050156234441,0.1446028227767952,-0.4834926586558333,0.5020324365657667,-0.4863176115445619,0.5269662819985221,0.0,0.0,0.0,124,0.0081804012879729,0,1735643777088322877,map,0.9954407548698674,-0.0270242376825049,0.2423569938536031,0.5058289071968967,-0.5043070525745743,0.4924790890235647,-0.4972683985958272,0.0,0.0,0.0,125,0.0003016889386344,0,1735643777088343858,map,0.9853497957890168,-0.022363875997148,0.1464522149462729,0.6769845914134917,-0.4924103614518772,0.3263966879648459,-0.4389636670717954,0.0,0.0,0.0,126,0.8893148303031921,0,1735644242188269615,map,0.9823913054738797,0.3370318252668183,0.0239570066645892,-0.5025499635565248,0.5007992494073793,-0.4873167588495437,0.50908351227153,0.0,0.0,0.0,0,0.0395695343613624,0.9384735904097308,0.0238403861510665,0.1222623211214482,1.0,3.186539851850776e-06,7.375759636777493e-05,-6.339678900999032e-05,0.0,0.0,0.0,7.375759636777493e-05,0.0157716138007919,-0.0044452350163388,0.0,0.0,0.0,-6.339678900999032e-05,-0.0044452350163388,0.0018917756230403,0.0,0.0,0.0,0.0,0.0,0.0,0.0,0.0,0.0,0.0,0.0,0.0,0.0,0.0,0.0,0.0,0.0,0.0,0.0,0.0,0.0,0,0,0,1,11,,126
1.099060798,0,1735643777088230371,map,0.9744987510720704,-0.2225623552103868,0.0212730124944797,-0.4903800839795679,0.5079210829530858,-0.4979665642492814,0.5035601727874459,0.0,0.0,0.0,1,2.034477586398964e-10,0,1735643777088253974,map,0.9766731296508924,-0.2518269622398695,0.1487782075438672,0.5215685737298589,-0.5099656668827026,0.4678355335963107,-0.4990302145190574,0.0,0.0,0.0,16,0.0076205506920814,0,1735643777088270664,map,0.9773663805219824,0.055229334298073,0.026065045955312,-0.496007404935698,0.5029008327969775,-0.4951943380672282,0.5058161466058797,0.0,0.0,0.0,17,0.0035858710762113,0,1735643777088284730,map,0.9922916551430878,-0.257647505410398,0.2371193748079404,-0.5193729367960769,0.5135599445510975,-0.457978391346568,0.5067185894913482,0.0,0.0,0.0,121,0.0447920002043247,0,1735643777088297367,map,1.0000708993787626,0.2074123236348087,0.2425781348111987,-0.5039892316507334,0.4804932386793905,-0.4942822940201316,0.5203903494317409,0.0,0.0,0.0,122,1.0982360798550417e-08,0,1735643777088310956,map,0.9912534499142224,0.2063873427262674,0.145025403770009,-0.4902559143905706,0.5023424722447909,-0.4779898995137979,0.5280405618386209,0.0,0.0,0.0,124,0.0173951890319585,0,1735643777088322877,map,0.988765598605902,-0.0277049000921618,0.2428041892029311,-0.5033030778638701,0.5043165516291809,-0.4951872830360789,0.4971321577658733,0.0,0.0,0.0,125,0.0021909342613071,0,1735643777088343858,map,0.9789969977415778,-0.0227898406679108,0.146927066808019,0.4763953293605099,-0.4942576951994754,0.5313990632104266,-0.4963585967006866,0.0,0.0,0.0,126,0.9232014417648317,0,1735644242188269615,map,0.9823913054738797,0.3370318252668183,0.0239570066645892,-0.5025499635565248,0.5007992494073793,-0.4873167588495437,0.50908351227153,0.0,0.0,0.0,0,0.0285064335912466,0.938178823519492,0.0215885382948217,0.1271589544156044,1.0,3.876757579587877e-06,7.49126020924309e-05,-7.39907423154957e-05,0.0,0.0,0.0,7.49126020924309e-05,0.0145130916571703,-0.0041960899700261,0.0,0.0,0.0,-7.39907423154957e-05,-0.0041960899700261,0.0019978748482454,0.0,0.0,0.0,0.0,0.0,0.0,0.0,0.0,0.0,0.0,0.0,0.0,0.0,0.0,0.0,0.0,0.0,0.0,0.0,0.0,0.0,0,0,0,1,12,,126
1.198014306,0,1735643777088230371,map,0.9708765946146752,-0.2215668205435009,0.0228650677267032,-0.4922412380896134,0.5004954574718821,-0.4938597081568553,0.5131329742213427,0.0,0.0,0.0,1,1.687156441221305e-07,0,1735643777088253974,map,0.9657279510974712,-0.2486006652419385,0.1504425087318929,-0.5094117233134854,0.4777961508761981,-0.4764295768985906,0.534064970406133,0.0,0.0,0.0,16,0.0125032719224691,0,1735643777088270664,map,0.9725991235630986,0.05397744173954,0.0277959759200792,-0.4804766091698254,0.500495858944602,-0.503820807750325,0.5145976262069049,0.0,0.0,0.0,17,0.02116359770298,0,1735643777088284730,map,0.991960670501152,-0.2576569946235347,0.2369692636452652,-0.4990339991358523,0.4810427101239379,-0.4844409781065741,0.5337414331623883,0.0,0.0,0.0,121,0.0496683418750762,0,1735643777088297367,map,0.996557103384594,0.2057374636051177,0.2421857183984233,-0.5064135665465831,0.4897352827000371,-0.4936187905540996,0.509946214917016,0.0,0.0,0.0,122,1.5399284166051075e-05,0,1735643777088310956,map,0.9903239914182886,0.2062391102831544,0.1448535008703463,-0.4896496638341581,0.5030137542948252,-0.4812490188157009,0.5249950014869147,0.0,0.0,0.0,124,0.0624057799577713,0,1735643777088322877,map,0.9861826100541145,-0.0282163007770802,0.2424485451343276,-0.503624402627573,0.5052098277914141,-0.4950109066046629,0.4960742820620912,0.0,0.0,0.0,125,0.0380965545773506,0,1735643777088343858,map,0.9889808907821014,-0.0214135603982657,0.1449843270862902,-0.5134535853501297,0.4729652318401704,-0.4819748809328085,0.5294993100196405,0.0,0.0,0.0,126,0.9245639443397522,0,1735644242188269615,map,0.9823913054738797,0.3370318252668183,0.0239570066645892,-0.5025499635565248,0.5007992494073793,-0.4873167588495437,0.50908351227153,0.0,0.0,0.0,0,0.0208268109709024,0.9377217972905432,0.0203901119101478,0.1342655323620049,1.0,6.085021145445786e-06,7.572264173428826e-05,-0.0001072738569876,0.0,0.0,0.0,7.572264173428826e-05,0.0134139347008279,-0.0039755143446741,0.0,0.0,0.0,-0.0001072738569876,-0.0039755143446741,0.0024502335689103,0.0,0.0,0.0,0.0,0.0,0.0,0.0,0.0,0.0,0.0,0.0,0.0,0.0,0.0,0.0,0.0,0.0,0.0,0.0,0.0,0.0,0,0,0,1,13,,126
1.298796357,0,1735643777088230371,map,0.971975242636699,-0.2220951499641432,0.0225387383684211,-0.4964385020561256,0.5060497161120454,-0.4955602995843957,0.501878957493749,0.0,0.0,0.0,1,1.1537783706216943e-07,0,1735643777088253974,map,0.9750810584853308,-0.2517469580477806,0.1490063797142391,-0.5034457485906065,0.4941191565922777,-0.4867000531930134,0.5152782700022365,0.0,0.0,0.0,16,0.0070035345852375,0,1735643777088270664,map,0.968759498093018,0.0525890211112242,0.0296810855300364,-0.4790458664067872,0.4984731366977102,-0.5069052270702593,0.5148656918441598,0.0,0.0,0.0,17,0.0217598378658294,0,1735643777088284730,map,0.9942496808865344,-0.2585062047760049,0.2374469058155226,-0.3146001411513865,0.6536781128544635,-0.6160604700670443,0.3069220962774221,0.0,0.0,0.0,121,0.0425584837794303,0,1735643777088297367,map,0.994192912387572,0.2050056976417874,0.2428940840297627,-0.5101014182640622,0.4939282301346589,-0.4897842447706158,0.5059079364227383,0.0,0.0,0.0,122,2.3998676624614745e-05,0,1735643777088310956,map,0.9878047913360628,0.2052281043350155,0.1455868543928641,-0.4823732390204698,0.5005942997228722,-0.4827750510675851,0.5325876974063131,0.0,0.0,0.0,124,0.0644826292991638,0,1735643777088322877,map,0.9845882231353078,-0.0282617063104404,0.2431794730398284,0.5042544832649344,-0.5030690894535702,0.4944067609125735,-0.4982076495875057,0.0,0.0,0.0,125,0.0507568269968032,0,1735643777088343858,map,0.9848583223875336,-0.0220160834571926,0.1457513392221447,-0.4942365975729971,0.4864864022866752,-0.5090918366681246,0.5097908079276342,0.0,0.0,0.0,126,0.9111101031303406,0,1735644242188269615,map,0.9823913054738797,0.3370318252668183,0.0239570066645892,-0.5025499635565248,0.5007992494073793,-0.4873167588495437,0.50908351227153,0.0,0.0,0.0,0,0.0148904342204332,0.9374974745432596,0.0190147422038223,0.1379203228892744,1.0,6.304545812249425e-06,7.432472885410778e-05,-0.000110269523105,0.0,0.0,0.0,7.432472885410778e-05,0.0124803878516896,-0.0037568959806045,0.0,0.0,0.0,-0.000110269523105,-0.0037568959806045,0.0024488643047936,0.0,0.0,0.0,0.0,0.0,0.0,0.0,0.0,0.0,0.0,0.0,0.0,0.0,0.0,0.0,0.0,0.0,0.0,0.0,0.0,0.0,0,0,0,1,14,,126
1.401279455,0,1735643777088230371,map,0.9699418823801044,-0.2228664488223915,0.0213141401322615,-0.4882933496263501,0.5032903137842689,-0.5053233247679918,0.5029083437437016,0.0,0.0,0.0,1,4.1584559795637694e-08,0,1735643777088253974,map,0.9644248318079088,-0.2496434803939894,0.1496238235333858,-0.5151112079459075,0.4849151450544076,-0.4728624029296761,0.525279823942385,0.0,0.0,0.0,16,0.0068829036317765,0,1735643777088270664,map,0.9746274290673538,0.0545431344054886,0.0249081186069066,-0.502078998115818,0.4924751317742489,-0.4885222711655998,0.5164599837452621,0.0,0.0,0.0,17,0.0120315738022327,0,1735643777088284730,map,0.9888629999597722,-0.2589548082027115,0.2362323774289439,-0.5019984307745624,0.4996679481049862,-0.4775350420118504,0.5198940284203785,0.0,0.0,0.0,121,0.0367283262312412,0,1735643777088297367,map,0.9900816588097172,0.2034273266768118,0.2419442547831423,-0.5076582501641135,0.4916733367055269,-0.4919909302489515,0.5084145508991011,0.0,0.0,0.0,122,1.308529044763418e-05,0,1735643777088310956,map,0.9845415722025406,0.2042395168680447,0.1444376890053168,-0.4939208706646487,0.5045220818635219,-0.4776559651279614,0.5228235088551856,0.0,0.0,0.0,124,0.0550507716834545,0,1735643777088322877,map,0.9823630785861768,-0.0289262564688087,0.2421468484928643,0.5210914348570869,-0.51426309293955,0.4716067633438112,-0.4915122058781496,0.0,0.0,0.0,125,0.0429224781692028,0,1735643777088343858,map,0.975104624073553,-0.0237640252365177,0.1461503542830409,0.482316884908358,-0.4963787733353717,0.5275449704209141,-0.4926203813261955,0.0,0.0,0.0,126,0.9160942435264589,0,1735644242188269615,map,0.9823913054738797,0.3370318252668183,0.0239570066645892,-0.5025499635565248,0.5007992494073793,-0.4873167588495437,0.50908351227153,0.0,0.0,0.0,0,0.0106483660638332,0.9375275287348238,0.0163800959685021,0.1380275049580098,1.0,5.896888320127521e-06,6.8261196653259e-05,-0.0001028731237787,0.0,0.0,0.0,6.8261196653259e-05,0.0117455410459043,-0.0035103896642386,0.0,0.0,0.0,-0.0001028731237787,-0.0035103896642386,0.002285767516416,0.0,0.0,0.0,0.0,0.0,0.0,0.0,0.0,0.0,0.0,0.0,0.0,0.0,0.0,0.0,0.0,0.0,0.0,0.0,0.0,0.0,0,0,0,1,15,,126
1.502051577,0,1735643777088230371,map,0.9682127907925744,-0.2232553460000103,0.0216733417335159,-0.49396411290506,0.5021351147893116,-0.4919839088117843,0.5116753024406395,0.0,0.0,0.0,1,3.518817948133801e-08,0,1735643777088253974,map,0.9633475170677313,-0.2501542736772448,0.1497187150581696,-0.5112782916687381,0.4858484179147629,-0.4764525267204686,0.5249179107819624,0.0,0.0,0.0,16,0.0065345368348062,0,1735643777088270664,map,0.9662430275688436,0.0516024409798984,0.0283743291934671,-0.4853929096879122,0.4997117020614893,-0.499648058918098,0.5148142920188681,0.0,0.0,0.0,17,0.0150373987853527,0,1735643777088284730,map,0.9896563939558348,-0.2605952748582212,0.2362494208336942,-0.498368033638081,0.4912750520103388,-0.486496875827398,0.523066837153851,0.0,0.0,0.0,121,0.0299269389361143,0,1735643777088297367,map,0.990864912207744,0.2041104552256205,0.2418141873864732,-0.516476147598248,0.4833716236922985,-0.4946894725557349,0.5048629399289208,0.0,0.0,0.0,122,7.336484941333765e-06,0,1735643777088310956,map,0.9829736205763476,0.2034790340651444,0.1445966720100452,-0.4895280444881401,0.5060890989754945,-0.4816295469470704,0.5217941136744928,0.0,0.0,0.0,124,0.0450968667864799,0,1735643777088322877,map,0.9740165257025027,-0.030827555118069,0.2421429562206888,-0.5958178329313677,0.4517965845916517,-0.3976844682691449,0.5317217503636418,0.0,0.0,0.0,125,0.0336795076727867,0,1735643777088343858,map,0.9762606406798828,-0.0241153502333264,0.1457294604142918,0.4977117440893118,-0.5024314976163825,0.5060530318292116,-0.4937164560504313,0.0,0.0,0.0,126,0.922858476638794,0,1735644242188269615,map,0.9823913054738797,0.3370318252668183,0.0239570066645892,-0.5025499635565248,0.5007992494073793,-0.4873167588495437,0.50908351227153,0.0,0.0,0.0,0,0.0076543004252016,0.9376149923151944,0.0141307685618431,0.1371922846014107,1.0,5.643080968488422e-06,6.104385843624603e-05,-9.753932398441032e-05,0.0,0.0,0.0,6.104385843624603e-05,0.0110873368372705,-0.0032628100496432,0.0,0.0,0.0,-9.753932398441032e-05,-0.0032628100496432,0.0021533709423012,0.0,0.0,0.0,0.0,0.0,0.0,0.0,0.0,0.0,0.0,0.0,0.0,0.0,0.0,0.0,0.0,0.0,0.0,0.0,0.0,0.0,0,0,0,1,16,,126
1.601732099,0,1735643777088230371,map,0.968037278396592,-0.2229507090954821,0.0214882006512852,-0.4921809987307542,0.5055624282190719,-0.4963564865491094,0.5057615385952716,0.0,0.0,0.0,1,5.961406372989586e-07,0,1735643777088253974,map,0.9742002559771028,-0.2538177349973681,0.1473352565899265,0.5103611533170692,-0.509329879847793,0.4814026050871217,-0.4983634201006698,0.0,0.0,0.0,16,0.0071996860206127,0,1735643777088270664,map,0.9709417769452302,0.0534041599152328,0.0260203193581717,-0.4937820107205871,0.4974941745132767,-0.4954338576037578,0.5130537641943059,0.0,0.0,0.0,17,0.0316541157662868,0,1735643777088284730,map,0.9884495992963308,-0.2604240266377044,0.2361828087277482,-0.496786940840045,0.4978845153750335,-0.4860341808911126,0.5187335730084016,0.0,0.0,0.0,121,0.0235552880913019,0,1735643777088297367,map,0.9856759764701004,0.2018185965005951,0.242094801485228,-0.5064155095916191,0.4890247808956355,-0.499631392366214,0.504744060962816,0.0,0.0,0.0,122,2.292323733854573e-05,0,1735643777088310956,map,0.9819548028738398,0.2036472707254013,0.1446086114705851,-0.4897352125174946,0.5060485081184953,-0.4811755335068294,0.5220578847272663,0.0,0.0,0.0,124,0.0437702909111976,0,1735643777088322877,map,0.973997430662481,-0.0303101235704,0.2421078932998849,-0.4781616384194675,0.5267906583137623,-0.5193933861605194,0.4733746510641153,0.0,0.0,0.0,125,0.0413407236337661,0,1735643777088343858,map,0.9732439342690736,-0.0243934385478563,0.1460426361368778,-0.4850332119773766,0.4907134740219774,-0.5182075862660046,0.5053750757888174,0.0,0.0,0.0,126,0.9328729510307312,0,1735644242188269615,map,0.9823913054738797,0.3370318252668183,0.0239570066645892,-0.5025499635565248,0.5007992494073793,-0.4873167588495437,0.50908351227153,0.0,0.0,0.0,0,0.0059329974465072,0.9378912724615486,0.0131834816474216,0.1332501937283542,1.0,6.532426537477859e-06,5.326557815642063e-05,-0.0001092276597848,0.0,0.0,0.0,5.326557815642063e-05,0.0104494981926969,-0.0030111313891309,0.0,0.0,0.0,-0.0001092276597848,-0.0030111313891309,0.0022753433505653,0.0,0.0,0.0,0.0,0.0,0.0,0.0,0.0,0.0,0.0,0.0,0.0,0.0,0.0,0.0,0.0,0.0,0.0,0.0,0.0,0.0,0,0,0,1,17,,126
1.700458849,0,1735643777088230371,map,0.9657131301731045,-0.2240900567456936,0.0211154392881251,-0.490105319124879,0.5092927310211912,-0.4982486755518473,0.5021612764892437,0.0,0.0,0.0,1,8.861564424478274e-07,0,1735643777088253974,map,0.9643367160712686,-0.2523515508635847,0.1490487816438965,-0.507684674754113,0.4950117976937896,-0.4836172969318764,0.5131606973181776,0.0,0.0,0.0,16,0.0082482863217592,0,1735643777088270664,map,0.9635937037730236,0.051674334371292,0.0279844988057616,-0.4933327290262227,0.4961069489651973,-0.4963021465565739,0.5139891953955058,0.0,0.0,0.0,17,0.0461864434182643,0,1735643777088284730,map,0.9868179279503188,-0.2604025133915205,0.2362664605350066,-0.5000666189095923,0.4976788969329305,-0.4792753989471979,0.5220576444837817,0.0,0.0,0.0,121,0.0184233002364635,0,1735643777088297367,map,0.990072985733593,0.2053528799486166,0.2421347944987764,-0.511380993494427,0.4849270785412122,-0.4890504233602323,0.5139697378263777,0.0,0.0,0.0,122,1.701379551377613e-05,0,1735643777088310956,map,0.978874722829716,0.2024410045162424,0.1450967259639474,-0.4871412875623607,0.5037533195352866,-0.4791079605580528,0.5285655315466263,0.0,0.0,0.0,124,0.0369212292134761,0,1735643777088322877,map,0.9755968581627048,-0.0300203554106192,0.2419227938704408,-0.4783258186054006,0.4841445082572155,-0.5146556390768207,0.5214768255121999,0.0,0.0,0.0,125,0.0378574766218662,0,1735643777088343858,map,0.977152640603998,-0.0237794515204262,0.1448798761702321,0.4969556114087745,-0.5013411547300277,0.5090546406025936,-0.4924992789276526,0.0,0.0,0.0,126,0.9320696592330932,0,1735644242188269615,map,0.9823913054738797,0.3370318252668183,0.0239570066645892,-0.5025499635565248,0.5007992494073793,-0.4873167588495437,0.50908351227153,0.0,0.0,0.0,0,0.0045100511051714,0.93806119549378,0.0128695201497295,0.1307687725521827,1.0,6.660369179067863e-06,4.939944144519361e-05,-0.0001103275168418,0.0,0.0,0.0,4.939944144519361e-05,0.0098706462362994,-0.0028306021099061,0.0,0.0,0.0,-0.0001103275168418,-0.0028306021099061,0.0022536120545554,0.0,0.0,0.0,0.0,0.0,0.0,0.0,0.0,0.0,0.0,0.0,0.0,0.0,0.0,0.0,0.0,0.0,0.0,0.0,0.0,0.0,0,0,0,1,18,,126
1.798425846,0,1735643777088230371,map,0.9619023885251758,-0.2228345604672965,0.0235215941072345,-0.4917129078109319,0.497724529644842,-0.4960715648916996,0.5142000694164078,0.0,0.0,0.0,1,6.125077902652265e-07,0,1735643777088253974,map,0.960728424570666,-0.2508224173283267,0.1503481353709385,-0.5159197435274699,0.4934127021901071,-0.4737287940407413,0.5157051029926999,0.0,0.0,0.0,16,0.0070239342749118,0,1735643777088270664,map,0.9657615323023212,0.0525853416851347,0.0275299207559869,-0.4990476576436944,0.4904452132373637,-0.4824482495633302,0.5269332165523233,0.0,0.0,0.0,17,0.0369435958564281,0,1735643777088284730,map,0.982511435603408,-0.2610874704942781,0.2373643956673453,-0.4957567387486399,0.4905514312817532,-0.48796306701006,0.5248586423856156,0.0,0.0,0.0,121,0.0141933616250753,0,1735643777088297367,map,0.9818498984632144,0.2018638792244823,0.2429922258978051,-0.5023113073851233,0.4818075079192863,-0.4992579417558366,0.5160294404192266,0.0,0.0,0.0,122,1.0698964615585282e-05,0,1735643777088310956,map,0.9745257611493356,0.201381151039324,0.1462837442061706,-0.4868369309238528,0.5041606205321614,-0.480375041175417,0.52730606976308,0.0,0.0,0.0,124,0.0310285240411758,0,1735643777088322877,map,0.9702449026079804,-0.0312745759980857,0.2431594881488926,-0.5782281595627431,0.4384933456755198,-0.4102963774321678,0.5522976226211841,0.0,0.0,0.0,125,0.0303436741232872,0,1735643777088343858,map,0.9690882829057644,-0.0250333625912953,0.1470173784561792,-0.4757743800739103,0.487157468321055,-0.5312256938729245,0.5040988023131341,0.0,0.0,0.0,126,0.9208738803863524,0,1735644242188269615,map,0.9823913054738797,0.3370318252668183,0.0239570066645892,-0.5025499635565248,0.5007992494073793,-0.4873167588495437,0.50908351227153,0.0,0.0,0.0,0,0.0033559745643287,0.938023616445952,0.013208448731435,0.1312604876828168,1.0,6.335242759842852e-06,4.657021180193627e-05,-0.0001048534127845,0.0,0.0,0.0,4.657021180193627e-05,0.009353206246155,-0.0026786232378771,0.0,0.0,0.0,-0.0001048534127845,-0.0026786232378771,0.0021393530016438,0.0,0.0,0.0,0.0,0.0,0.0,0.0,0.0,0.0,0.0,0.0,0.0,0.0,0.0,0.0,0.0,0.0,0.0,0.0,0.0,0.0,0,0,0,1,19,,126
1.900879792,0,1735643777088230371,map,0.9641018916943084,-0.2236320771044105,0.0229728596204089,-0.4903621887382228,0.5020004996646007,-0.4994306074064658,0.5080447722179214,0.0,0.0,0.0,1,7.690883307986951e-07,0,1735643777088253974,map,0.9675157707438078,-0.2537434751621248,0.149616948358258,-0.5082720864658063,0.4992965261669459,-0.4834310875740286,0.5085831777047961,0.0,0.0,0.0,16,0.004817955661565,0,1735643777088270664,map,0.9668837324083716,0.0534345337438146,0.0274146160207299,-0.4923891785386238,0.4917783011922295,-0.4898144182135192,0.5251560101957284,0.0,0.0,0.0,17,0.0374007262289524,0,1735643777088284730,map,0.9804701454824032,-0.2607768518515021,0.2383063427233082,-0.50499989964735,0.4971006290192863,-0.4750953429584996,0.5216804396217497,0.0,0.0,0.0,121,0.0116820568218827,0,1735643777088297367,map,0.9811079566974314,0.2024813261363604,0.2441038036122387,-0.5064276332410713,0.4841145792736848,-0.4931750424894899,0.5156961352288767,0.0,0.0,0.0,122,2.4332575776497837e-05,0,1735643777088310956,map,0.9754339753478404,0.202945298136178,0.1466523752421326,-0.4947989625777778,0.5011867351189694,-0.4761974945695986,0.526518555549926,0.0,0.0,0.0,124,0.0352101288735866,0,1735643777088322877,map,0.9695940507192102,-0.0313842924680091,0.2442912425242662,-0.581766062140648,0.4757339020983964,-0.4168467542241105,0.5113357867667988,0.0,0.0,0.0,125,0.0420744977891445,0,1735643777088343858,map,0.9712166053436624,-0.024860881221168,0.1478405317829637,0.6691085980739342,-0.5295146353725262,0.3274578582667724,-0.4058069565312717,0.0,0.0,0.0,126,0.9170594811439514,0,1735644242188269615,map,0.9823913054738797,0.3370318252668183,0.0239570066645892,-0.5025499635565248,0.5007992494073793,-0.4873167588495437,0.50908351227153,0.0,0.0,0.0,0,0.002450703876093,0.9378282659379916,0.0138915382104527,0.1340450243061408,1.0,6.743555220100244e-06,4.170630555437381e-05,-0.0001099459943775,0.0,0.0,0.0,4.170630555437381e-05,0.0088944115473378,-0.0025085524102279,0.0,0.0,0.0,-0.0001099459943775,-0.0025085524102279,0.0021797045914876,0.0,0.0,0.0,0.0,0.0,0.0,0.0,0.0,0.0,0.0,0.0,0.0,0.0,0.0,0.0,0.0,0.0,0.0,0.0,0.0,0.0,0,0,0,1,20,,126
2.000396413,0,1735643777088230371,map,0.9641018916943084,-0.2236320771044105,0.0229728596204089,-0.4903621887382228,0.5020004996646007,-0.4994306074064658,0.5080447722179214,0.0,0.0,0.0,1,1.0427498864373774e-06,0,1735643777088253974,map,0.9603822427015878,-0.2533388618526158,0.1505594395569846,-0.5031759420502601,0.4910078653443446,-0.4879150618013956,0.5173626774122431,0.0,0.0,0.0,16,0.0043710996396839,0,1735643777088270664,map,0.9668837324083716,0.0534345337438146,0.0274146160207299,-0.4923891785386238,0.4917783011922295,-0.4898144182135192,0.5251560101957284,0.0,0.0,0.0,17,0.036344327032566,0,1735643777088284730,map,0.9783928220655818,-0.2632041309965868,0.2385162324340163,-0.498571179695718,0.4942744033238997,-0.4843918339464586,0.5220001381241297,0.0,0.0,0.0,121,0.0086792651563882,0,1735643777088297367,map,0.9742241674507628,0.1993770295744246,0.2444796931608083,-0.5117326230571319,0.4936170833956366,-0.4907881006398891,0.5035860777953892,0.0,0.0,0.0,122,5.9440437325974926e-05,0,1735643777088310956,map,0.9733922294627466,0.2024808198584283,0.1472356903352275,-0.4835492528257957,0.4959448560466422,-0.4803558841507489,0.5380307095456931,0.0,0.0,0.0,124,0.0416483953595161,0,1735643777088322877,map,0.9704538572220726,-0.030964438264005,0.2447800253391447,0.5100184155257989,-0.5020362787584015,0.4878652686809616,-0.4998282407485827,0.0,0.0,0.0,125,0.0542697496712207,0,1735643777088343858,map,0.9707552838489528,-0.0248363184620396,0.1472402851225615,-0.5006204990996799,0.4710060951136284,-0.4940358951121084,0.5324104700208068,0.0,0.0,0.0,126,0.9060863852500916,0,1735644242188269615,map,0.9823913054738797,0.3370318252668183,0.0239570066645892,-0.5025499635565248,0.5007992494073793,-0.4873167588495437,0.50908351227153,0.0,0.0,0.0,0,0.0018262309022247,0.937651652437696,0.0152564648169751,0.1364042469423379,1.0,7.046280112685063e-06,3.489900169167846e-05,-0.0001130438821908,0.0,0.0,0.0,3.489900169167846e-05,0.0085081286331456,-0.0023246942186133,0.0,0.0,0.0,-0.0001130438821908,-0.0023246942186133,0.002187227763693,0.0,0.0,0.0,0.0,0.0,0.0,0.0,0.0,0.0,0.0,0.0,0.0,0.0,0.0,0.0,0.0,0.0,0.0,0.0,0.0,0.0,0,0,0,1,21,,126
2.09945502,0,1735643777088230371,map,0.9641018916943084,-0.2236320771044105,0.0229728596204089,-0.4903621887382228,0.5020004996646007,-0.4994306074064658,0.5080447722179214,0.0,0.0,0.0,1,6.171000563881535e-07,0,1735643777088253974,map,0.9625100559782672,-0.2545980869591029,0.1487702042810787,-0.5022424325814364,0.5003360434842404,-0.4887128908507344,0.5085037785715415,0.0,0.0,0.0,16,0.0029450070578604,0,1735643777088270664,map,0.9668837324083716,0.0534345337438146,0.0274146160207299,-0.4923891785386238,0.4917783011922295,-0.4898144182135192,0.5251560101957284,0.0,0.0,0.0,17,0.0303601063787937,0,1735643777088284730,map,0.9755259885949996,-0.2623904683451088,0.2373968002583256,-0.5058871566626492,0.4960913807211918,-0.4752263728490348,0.5216621715695627,0.0,0.0,0.0,121,0.007039098534733,0,1735643777088297367,map,0.9745279844605796,0.2006796931435674,0.2431761497643793,-0.509335450556687,0.4867356375843599,-0.4894877571077184,0.5138750369041275,0.0,0.0,0.0,122,5.676948421751149e-05,0,1735643777088310956,map,0.9706770917191327,0.2022557290629047,0.1456967240488902,-0.4844448746703395,0.498336271428155,-0.479306231474827,0.5359474418766478,0.0,0.0,0.0,124,0.0435068570077419,0,1735643777088322877,map,0.9665891667910008,-0.0311144603492175,0.2427958895706172,-0.4650651850481488,0.4869746447189624,-0.5282563433567111,0.5172188170981098,0.0,0.0,0.0,125,0.0569933243095874,0,1735643777088343858,map,0.9689922200933656,-0.0246692954698046,0.1456858781809029,-0.489371865196702,0.4891093101986389,-0.5107799502259899,0.5102853149739346,0.0,0.0,0.0,126,0.8912978172302246,0,1735644242188269615,map,0.9823913054738797,0.3370318252668183,0.0239570066645892,-0.5025499635565248,0.5007992494073793,-0.4873167588495437,0.50908351227153,0.0,0.0,0.0,0,0.0014443673426285,0.9375910044832708,0.0168846160284562,0.1369689028833625,1.0,6.803236314912277e-06,3.12390585830761e-05,-0.0001086246736928,0.0,0.0,0.0,3.12390585830761e-05,0.0081770639171736,-0.002199720049242,0.0,0.0,0.0,-0.0001086246736928,-0.002199720049242,0.0020945038828552,0.0,0.0,0.0,0.0,0.0,0.0,0.0,0.0,0.0,0.0,0.0,0.0,0.0,0.0,0.0,0.0,0.0,0.0,0.0,0.0,0.0,0,0,0,1,22,,126
2.200270182,0,1735643777088230371,map,0.9641018916943084,-0.2236320771044105,0.0229728596204089,-0.4903621887382228,0.5020004996646007,-0.4994306074064658,0.5080447722179214,0.0,0.0,0.0,1,3.253790055168793e-07,0,1735643777088253974,map,0.9567510799097576,-0.2528070278853229,0.1492074263327656,-0.5047856632253525,0.4992139836754516,-0.4804299855880508,0.5149406389603489,0.0,0.0,0.0,16,0.0025016081053763,0,1735643777088270664,map,0.9668837324083716,0.0534345337438146,0.0274146160207299,-0.4923891785386238,0.4917783011922295,-0.4898144182135192,0.5251560101957284,0.0,0.0,0.0,17,0.0271939989179372,0,1735643777088284730,map,0.9722453820807612,-0.2621384731988493,0.2366642273362583,-0.4972627007303125,0.4844161476556688,-0.4873755480679833,0.5296563768126178,0.0,0.0,0.0,121,0.0055953375995159,0,1735643777088297367,map,0.9696209747920708,0.1977484385410153,0.2424820898818212,-0.4997432777572204,0.4874791712922451,-0.4995037185699614,0.5129490705981213,0.0,0.0,0.0,122,4.3396896217018366e-05,0,1735643777088310956,map,0.9706770917191327,0.2022557290629047,0.1456967240488902,-0.4844448746703395,0.498336271428155,-0.479306231474827,0.5359474418766478,0.0,0.0,0.0,124,0.038457129150629,0,1735643777088322877,map,0.960688408393112,-0.033083645704494,0.242448561426118,-0.4672661341712524,0.4925944494175387,-0.5271759290681037,0.5109780896191798,0.0,0.0,0.0,125,0.0498075187206268,0,1735643777088343858,map,0.960750747802464,-0.0268765041350726,0.1464841807674513,-0.4814551528317782,0.4882338217856536,-0.5244167788396419,0.5047927427645509,0.0,0.0,0.0,126,0.873027503490448,0,1735644242188269615,map,0.9823913054738797,0.3370318252668183,0.0239570066645892,-0.5025499635565248,0.5007992494073793,-0.4873167588495437,0.50908351227153,0.0,0.0,0.0,0,0.001197705627419,0.9376237792342492,0.0182619640473104,0.1361858424896823,1.0,6.531075486292425e-06,3.0873967887907016e-05,-0.0001044664831999,0.0,0.0,0.0,3.0873967887907016e-05,0.0078632753254665,-0.0021278080741023,0.0,0.0,0.0,-0.0001044664831999,-0.0021278080741023,0.0020169285354074,0.0,0.0,0.0,0.0,0.0,0.0,0.0,0.0,0.0,0.0,0.0,0.0,0.0,0.0,0.0,0.0,0.0,0.0,0.0,0.0,0.0,0,0,0,1,23,,126
2.301016045,0,1735643777088230371,map,0.9641018916943084,-0.2236320771044105,0.0229728596204089,-0.4903621887382228,0.5020004996646007,-0.4994306074064658,0.5080447722179214,0.0,0.0,0.0,1,3.9444100252694636e-07,0,1735643777088253974,map,0.9549718561232374,-0.2520849626310252,0.1482744653376013,-0.503580424865934,0.4927101702949353,-0.4864595982375478,0.5167209140941994,0.0,0.0,0.0,16,0.0021284311078488,0,1735643777088270664,map,0.9668837324083716,0.0534345337438146,0.0274146160207299,-0.4923891785386238,0.4917783011922295,-0.4898144182135192,0.5251560101957284,0.0,0.0,0.0,17,0.034457441419363,0,1735643777088284730,map,0.9715941783431066,-0.2625984121808651,0.2351657487880668,-0.5018319048700898,0.4937096591803186,-0.4798664682508289,0.5235873225499137,0.0,0.0,0.0,121,0.0044160177931189,0,1735643777088297367,map,0.9696209747920708,0.1977484385410153,0.2424820898818212,-0.4997432777572204,0.4874791712922451,-0.4995037185699614,0.5129490705981213,0.0,0.0,0.0,122,3.640893191914074e-05,0,1735643777088310956,map,0.9706770917191327,0.2022557290629047,0.1456967240488902,-0.4844448746703395,0.498336271428155,-0.479306231474827,0.5359474418766478,0.0,0.0,0.0,124,0.0328114740550518,0,1735643777088322877,map,0.9619113200182752,-0.0333685191502723,0.2410368642731668,-0.5527971005648651,0.4702491203001641,-0.441479768470944,0.5276142004294824,0.0,0.0,0.0,125,0.0519216246902942,0,1735643777088343858,map,0.96193413433565,-0.0270184487436603,0.144330035345486,-0.5001424863904945,0.4924146933280459,-0.4984790193641737,0.5088260315230667,0.0,0.0,0.0,126,0.8622633218765259,0,1735644242188269615,map,0.9823913054738797,0.3370318252668183,0.0239570066645892,-0.5025499635565248,0.5007992494073793,-0.4873167588495437,0.50908351227153,0.0,0.0,0.0,0,0.0010229115141555,0.937763512845216,0.0190777298924046,0.1339178995621729,1.0,6.708033427806919e-06,3.2209320425723934e-05,-0.0001074025937253,0.0,0.0,0.0,3.2209320425723934e-05,0.0075509447535946,-0.0020817019430624,0.0,0.0,0.0,-0.0001074025937253,-0.0020817019430624,0.0020511918442482,0.0,0.0,0.0,0.0,0.0,0.0,0.0,0.0,0.0,0.0,0.0,0.0,0.0,0.0,0.0,0.0,0.0,0.0,0.0,0.0,0.0,0,0,0,1,24,,126
2.400458398,0,1735643777088230371,map,0.9641018916943084,-0.2236320771044105,0.0229728596204089,-0.4903621887382228,0.5020004996646007,-0.4994306074064658,0.5080447722179214,0.0,0.0,0.0,1,1.63982292633591e-06,0,1735643777088253974,map,0.9536399773730896,-0.252255867977208,0.1471492365588032,-0.504264284327126,0.49256874032887,-0.4859413543614103,0.5166764632962103,0.0,0.0,0.0,16,0.0021518720313906,0,1735643777088270664,map,0.9668837324083716,0.0534345337438146,0.0274146160207299,-0.4923891785386238,0.4917783011922295,-0.4898144182135192,0.5251560101957284,0.0,0.0,0.0,17,0.0608435161411762,0,1735643777088284730,map,0.9698094643111164,-0.2631499689143727,0.2342239236208071,-0.5053249410805941,0.4951635895825296,-0.4772802179511383,0.5212133124030434,0.0,0.0,0.0,121,0.0034292214550077,0,1735643777088297367,map,0.9696209747920708,0.1977484385410153,0.2424820898818212,-0.4997432777572204,0.4874791712922451,-0.4995037185699614,0.5129490705981213,0.0,0.0,0.0,122,6.269295408856124e-05,0,1735643777088310956,map,0.9706770917191327,0.2022557290629047,0.1456967240488902,-0.4844448746703395,0.498336271428155,-0.479306231474827,0.5359474418766478,0.0,0.0,0.0,124,0.0304872319102287,0,1735643777088322877,map,0.9616031178534346,-0.0337713195677031,0.2400343148629185,-0.4968600795774295,0.5072588782872944,-0.5014560658388214,0.494328135709953,0.0,0.0,0.0,125,0.0630410611629486,0,1735643777088343858,map,0.9599220905056176,-0.02788621483319,0.1434401823893242,-0.4990626607351339,0.4936676270166055,-0.5006318569842225,0.5065535297165458,0.0,0.0,0.0,126,0.8560753464698792,0,1735644242188269615,map,0.9823913054738797,0.3370318252668183,0.0239570066645892,-0.5025499635565248,0.5007992494073793,-0.4873167588495437,0.50908351227153,0.0,0.0,0.0,0,0.0008353126468136,0.9379803010600885,0.0191265123524536,0.130656959819998,1.0,7.56764321327799e-06,3.117475870704144e-05,-0.0001200728893086,0.0,0.0,0.0,3.117475870704144e-05,0.0072489640769326,-0.0020022517052446,0.0,0.0,0.0,-0.0001200728893086,-0.0020022517052446,0.0022243536425286,0.0,0.0,0.0,0.0,0.0,0.0,0.0,0.0,0.0,0.0,0.0,0.0,0.0,0.0,0.0,0.0,0.0,0.0,0.0,0.0,0.0,0,0,0,1,25,,126
2.498296462,0,1735643777088230371,map,0.9641018916943084,-0.2236320771044105,0.0229728596204089,-0.4903621887382228,0.5020004996646007,-0.4994306074064658,0.5080447722179214,0.0,0.0,0.0,1,4.632503078028094e-06,0,1735643777088253974,map,0.9498601480202624,-0.2532011055679022,0.1483708546592529,-0.5012471927863418,0.4930288559923858,-0.4910024861071635,0.5143834732174385,0.0,0.0,0.0,16,0.0023096641525626,0,1735643777088270664,map,0.9668837324083716,0.0534345337438146,0.0274146160207299,-0.4923891785386238,0.4917783011922295,-0.4898144182135192,0.5251560101957284,0.0,0.0,0.0,17,0.0856765657663345,0,1735643777088284730,map,0.9670190538957828,-0.2653965232866604,0.2353910629070883,-0.4947236801569153,0.4975128056809575,-0.4879152423636958,0.5192958739915381,0.0,0.0,0.0,121,0.002440620213747,0,1735643777088297367,map,0.9696209747920708,0.1977484385410153,0.2424820898818212,-0.4997432777572204,0.4874791712922451,-0.4995037185699614,0.5129490705981213,0.0,0.0,0.0,122,8.875806088326499e-05,0,1735643777088310956,map,0.9706770917191327,0.2022557290629047,0.1456967240488902,-0.4844448746703395,0.498336271428155,-0.479306231474827,0.5359474418766478,0.0,0.0,0.0,124,0.0285094641149044,0,1735643777088322877,map,0.9547476877381692,-0.0358387666266855,0.2411055703084658,-0.4593361527763442,0.4941161719457229,-0.5336491052559995,0.5099785680141892,0.0,0.0,0.0,125,0.0606595799326896,0,1735643777088343858,map,0.9542677319348106,-0.0298742128895591,0.1453251717580875,-0.4897465670292077,0.4925589350659117,-0.5140249236922254,0.5033014736646837,0.0,0.0,0.0,126,0.8424808382987976,0,1735644242188269615,map,0.9823913054738797,0.3370318252668183,0.0239570066645892,-0.5025499635565248,0.5007992494073793,-0.4873167588495437,0.50908351227153,0.0,0.0,0.0,0,0.0006316561484709,0.9381689612315878,0.0184145502748804,0.1279788539592579,1.0,8.166396520522311e-06,2.6617757334599888e-05,-0.0001280859990328,0.0,0.0,0.0,2.6617757334599888e-05,0.0069828300162789,-0.0018775742789593,0.0,0.0,0.0,-0.0001280859990328,-0.0018775742789593,0.0023181078543877,0.0,0.0,0.0,0.0,0.0,0.0,0.0,0.0,0.0,0.0,0.0,0.0,0.0,0.0,0.0,0.0,0.0,0.0,0.0,0.0,0.0,0,0,0,1,26,,126
