%time,field.boxes0.header.seq,field.boxes0.header.stamp,field.boxes0.header.frame_id,field.boxes0.pose.position.x,field.boxes0.pose.position.y,field.boxes0.pose.position.z,field.boxes0.pose.orientation.x,field.boxes0.pose.orientation.y,field.boxes0.pose.orientation.z,field.boxes0.pose.orientation.w,field.boxes0.scale.x,field.boxes0.scale.y,field.boxes0.scale.z,field.boxes0.id,field.boxes0.pdf,field.boxes1.header.seq,field.boxes1.header.stamp,field.boxes1.header.frame_id,field.boxes1.pose.position.x,field.boxes1.pose.position.y,field.boxes1.pose.position.z,field.boxes1.pose.orientation.x,field.boxes1.pose.orientation.y,field.boxes1.pose.orientation.z,field.boxes1.pose.orientation.w,field.boxes1.scale.x,field.boxes1.scale.y,field.boxes1.scale.z,field.boxes1.id,field.boxes1.pdf,field.boxes2.header.seq,field.boxes2.header.stamp,field.boxes2.header.frame_id,field.boxes2.pose.position.x,field.boxes2.pose.position.y,field.boxes2.pose.position.z,field.boxes2.pose.orientation.x,field.boxes2.pose.orientation.y,field.boxes2.pose.orientation.z,field.boxes2.pose.orientation.w,field.boxes2.scale.x,field.boxes2.scale.y,field.boxes2.scale.z,field.boxes2.id,field.boxes2.pdf,field.boxes3.header.seq,field.boxes3.header.stamp,field.boxes3.header.frame_id,field.boxes3.pose.position.x,field.boxes3.pose.position.y,field.boxes3.pose.position.z,field.boxes3.pose.orientation.x,field.boxes3.pose.orientation.y,field.boxes3.pose.orientation.z,field.boxes3.pose.orientation.w,field.boxes3.scale.x,field.boxes3.scale.y,field.boxes3.scale.z,field.boxes3.id,field.boxes3.pdf,field.boxes4.header.seq,field.boxes4.header.stamp,field.boxes4.header.frame_id,field.boxes4.pose.position.x,field.boxes4.pose.position.y,field.boxes4.pose.position.z,field.boxes4.pose.orientation.x,field.boxes4.pose.orientation.y,field.boxes4.pose.orientation.z,field.boxes4.pose.orientation.w,field.boxes4.scale.x,field.boxes4.scale.y,field.boxes4.scale.z,field.boxes4.id,field.boxes4.pdf,field.boxes5.header.seq,field.boxes5.header.stamp,field.boxes5.header.frame_id,field.boxes5.pose.position.x,field.boxes5.pose.position.y,field.boxes5.pose.position.z,field.boxes5.pose.orientation.x,field.boxes5.pose.orientation.y,field.boxes5.pose.orientation.z,field.boxes5.pose.orientation.w,field.boxes5.scale.x,field.boxes5.scale.y,field.boxes5.scale.z,field.boxes5.id,field.boxes5.pdf,field.boxes6.header.seq,field.boxes6.header.stamp,field.boxes6.header.frame_id,field.boxes6.pose.position.x,field.boxes6.pose.position.y,field.boxes6.pose.position.z,field.boxes6.pose.orientation.x,field.boxes6.pose.orientation.y,field.boxes6.pose.orientation.z,field.boxes6.pose.orientation.w,field.boxes6.scale.x,field.boxes6.scale.y,field.boxes6.scale.z,field.boxes6.id,field.boxes6.pdf,field.boxes7.header.seq,field.boxes7.header.stamp,field.boxes7.header.frame_id,field.boxes7.pose.position.x,field.boxes7.pose.position.y,field.boxes7.pose.position.z,field.boxes7.pose.orientation.x,field.boxes7.pose.orientation.y,field.boxes7.pose.orientation.z,field.boxes7.pose.orientation.w,field.boxes7.scale.x,field.boxes7.scale.y,field.boxes7.scale.z,field.boxes7.id,field.boxes7.pdf,field.boxes8.header.seq,field.boxes8.header.stamp,field.boxes8.header.frame_id,field.boxes8.pose.position.x,field.boxes8.pose.position.y,field.boxes8.pose.position.z,field.boxes8.pose.orientation.x,field.boxes8.pose.orientation.y,field.boxes8.pose.orientation.z,field.boxes8.pose.orientation.w,field.boxes8.scale.x,field.boxes8.scale.y,field.boxes8.scale.z,field.boxes8.id,field.boxes8.pdf,field.pose.pose.position.x,field.pose.pose.position.y,field.pose.pose.position.z,field.pose.pose.orientation.w,field.pose.covariance0,field.pose.covariance1,field.pose.covariance2,field.pose.covariance3,field.pose.covariance4,field.pose.covariance5,field.pose.covariance6,field.pose.covariance7,field.pose.covariance8,field.pose.covariance9,field.pose.covariance10,field.pose.covariance11,field.pose.covariance12,field.pose.covariance13,field.pose.covariance14,field.pose.covariance15,field.pose.covariance16,field.pose.covariance17,field.pose.covariance18,field.pose.covariance19,field.pose.covariance20,field.pose.covariance21,field.pose.covariance22,field.pose.covariance23,field.pose.covariance24,field.pose.covariance25,field.pose.covariance26,field.pose.covariance27,field.pose.covariance28,field.pose.covariance29,field.pose.covariance30,field.pose.covariance31,field.pose.covariance32,field.pose.covariance33,field.pose.covariance34,field.pose.covariance35,field.buttons0,field.buttons1,field.buttons2,field.buttons3,intersection_length,vacuum,desired_box
0.0,0,1735643777088230371,map,0.984096697420027,-0.2210045077956572,0.020651147507762,-0.4987597967663579,0.5025833622785224,-0.4957278480768562,0.502894153606389,0.0,0.0,0.0,1,0.1111111119389534,0,1735643777088253974,map,0.9835164880540852,-0.2492217736353209,0.1479965630047173,-0.5008861746813968,0.483372633537488,-0.4842007439310814,0.5301071370361448,0.0,0.0,0.0,16,0.1111111119389534,0,1735643777088270664,map,0.9894066604464165,0.0559717607850261,0.0245291148784985,-0.4853412834897462,0.4949225867648913,-0.5040915272784209,0.5151574553246645,0.0,0.0,0.0,17,0.1111111119389534,0,1735643777088284730,map,1.0131955267794033,-0.2582536701958642,0.2361068537668977,-0.4642422784754934,0.461700225108103,-0.5272504880968787,0.5415892648609397,0.0,0.0,0.0,121,0.1111111119389534,0,1735643777088297367,map,1.0167281865585025,0.2095799140764255,0.2409960595118339,-0.4937373083388887,0.4642170005139326,-0.5012323031359815,0.5380448169819279,0.0,0.0,0.0,122,0.1111111119389534,0,1735643777088310956,map,1.0167294404964982,0.2090692170257607,0.1418304895783052,-0.505155829564821,0.5032434623494834,-0.4651024095332819,0.5246364018113091,0.0,0.0,0.0,124,0.1111111119389534,0,1735643777088322877,map,0.9999088523431312,-0.0270571875267476,0.2416069579632925,-0.4966159761878626,0.5120574512362445,-0.502590362121525,0.4884390102469005,0.0,0.0,0.0,125,0.1111111119389534,0,1735643777088343858,map,1.0008722964017764,-0.0221998006481735,0.1447589052467709,-0.4781602945227179,0.4649371452411194,-0.5170118246531329,0.5365584375311085,0.0,0.0,0.0,126,0.1111111119389534,0,1735644242188269615,map,0.9711509875899772,0.328970118613827,0.0271640557171615,-0.4811060298569912,0.4880606263408155,-0.4901411664082,0.5386050965624668,0.0,0.0,0.0,0,0.1111111119389534,0.90337550525531,0.4322747850243298,0.5620605938629085,1.0,0.0,0.0,0.0,0.0,0.0,0.0,0.0,0.0,0.0,0.0,0.0,0.0,0.0,0.0,0.0,0.0,0.0,0.0,0.0,0.0,0.0,0.0,0.0,0.0,0.0,0.0,0.0,0.0,0.0,0.0,0.0,0.0,0.0,0.0,0.0,0.0,0,0,0,1,1,,122
0.099368804,0,1735643777088230371,map,0.9967831148600697,-0.2231420279322206,0.0172423630837162,-0.4867611279465025,0.5190809948773815,-0.505606374102472,0.4878326757652744,0.0,0.0,0.0,1,0.0,0,1735643777088253974,map,0.9912901955736844,-0.2502518047912883,0.1475269740350658,-0.4998123852260924,0.4901791514806691,-0.4944268730990794,0.5152223269480487,0.0,0.0,0.0,16,0.0,0,1735643777088270664,map,0.9881698461875288,0.0566114909839053,0.0257654505738702,-0.4814285541243444,0.5063182526670171,-0.5111008867881034,0.500643843280206,0.0,0.0,0.0,17,0.0,0,1735643777088284730,map,1.0166917221256877,-0.2583289935795854,0.2364149983695854,-0.4743240134510667,0.4698770603148066,-0.5129385830615635,0.539561199921179,0.0,0.0,0.0,121,0.0,0,1735643777088297367,map,1.0207579908421065,0.2121111764675189,0.2413328378818366,-0.5084164901707852,0.495855499211259,-0.4917518340744055,0.5038056471585352,0.0,0.0,0.0,122,0.0,0,1735643777088310956,map,1.008762644840809,0.2065486328836559,0.1434029114806773,-0.4743293899564512,0.497843016138786,-0.4896432316645654,0.5361095660314755,0.0,0.0,0.0,124,0.0,0,1735643777088322877,map,1.004101708236302,-0.0257363932690826,0.2419717875133854,-0.5073380329549714,0.5095279637647836,-0.4916949197718704,0.4911471066082211,0.0,0.0,0.0,125,0.0,0,1735643777088343858,map,1.0040563677585694,-0.0209231716336461,0.1449494061620272,-0.4885521572654559,0.46172468825437,-0.5075658815198966,0.5389842092349307,0.0,0.0,0.0,126,0.0,0,1735644242188269615,map,0.9791796306158004,0.334675023253449,0.0252100576555882,-0.5067891023547516,0.4894553542128746,-0.4808602451898036,0.5218924089913702,0.0,0.0,0.0,0,0.0,0.9031471447724682,0.5486216663115638,0.5408508967457168,1.0,5.214851012376772e-08,-2.6569029987897395e-05,4.843456674611522e-06,0.0,0.0,0.0,-2.6569029987897395e-05,0.0135365967852657,-0.002467682112632,0.0,0.0,0.0,4.843456674611522e-06,-0.002467682112632,0.000449851251803,0.0,0.0,0.0,0.0,0.0,0.0,0.0,0.0,0.0,0.0,0.0,0.0,0.0,0.0,0.0,0.0,0.0,0.0,0.0,0.0,0.0,0,0,0,1,2,,122
0.200102291,0,1735643777088230371,map,0.9933422192587572,-0.220639771860758,0.0187230625494044,-0.4947808995939558,0.5081868551952713,-0.4975399922820568,0.4993915674935926,0.0,0.0,0.0,1,0.0,0,1735643777088253974,map,0.9829552875940276,-0.2466436930655612,0.1490162671605337,-0.5264462304985955,0.4953059373250809,-0.4668724474532529,0.5094668906350565,0.0,0.0,0.0,16,0.0,0,1735643777088270664,map,0.9938704762407125,0.0593023448948516,0.0239123556005824,-0.4923905033857466,0.5082251678120113,-0.5024305810534669,0.4968121196189361,0.0,0.0,0.0,17,0.0,0,1735643777088284730,map,1.016322453122172,-0.2566836465679397,0.2363701421291084,0.3108125496522805,-0.6190995943060564,0.6445620455853794,-0.3234980999936729,0.0,0.0,0.0,121,0.0,0,1735643777088297367,map,1.0071193623208037,0.207612750214862,0.2411497039247344,-0.4885575251445414,0.511003386851424,-0.5095376579187896,0.4904675916038181,0.0,0.0,0.0,122,0.0,0,1735643777088310956,map,1.0079424236069228,0.2074530563019413,0.1435481862391473,-0.478091039101899,0.5105923019257478,-0.4957911775775951,0.514699492695354,0.0,0.0,0.0,124,0.0,0,1735643777088322877,map,1.0067164762464298,-0.0248558461680074,0.2420857612198013,-0.5597330016415393,0.480433728693529,-0.4358664444492295,0.515657678901587,0.0,0.0,0.0,125,0.0,0,1735643777088343858,map,1.0082056580922325,-0.0198728040990513,0.1440448653730437,-0.4934957666241001,0.4662745070924396,-0.504442239559636,0.5334679365321343,0.0,0.0,0.0,126,0.0,0,1735644242188269615,map,0.98262641660964,0.3376869825039355,0.0241586912800342,-0.5030216604118877,0.504591290398141,-0.4824584666056395,0.5095004090394256,0.0,0.0,0.0,0,0.0,0.9035831934128712,0.6001650670683765,0.5233994526857934,1.0,4.150425070106696e-07,2.723817298492464e-05,-1.19903857943939e-05,0.0,0.0,0.0,2.723817298492464e-05,0.0143378421799986,-0.0034441349583528,0.0,0.0,0.0,-1.19903857943939e-05,-0.0034441349583528,0.0009090066340886,0.0,0.0,0.0,0.0,0.0,0.0,0.0,0.0,0.0,0.0,0.0,0.0,0.0,0.0,0.0,0.0,0.0,0.0,0.0,0.0,0.0,0,0,0,1,3,,122
0.299496184,0,1735643777088230371,map,0.99056860941757,-0.2209079339907823,0.0183980385421332,-0.4980639704428884,0.5033204299407368,-0.4927534913343452,0.5057616265878133,0.0,0.0,0.0,1,0.0,0,1735643777088253974,map,0.9852796431221496,-0.2480204275147625,0.1478036133286888,-0.5264877025245871,0.4972810650182786,-0.4655915543628989,0.5086715501879464,0.0,0.0,0.0,16,0.0,0,1735643777088270664,map,0.9997606790549742,0.0592251411537858,0.0213035292885676,-0.5113841064928508,0.5036536746895868,-0.4805209120347101,0.503903685931662,0.0,0.0,0.0,17,0.0,0,1735643777088284730,map,1.0132426328363104,-0.2573737039412159,0.2356553348611544,-0.5011726136699184,0.4821163719691844,-0.4821860112823807,0.5328099714815047,0.0,0.0,0.0,121,1.8216880036222624e-44,0,1735643777088297367,map,1.0234372744604108,0.2130729174292887,0.2400287952998929,0.5136005115098128,-0.5057623955314472,0.4922042966527048,-0.4880100861660204,0.0,0.0,0.0,122,4.4362617135885185e-21,0,1735643777088310956,map,1.0113048704419,0.20787657197428,0.1421520974840741,-0.4853508100560935,0.5114885093424284,-0.4844973916579143,0.5177609230766955,0.0,0.0,0.0,124,3.1308915875959365e-32,0,1735643777088322877,map,1.0102217337376207,-0.0253857702297824,0.2407280280189501,-0.4859086367027161,0.5212182654049724,-0.5128636800404262,0.4787433156518545,0.0,0.0,0.0,125,4.737226717288388e-31,0,1735643777088343858,map,1.0098259680086108,-0.0206165659068952,0.1432906462134992,-0.5083009062726741,0.5111058154555942,-0.4930909015399167,0.4870958806112022,0.0,0.0,0.0,126,4.119817485114962e-43,0,1735644242188269615,map,0.9726700398935644,0.3311546456402688,0.0266317521665085,-0.4905875201704273,0.4969785012765397,-0.4913786396545566,0.520464491404738,0.0,0.0,0.0,0,1.1602751284609485e-42,0.9050527617088666,0.5954546230081361,0.5023614748988228,1.0,6.790174810041406e-06,-3.383280142720189e-07,-0.0001017430248485,0.0,0.0,0.0,-3.383280142720189e-07,0.0108199464847329,-0.0022858065662463,0.0,0.0,0.0,-0.0001017430248485,-0.0022858065662463,0.0020095445036616,0.0,0.0,0.0,0.0,0.0,0.0,0.0,0.0,0.0,0.0,0.0,0.0,0.0,0.0,0.0,0.0,0.0,0.0,0.0,0.0,0.0,0,0,0,1,4,,122
0.400051895,0,1735643777088230371,map,0.9912758408904866,-0.220507527268111,0.0185782299607608,-0.490447930741556,0.5007842746880858,-0.5026341995993656,0.505998813091057,0.0,0.0,0.0,1,3.9480605832042415e-32,0,1735643777088253974,map,0.9811318716906128,-0.2459826736535949,0.1490308921165017,-0.5044660246101004,0.4706976308303629,-0.4806671461626627,0.5412179458818843,0.0,0.0,0.0,16,4.2078527856292927e-26,0,1735643777088270664,map,0.990783710307252,0.0582639919958929,0.0244673501445665,-0.4745044357666826,0.5119069136537737,-0.506449151177698,0.5062668362263115,0.0,0.0,0.0,17,7.635419285296258e-22,0,1735643777088284730,map,1.014588128670058,-0.2576813897295958,0.2354602714849798,-0.5021352418941643,0.4728399962517647,-0.4864801185611753,0.5363018096531321,0.0,0.0,0.0,121,4.147513202023819e-23,0,1735643777088297367,map,1.0139571984082338,0.2092105507722613,0.2403308625491771,-0.5061633166029765,0.4980855015187266,-0.4935307139695754,0.5021324172675908,0.0,0.0,0.0,122,1.9713571219881487e-08,0,1735643777088310956,map,1.004077335791036,0.2050645911845925,0.1433965234089283,-0.4695282111436262,0.5034345504362228,-0.5036598782335385,0.5219421801551596,0.0,0.0,0.0,124,3.728819770315584e-12,0,1735643777088322877,map,0.9977341127272228,-0.0253707557640813,0.2411994015708408,-0.442173653215319,0.5610248255565944,-0.5509755296670231,0.4314621318488501,0.0,0.0,0.0,125,2.3907897959540156e-14,0,1735643777088343858,map,1.0162228245650802,-0.020401870879076,0.1415867282262429,-0.5141815038170082,0.5156478060708813,-0.4872450992697704,0.4819926705504536,0.0,0.0,0.0,126,3.216672964466597e-18,0,1735644242188269615,map,0.9822515283099064,0.3372029631082811,0.0237099899813642,-0.4982853340942633,0.4945087089770402,-0.4766177171904351,0.5291582128556709,0.0,0.0,0.0,0,1.2837204655738997e-15,0.9067593088726592,0.5830998173218884,0.4793886601825358,1.0,1.708135273702791e-05,-8.46068968237189e-05,-0.0002382111870724,0.0,0.0,0.0,-8.46068968237189e-05,0.009266522081966,-0.0006933466054534,0.0,0.0,0.0,-0.0002382111870724,-0.0006933466054534,0.0037186364668847,0.0,0.0,0.0,0.0,0.0,0.0,0.0,0.0,0.0,0.0,0.0,0.0,0.0,0.0,0.0,0.0,0.0,0.0,0.0,0.0,0.0,0,0,0,1,5,,122
0.498810333,0,1735643777088230371,map,0.9898831817155124,-0.220286999210707,0.0199219104137497,-0.5046172141182705,0.5051468707076816,-0.4868903115526872,0.5031162199192943,0.0,0.0,0.0,1,4.439219410598997e-28,0,1735643777088253974,map,0.9881664498111956,-0.2482851717319364,0.1484545058499612,-0.5170502830621784,0.5039854366470805,-0.4649750911034819,0.5123044496061708,0.0,0.0,0.0,16,9.631115701599397e-22,0,1735643777088270664,map,0.9964837803047304,0.0590836665804293,0.0232338296929353,-0.5006933800456852,0.485324677271168,-0.4783415603893328,0.533812184587765,0.0,0.0,0.0,17,1.390797086580939e-20,0,1735643777088284730,map,1.014653232556998,-0.2583060994265992,0.2362530745000262,-0.5176810952233645,0.5002614306369095,-0.4600976112482102,0.5196681371694261,0.0,0.0,0.0,121,1.661774314358179e-18,0,1735643777088297367,map,1.014084879403716,0.2092602573165584,0.2408646012682011,0.4996160410624236,-0.5006233797806975,0.5076103087378517,-0.4920282690995765,0.0,0.0,0.0,122,2.3664352966079605e-07,0,1735643777088310956,map,1.014989215685255,0.2085664110544515,0.1420722936301478,-0.4961767076866643,0.5081698797302532,-0.4702054609433037,0.5239073129698207,0.0,0.0,0.0,124,2.1461582511150823e-11,0,1735643777088322877,map,1.0046397115566987,-0.0261370257736017,0.2415411701298472,-0.4427218727456443,0.5624892125214157,-0.5500323366997852,0.4301949067274055,0.0,0.0,0.0,125,9.242055037939068e-12,0,1735643777088343858,map,1.0046721557403226,-0.0211764236050685,0.1446926232706117,-0.4705791849163382,0.4881719553740772,-0.5383810176224716,0.5003891011737931,0.0,0.0,0.0,126,1.2979314549673405e-15,0,1735644242188269615,map,0.9747711197889064,0.3327239938305289,0.0274340027498208,-0.4969321793433921,0.4914941174348908,-0.486160036900564,0.5245382351943153,0.0,0.0,0.0,0,4.85269675344521e-16,0.9073240315529748,0.5573543000225861,0.4763720098794855,1.0,1.5829019142503426e-05,-0.0001432011350299,-0.0002070271767839,0.0,0.0,0.0,-0.0001432011350299,0.0110362600400151,-0.0001894627250622,0.0,0.0,0.0,-0.0002070271767839,-0.0001894627250622,0.0031443646176584,0.0,0.0,0.0,0.0,0.0,0.0,0.0,0.0,0.0,0.0,0.0,0.0,0.0,0.0,0.0,0.0,0.0,0.0,0.0,0.0,0.0,0,0,0,1,6,,122
0.599961,0,1735643777088230371,map,0.9938872607386624,-0.2238067670661372,0.0168424631789388,-0.5023680600240911,0.5083570524429626,-0.4926634500069498,0.4964697015190193,0.0,0.0,0.0,1,1.2597889942960249e-29,0,1735643777088253974,map,0.9848471742441895,-0.249262280294217,0.1479851917410911,-0.5113535378343159,0.4885727488956708,-0.4722001107977286,0.5261570903670019,0.0,0.0,0.0,16,3.6126626052758424e-22,0,1735643777088270664,map,0.9945807648080642,0.0572647003751556,0.0220729244342297,-0.4903410996555848,0.5078494456663234,-0.4987897354482917,0.5028551942024497,0.0,0.0,0.0,17,4.1832157844166742e-22,0,1735643777088284730,map,1.022101915132322,-0.263612514266535,0.2345519574611581,-0.500599824429055,0.4968002022540013,-0.4860068166726137,0.5161266791880994,0.0,0.0,0.0,121,8.100035350491165e-19,0,1735643777088297367,map,1.0221724717200071,0.2104376475002654,0.2392711768439345,-0.5229965531226116,0.4736878131523344,-0.4754123552038355,0.5254308266673823,0.0,0.0,0.0,122,1.211288633840013e-07,0,1735643777088310956,map,1.0091454057830171,0.205332267624057,0.1415063811389407,-0.4773992237462864,0.5029110699126299,-0.4884452704036899,0.5297090283788294,0.0,0.0,0.0,124,3.617852762163865e-12,0,1735643777088322877,map,1.0059858677716138,-0.0281961242069008,0.2406181658014443,-0.5748354734280139,0.4843067432591147,-0.424995392894973,0.5043709675829774,0.0,0.0,0.0,125,6.174378716639062e-12,0,1735643777088343858,map,1.015265848766661,-0.0230948015076711,0.1409423822402322,-0.4924774836863362,0.559065067681276,-0.5104378176636667,0.4293779366237374,0.0,0.0,0.0,126,2.0406062638205462e-16,0,1735644242188269615,map,0.9758853195471768,0.3325635628243297,0.0255800210359215,-0.4953436291806881,0.4951555775511258,-0.4891636716120651,0.5197831715485987,0.0,0.0,0.0,0,7.027119333680909e-18,0.9076568155674476,0.5431823366013238,0.4743827038305146,1.0,1.423220189530672e-05,-0.0001510410473074,-0.0001814239213327,0.0,0.0,0.0,-0.0001510410473074,0.0106647187461516,6.75761387632913e-06,0.0,0.0,0.0,-0.0001814239213327,6.75761387632913e-06,0.0027189137036174,0.0,0.0,0.0,0.0,0.0,0.0,0.0,0.0,0.0,0.0,0.0,0.0,0.0,0.0,0.0,0.0,0.0,0.0,0.0,0.0,0.0,0,0,0,1,7,,122
0.699309075,0,1735643777088230371,map,0.9938650999245372,-0.2231957438271568,0.016218116083258,-0.4903928461515597,0.5138014569690558,-0.5063358422164761,0.4890265168135363,0.0,0.0,0.0,1,3.3429324307724043e-31,0,1735643777088253974,map,0.982998787674854,-0.2478464534216328,0.1480708695692695,-0.4980888332767399,0.4659840189424191,-0.4953324139398481,0.5379704526791504,0.0,0.0,0.0,16,1.0472066039025238e-22,0,1735643777088270664,map,0.9865515041617252,0.057321120674209,0.0251685562966498,-0.4783111540182484,0.4915781309389459,-0.5120712256430279,0.5170613512850788,0.0,0.0,0.0,17,1.6927072803923056e-23,0,1735643777088284730,map,1.0148378114608598,-0.2609757714501532,0.2345788814563269,-0.5141855623747819,0.4913332599302639,-0.4782065510593075,0.5152895590399547,0.0,0.0,0.0,121,6.651793575360487e-19,0,1735643777088297367,map,1.011502022184691,0.2076807217759826,0.2393358485700358,-0.4917534468305325,0.4915151536341222,-0.5078201019817393,0.5086355721944461,0.0,0.0,0.0,122,5.4764026202747125e-08,0,1735643777088310956,map,1.0107894592215216,0.2064776720294132,0.1406424522013874,-0.4965808998494254,0.5043760445640331,-0.4676680877997483,0.5294325029958041,0.0,0.0,0.0,124,4.2819025235230073e-13,0,1735643777088322877,map,1.0053690163845166,-0.027977695586566,0.2400354237930763,-0.5626292483358166,0.4974397228529266,-0.4259449297433882,0.504552244937011,0.0,0.0,0.0,125,3.5605047556119818e-12,0,1735643777088343858,map,1.0123134384940309,-0.0227418017924165,0.140831778819738,-0.5019568224949534,0.4685038982447234,-0.4992789892142801,0.528454289990567,0.0,0.0,0.0,126,3.8318268373792145e-17,0,1735644242188269615,map,0.9789147701967664,0.3353174019839824,0.0239640074156064,-0.4917922122230992,0.494442580143991,-0.4903528798740848,0.5227054697785881,0.0,0.0,0.0,0,6.381969198250249e-20,0.9079105389011176,0.5308305816756672,0.473193477874849,1.0,1.2903805368733298e-05,-0.0001540984154488,-0.0001608580717838,0.0,0.0,0.0,-0.0001540984154488,0.010399589851087,0.000108736105031,0.0,0.0,0.0,-0.0001608580717838,0.000108736105031,0.0023889492992806,0.0,0.0,0.0,0.0,0.0,0.0,0.0,0.0,0.0,0.0,0.0,0.0,0.0,0.0,0.0,0.0,0.0,0.0,0.0,0.0,0.0,0,0,0,1,8,,122
0.800321401,0,1735643777088230371,map,0.9926443386713624,-0.223464721424657,0.0169540094702346,-0.4938646770192927,0.5106121352607049,-0.4993782504027952,0.495978115587549,0.0,0.0,0.0,1,8.541667634148429e-31,0,1735643777088253974,map,0.9891356592020492,-0.2507254195942806,0.1472934386368841,-0.5074887432193511,0.48870197323726,-0.4856311939676395,0.5174822705225912,0.0,0.0,0.0,16,9.614628634898022e-22,0,1735643777088270664,map,0.9892417502507532,0.0571625786056228,0.0241409532889674,-0.4863316909752025,0.5047661935150849,-0.5016481182609804,0.5069928418456308,0.0,0.0,0.0,17,2.8383171982502214e-24,0,1735643777088284730,map,1.01404327618893,-0.261594613887386,0.2344081633334387,-0.5058146850241663,0.4939196285948038,-0.4782898416649954,0.5209930251574849,0.0,0.0,0.0,121,1.600048711521946e-17,0,1735643777088297367,map,1.017188018527119,0.2085251855109078,0.2386730962591711,-0.4961703247276053,0.4834258753767064,-0.5018861650850296,0.5179041505647639,0.0,0.0,0.0,122,5.8428195615078955e-08,0,1735643777088310956,map,1.009004319433512,0.2051822946003641,0.1407869196420014,-0.4847739000289663,0.5020139291644085,-0.4823898489579999,0.5294112903951856,0.0,0.0,0.0,124,1.8021578695494314e-13,0,1735643777088322877,map,1.003981958812392,-0.0281645483194122,0.2401944687405786,-0.4850882867856278,0.5802813094476768,-0.5010931686585882,0.4205574779418026,0.0,0.0,0.0,125,1.7340830160694765e-11,0,1735643777088343858,map,1.003474807046206,-0.0237435034170628,0.1427989880283664,-0.4889588712495393,0.4786607785583729,-0.5129400608742037,0.5183585392820654,0.0,0.0,0.0,126,1.0664023044945471e-16,0,1735644242188269615,map,0.9719596428320793,0.3313466566848285,0.0270466495427368,-0.4845528037593088,0.4935111232560751,-0.4844703819408386,0.5356713550430128,0.0,0.0,0.0,0,3.670668898166613e-21,0.9082421912017024,0.5156340491616445,0.4714380706002237,1.0,1.2349995204517252e-05,-0.0001772960890413,-0.0001476424315855,0.0,0.0,0.0,-0.0001772960890413,0.0110915566712309,0.0003100631453767,0.0,0.0,0.0,-0.0001476424315855,0.0003100631453767,0.0021481621258479,0.0,0.0,0.0,0.0,0.0,0.0,0.0,0.0,0.0,0.0,0.0,0.0,0.0,0.0,0.0,0.0,0.0,0.0,0.0,0.0,0.0,0,0,0,1,9,,122
0.899605485,0,1735643777088230371,map,0.9872971798180228,-0.2240892365485828,0.0171750302218077,-0.4933597386709203,0.5051246480484374,-0.4949954668374139,0.5063839906660896,0.0,0.0,0.0,1,8.68574597838832e-32,0,1735643777088253974,map,0.9790460383682568,-0.2490739048872719,0.1479419136605375,-0.5031958475533391,0.4814157820774026,-0.4847010115040341,0.5292425844722306,0.0,0.0,0.0,16,4.7375909283825855e-21,0,1735643777088270664,map,0.9933888720673202,0.05563627030619,0.0203672884686453,-0.490878201479269,0.4926838533183763,-0.4899640027854418,0.5255820468454974,0.0,0.0,0.0,17,1.276834391527988e-26,0,1735643777088284730,map,1.0161022397863315,-0.2658283391790806,0.2331352760726189,-0.5116948614936082,0.5128913503342599,-0.4687490014598921,0.5053565128735267,0.0,0.0,0.0,121,2.619684176328991e-16,0,1735643777088297367,map,1.0172085474162609,0.2073563579042837,0.2373593438453667,-0.4995393772769547,0.4787509208543647,-0.5025101106697952,0.518402888693225,0.0,0.0,0.0,122,2.0328002392489e-08,0,1735643777088310956,map,1.0039170107878657,0.2021297585322073,0.1401854530393105,-0.4787305666508363,0.4989582361438651,-0.4840301698173447,0.5362578837135771,0.0,0.0,0.0,124,1.3190340102987604e-14,0,1735643777088322877,map,1.010522345379119,-0.0310981133189775,0.2385028015496477,0.5169601286937295,-0.5061977772655974,0.4810048446128651,-0.49512662531042,0.0,0.0,0.0,125,2.6138549658050178e-11,0,1735643777088343858,map,1.0066522515156482,-0.0263570926969745,0.1402002623331226,-0.4953174642683339,0.5095973987398895,-0.5095265151826857,0.4851327974009944,0.0,0.0,0.0,126,2.012754761723641e-17,0,1735644242188269615,map,0.9721561649535928,0.3305629707002639,0.0252961362150419,-0.4898774839523575,0.4989686251512811,-0.4940152510572451,0.5167197437238057,0.0,0.0,0.0,0,1.3329404803624786e-23,0.9084688026886192,0.4954431761333441,0.472315127188716,1.0,1.1577170578089612e-05,-0.000200745833969,-0.0001310894285483,0.0,0.0,0.0,-0.000200745833969,0.0136514431869123,0.0001196799868871,0.0,0.0,0.0,-0.0001310894285483,0.0001196799868871,0.0019402689675979,0.0,0.0,0.0,0.0,0.0,0.0,0.0,0.0,0.0,0.0,0.0,0.0,0.0,0.0,0.0,0.0,0.0,0.0,0.0,0.0,0.0,0,0,0,1,10,,122
0.998777867,0,1735643777088230371,map,0.9886330123724648,-0.2255353617374636,0.0159273562579264,-0.4973914392366042,0.5135638722395557,-0.4960713321048386,0.4927140537555061,0.0,0.0,0.0,1,1.023646079840602e-34,0,1735643777088253974,map,0.9886421145427152,-0.2539534560282643,0.1452907203979081,-0.5027806046809393,0.4966676374295828,-0.490924007477595,0.5094374744450233,0.0,0.0,0.0,16,7.457726914891161e-23,0,1735643777088270664,map,0.980765542534523,0.0543455071863773,0.0258453505316169,0.6935602606056447,-0.6453014985174234,0.2171658100358427,-0.2353702442350654,0.0,0.0,0.0,17,1.7184828541405611e-28,0,1735643777088284730,map,1.0138823151936438,-0.2661946080580523,0.2324463643765319,-0.5087587533478307,0.5179113099541626,-0.4638445281233738,0.5077210451060005,0.0,0.0,0.0,121,4.2226643828546003e-17,0,1735643777088297367,map,0.9991335419938924,0.201171794783967,0.2380743077599555,-0.491265769028717,0.4899165650559177,-0.5103442494909621,0.5081224758618148,0.0,0.0,0.0,122,4.461749636419654e-09,0,1735643777088310956,map,1.0039619302248286,0.2020977089807013,0.1392260310651277,-0.4886612586459913,0.5006027176417279,-0.4762458261939609,0.5327260144023976,0.0,0.0,0.0,124,4.570178443009194e-16,0,1735643777088322877,map,1.0013856207614282,-0.0314064267747085,0.2381036845151808,0.5115375980028763,-0.5057232828196178,0.486955194069274,-0.4954269734406399,0.0,0.0,0.0,125,5.030701549779693e-12,0,1735643777088343858,map,1.0013883314978016,-0.0262684837168705,0.1405345585039385,-0.4910871939642805,0.478292568146769,-0.5212465054141235,0.5083027324079833,0.0,0.0,0.0,126,8.012957013431942e-19,0,1735644242188269615,map,0.9667849716678382,0.3277718775933873,0.0270314359682358,-0.4812237310116034,0.4945389565680234,-0.4952599674246496,0.5277996834163677,0.0,0.0,0.0,0,1.1144687905292245e-25,0.9085539184760684,0.4833243151865263,0.4736047616923849,1.0,1.059714749826706e-05,-0.0001928112766239,-0.0001180745252081,0.0,0.0,0.0,-0.0001928112766239,0.0138790708036761,-4.748902414262616e-05,0.0,0.0,0.0,-0.0001180745252081,-4.748902414262616e-05,0.001780512451165,0.0,0.0,0.0,0.0,0.0,0.0,0.0,0.0,0.0,0.0,0.0,0.0,0.0,0.0,0.0,0.0,0.0,0.0,0.0,0.0,0.0,0,0,0,1,11,,122
1.099617716,0,1735643777088230371,map,0.9821511288954758,-0.2227089661055853,0.0186023298291951,-0.4942984506262876,0.4970297812511502,-0.4986661660020688,0.5098651715333002,0.0,0.0,0.0,1,8.962595707930397e-35,0,1735643777088253974,map,0.9798264619327344,-0.2499133115996127,0.1473582308450124,-0.5034570321126648,0.4905142964525684,-0.4829061848387091,0.5222340073534767,0.0,0.0,0.0,16,3.210200917561462e-22,0,1735643777088270664,map,0.9816666161589356,0.0550430946412525,0.0244858505072158,-0.4824223221733575,0.488994154122722,-0.5109249464495732,0.51682600495541,0.0,0.0,0.0,17,9.528837821776892e-30,0,1735643777088284730,map,1.0125876942165644,-0.2661680043578301,0.2319578766212733,-0.4979373137614555,0.5080543497860885,-0.4795806786848934,0.5137524519256308,0.0,0.0,0.0,121,1.765706088302797e-16,0,1735643777088297367,map,1.0005766304506076,0.2016875435941296,0.2372608931949346,-0.4908491778172138,0.4797250011793352,-0.5060321693513256,0.522362375617964,0.0,0.0,0.0,122,2.6802497998801304e-09,0,1735643777088310956,map,0.996062941859259,0.1999230602311725,0.1406616808681998,-0.4712198395664584,0.5029852597531844,-0.4980897279420347,0.5261789754338465,0.0,0.0,0.0,124,1.4938692603783528e-16,0,1735643777088322877,map,0.9959947417839968,-0.030856611124613,0.2383304444908569,-0.5578310288808217,0.4955608086380167,-0.4316951517108054,0.5068365852512852,0.0,0.0,0.0,125,8.990503654049409e-12,0,1735643777088343858,map,0.9975142869201628,-0.0262668653172705,0.1406393074569326,0.4832230838966252,-0.4966578812656362,0.5308152956059684,-0.4879154866541055,0.0,0.0,0.0,126,5.395091157933173e-19,0,1735644242188269615,map,0.97162994528275,0.3313918090574296,0.0245070988360318,-0.4946526986563865,0.4863711236205079,-0.4829942724466693,0.5343017598733798,0.0,0.0,0.0,0,1.2017805741871268e-27,0.9088069586397366,0.4705076704718327,0.4725242093931059,1.0,1.0418374442133317e-05,-0.0002124180548777,-0.0001112426358781,0.0,0.0,0.0,-0.0002124180548777,0.0145294117692059,0.0001088079986064,0.0,0.0,0.0,-0.0001112426358781,0.0001088079986064,0.0016449799395541,0.0,0.0,0.0,0.0,0.0,0.0,0.0,0.0,0.0,0.0,0.0,0.0,0.0,0.0,0.0,0.0,0.0,0.0,0.0,0.0,0.0,0,0,0,1,12,,122
1.200088537,0,1735643777088230371,map,0.9740096569501272,-0.2198609903570936,0.0217484464762879,-0.4933827559114551,0.4962564921620592,-0.4918406385559388,0.5180692390222681,0.0,0.0,0.0,1,2.7887595369303506e-30,0,1735643777088253974,map,0.9837603139092808,-0.252694683049094,0.1457075068997417,-0.5034726649971121,0.4962370571786647,-0.4880789339807121,0.5119013702732353,0.0,0.0,0.0,16,1.7075657405994078e-19,0,1735643777088270664,map,0.985445471409325,0.0545016169063415,0.0218172749282981,-0.4957812011410406,0.4928265325079626,-0.4967725500187906,0.5143345632943146,0.0,0.0,0.0,17,2.9051825061205366e-27,0,1735643777088284730,map,1.0086702264971867,-0.2656766850404536,0.2313811674804544,-0.4935927045510204,0.5049746867696379,-0.484518400478257,0.5163416769290529,0.0,0.0,0.0,121,2.896866570950042e-14,0,1735643777088297367,map,1.0028989324331905,0.2021314918552784,0.236324579469347,-0.4865214965233571,0.4737048835567505,-0.5094758439661055,0.5285214102855081,0.0,0.0,0.0,122,2.5674607329051472e-08,0,1735643777088310956,map,0.9978046115914156,0.2000949990766992,0.1392390287227361,-0.4778845369124492,0.5035921787565937,-0.4873554220665771,0.5296281520628122,0.0,0.0,0.0,124,3.842009735122208e-15,0,1735643777088322877,map,0.9989840603451656,-0.0323587851986495,0.2374428600358072,0.5360311744759931,-0.5054446070530059,0.4597324779235415,-0.4958249468645164,0.0,0.0,0.0,125,2.9199376250232945e-10,0,1735643777088343858,map,0.995839569688024,-0.0271569282977769,0.1401892686930935,-0.4837725090198209,0.4922267900183619,-0.5205867376165921,0.5026593233220685,0.0,0.0,0.0,126,9.204517117143841e-17,0,1735644242188269615,map,0.9756699191621396,0.3336603543127094,0.02176061562095,-0.5092738507378135,0.4901030922093026,-0.4678738966074313,0.530596947630626,0.0,0.0,0.0,0,2.374904119692348e-26,0.9092245951755864,0.4598118253517584,0.4685266002983139,1.0,1.1710004336425492e-05,-0.0002496819129496,-0.0001227200814097,0.0,0.0,0.0,-0.0002496819129496,0.0147845779440276,0.0006135318453017,0.0,0.0,0.0,-0.0001227200814097,0.0006135318453017,0.0017102135628241,0.0,0.0,0.0,0.0,0.0,0.0,0.0,0.0,0.0,0.0,0.0,0.0,0.0,0.0,0.0,0.0,0.0,0.0,0.0,0.0,0.0,0,0,0,1,13,,122
1.300348117,0,1735643777088230371,map,0.9864946780155138,-0.225882639688438,0.0147562760620553,-0.4849647916206293,0.5146597507903938,-0.5046293294862713,0.4952612761229833,0.0,0.0,0.0,1,1.8060376021270244e-33,0,1735643777088253974,map,0.9742005568011424,-0.2480573895593286,0.1479432049805896,-0.504214499159834,0.4840994167703333,-0.4881398818536855,0.522623142678825,0.0,0.0,0.0,16,1.265047296558909e-20,0,1735643777088270664,map,0.9860893558731746,0.0547789828944264,0.0210675021994349,-0.4933224855777349,0.5051252852361009,-0.49363274017626,0.5077480568792269,0.0,0.0,0.0,17,3.717448937029133e-29,0,1735643777088284730,map,1.0049155464366852,-0.2645141400516529,0.2316423020807926,-0.4940718295507557,0.5011686985969097,-0.4857224350600428,0.5184560529788348,0.0,0.0,0.0,121,2.9369514310909626e-15,0,1735643777088297367,map,1.0050509683334372,0.202902923253825,0.2358441787255034,-0.5075373247663575,0.4781039473653451,-0.487993636329475,0.5250568449078832,0.0,0.0,0.0,122,6.4116933984337265e-09,0,1735643777088310956,map,0.9947451073608796,0.1994054219126561,0.1396810687979179,-0.4796926613326888,0.5049700525052593,-0.4892215143019697,0.524940479178817,0.0,0.0,0.0,124,4.442679338019333e-16,0,1735643777088322877,map,0.9999186158575416,-0.032762168057616,0.2370659789367162,0.5265994381434757,-0.5152162663918275,0.4673826078191067,-0.4886703679377872,0.0,0.0,0.0,125,4.840090828128752e-11,0,1735643777088343858,map,0.99776762393494,-0.0275142858808797,0.1392746912591739,-0.4984391945087442,0.4827156237606184,-0.5050319671753285,0.5133095636025987,0.0,0.0,0.0,126,4.6908109728417436e-18,0,1735644242188269615,map,0.961021032438127,0.3258164508903699,0.0274767479691477,-0.4887833781148946,0.4913389653004201,-0.4897386285189169,0.5289923498430904,0.0,0.0,0.0,0,4.403620328913949e-27,0.9091748997904816,0.4553827967198221,0.4702095001312267,1.0,1.0905680662161366e-05,-0.0002289861609106,-0.0001150415819277,0.0,0.0,0.0,-0.0002289861609106,0.013983548492404,0.0004728111919854,0.0,0.0,0.0,-0.0001150415819277,0.0004728111919854,0.0016248734252128,0.0,0.0,0.0,0.0,0.0,0.0,0.0,0.0,0.0,0.0,0.0,0.0,0.0,0.0,0.0,0.0,0.0,0.0,0.0,0.0,0.0,0,0,0,1,14,,122
1.400497208,0,1735643777088230371,map,0.9794163349439724,-0.2242394109198878,0.017450167887874,-0.4942684683999986,0.5086037635479357,-0.491962285675373,0.5049693082984926,0.0,0.0,0.0,1,1.2594342901980954e-33,0,1735643777088253974,map,0.9799050083787596,-0.2529980200863721,0.1454519144453697,-0.5020122741969543,0.4918590631079713,-0.4955803300859113,0.5103513250948704,0.0,0.0,0.0,16,1.1668128739367922e-21,0,1735643777088270664,map,0.9803573936289576,0.0536849231964942,0.0228909037157732,-0.485218693504855,0.4970477833179448,-0.5048899252731183,0.5124377854236204,0.0,0.0,0.0,17,5.09501035298376e-29,0,1735643777088284730,map,1.004426445014284,-0.2665648140931312,0.2310396279648088,-0.4947080635989584,0.5074591164887531,-0.4825375634544127,0.5146908555221297,0.0,0.0,0.0,121,4.514879367652105e-16,0,1735643777088297367,map,0.995587204121544,0.1997450860968538,0.2365061004111723,0.500518246468454,-0.5018647709518853,0.5031157049384248,-0.4944571003371958,0.0,0.0,0.0,122,5.206250985878569e-09,0,1735643777088310956,map,0.9907960666101776,0.1978330862488643,0.1400922944537184,-0.4782658275542799,0.5048700295489099,-0.4932368913847427,0.5225757556892762,0.0,0.0,0.0,124,4.0225618487908365e-16,0,1735643777088322877,map,0.9931398788021022,-0.0332653543484591,0.2370501981664823,-0.5412350114728867,0.493133441000442,-0.4516212171095478,0.5098258016023693,0.0,0.0,0.0,125,2.0797622304891128e-11,0,1735643777088343858,map,1.0006187163131393,-0.0291936469158416,0.1373143210652111,-0.4974101944331957,0.4869294251102994,-0.5065341452843225,0.5088280584802345,0.0,0.0,0.0,126,1.3178560869085113e-18,0,1735644242188269615,map,0.9664155255975864,0.3291876934897965,0.0251405494946919,-0.5025692010272843,0.4932451506777612,-0.4849808377389209,0.5185817259967075,0.0,0.0,0.0,0,3.071969194862438e-27,0.908977394243501,0.4543223160099928,0.4733955119475171,1.0,1.0724753459916958e-05,-0.0002107881053326,-0.000116181713223,0.0,0.0,0.0,-0.0002107881053326,0.0130670565969466,0.0003939885888386,0.0,0.0,0.0,-0.000116181713223,0.0003939885888386,0.0016586579283082,0.0,0.0,0.0,0.0,0.0,0.0,0.0,0.0,0.0,0.0,0.0,0.0,0.0,0.0,0.0,0.0,0.0,0.0,0.0,0.0,0.0,0,0,0,1,15,,122
1.498182747,0,1735643777088230371,map,0.9707763849208354,-0.2197203745456796,0.0210493689515038,-0.4951308312845048,0.4993022803733163,-0.494101463608505,0.5112792156791186,0.0,0.0,0.0,1,6.396596002962223e-35,0,1735643777088253974,map,0.9823696343347388,-0.2539792583542646,0.1436735933119851,-0.5049930112973882,0.503888062035056,-0.4855090495778021,0.505331418236993,0.0,0.0,0.0,16,3.414764604079902e-23,0,1735643777088270664,map,0.9762483376207772,0.0544092588796335,0.0237579498928332,-0.490439324571401,0.4938176266138323,-0.4945613616593816,0.5205981944965314,0.0,0.0,0.0,17,3.677290514118036e-30,0,1735643777088284730,map,0.9994589144526906,-0.2638959974270923,0.2305200573894134,-0.4927750597508371,0.4925822393915873,-0.4912445915869993,0.5226989852295968,0.0,0.0,0.0,121,4.7186673553042624e-17,0,1735643777088297367,map,0.9981201952924788,0.2008691486055446,0.2350489684305757,-0.5006522277990193,0.4809414912864224,-0.491050554807744,0.5262242690926352,0.0,0.0,0.0,122,1.7594700141287942e-09,0,1735643777088310956,map,0.990978085718415,0.1984388772053488,0.1388021973176929,-0.4820696184202024,0.5107398090386103,-0.4896766602920111,0.5166918799678072,0.0,0.0,0.0,124,7.410562215352314e-17,0,1735643777088322877,map,0.9940216686772378,-0.0331087047602474,0.2360709727461375,0.5349186755510592,-0.5322716853740755,0.4530559051656423,-0.4746464055381464,0.0,0.0,0.0,125,3.863127265996136e-12,0,1735643777088343858,map,0.992523620974029,-0.02806796115631,0.1384236051789897,-0.4931419394243965,0.4944361929403984,-0.5113721933528182,0.5008416501818493,0.0,0.0,0.0,126,1.9706625543901741e-19,0,1735644242188269615,map,0.964281748760227,0.3291544738250593,0.0248945508955818,-0.5046663639001067,0.501589832050669,-0.4835485222706704,0.50980420569183,0.0,0.0,0.0,0,5.077354630959833e-28,0.90902107864434,0.4597125225306013,0.4715992355351313,1.0,1.0083081271822056e-05,-0.0001940818296156,-0.0001100973950288,0.0,0.0,0.0,-0.0001940818296156,0.0126861804546596,0.0002241297895733,0.0,0.0,0.0,-0.0001100973950288,0.0002241297895733,0.0016033909420343,0.0,0.0,0.0,0.0,0.0,0.0,0.0,0.0,0.0,0.0,0.0,0.0,0.0,0.0,0.0,0.0,0.0,0.0,0.0,0.0,0.0,0,0,0,1,16,,122
1.600371259,0,1735643777088230371,map,0.9707763849208354,-0.2197203745456796,0.0210493689515038,-0.4951308312845048,0.4993022803733163,-0.494101463608505,0.5112792156791186,0.0,0.0,0.0,1,1.6113795579874938e-32,0,1735643777088253974,map,0.9758930768807093,-0.2496450656662747,0.1453385337612061,-0.5101903764422259,0.4980235323127371,-0.4781491755480563,0.512885666568289,0.0,0.0,0.0,16,2.0804258835401377e-22,0,1735643777088270664,map,0.9794756049699712,0.0551088606413429,0.0218373706202824,-0.4924053303161135,0.4929334547513788,-0.495316216436343,0.5188597552309637,0.0,0.0,0.0,17,1.3820166672875658e-26,0,1735643777088284730,map,1.000777953122581,-0.2642971494202421,0.229652479910353,-0.499679685057161,0.4950432859303845,-0.4809212052403048,0.5234187155104766,0.0,0.0,0.0,121,2.2064975011041784e-17,0,1735643777088297367,map,0.9969182530570851,0.2011395823527261,0.2341662962663768,0.5048388439972311,-0.5011265565648401,0.494362355340657,-0.4996156297785762,0.0,0.0,0.0,122,1.9092590619607108e-08,0,1735643777088310956,map,0.9954210222106245,0.2001368591747317,0.1365096488716054,-0.4873716362234392,0.5108667769345219,-0.480709043946651,0.520002730278715,0.0,0.0,0.0,124,1.1255774449699194e-14,0,1735643777088322877,map,0.990416768580224,-0.031975719189251,0.2355869992003694,-0.5439175046084861,0.5043384307111725,-0.445605143547903,0.5012310360820876,0.0,0.0,0.0,125,9.616135145107396e-12,0,1735643777088343858,map,0.99568606495897,-0.0280202965091914,0.1367890615827685,0.5080327386802008,-0.5011720210881432,0.4940113165634883,-0.4966710791003734,0.0,0.0,0.0,126,4.3078888013659396e-18,0,1735644242188269615,map,0.964281748760227,0.3291544738250593,0.0248945508955818,-0.5046663639001067,0.501589832050669,-0.4835485222706704,0.50980420569183,0.0,0.0,0.0,0,6.688749091014062e-23,0.9092996321543106,0.4658396136161349,0.4661252169585606,1.0,1.0731431770738896e-05,-0.0001553576877583,-0.0001280179910845,0.0,0.0,0.0,-0.0001553576877583,0.0125405944682888,-0.0003256912824565,0.0,0.0,0.0,-0.0001280179910845,-0.0003256912824565,0.0019885118978233,0.0,0.0,0.0,0.0,0.0,0.0,0.0,0.0,0.0,0.0,0.0,0.0,0.0,0.0,0.0,0.0,0.0,0.0,0.0,0.0,0.0,0,0,0,1,17,,122
1.70035107,0,1735643777088230371,map,0.9707763849208354,-0.2197203745456796,0.0210493689515038,-0.4951308312845048,0.4993022803733163,-0.494101463608505,0.5112792156791186,0.0,0.0,0.0,1,4.191079938780822e-26,0,1735643777088253974,map,0.9768558553330564,-0.2496875383567001,0.1449539625666058,-0.5029806675397142,0.4934120881405154,-0.4860733733340706,0.516998679972935,0.0,0.0,0.0,16,2.4702601280796254e-19,0,1735643777088270664,map,0.9794756049699712,0.0551088606413429,0.0218373706202824,-0.4924053303161135,0.4929334547513788,-0.495316216436343,0.5188597552309637,0.0,0.0,0.0,17,1.0323737494893168e-19,0,1735643777088284730,map,1.003113422022669,-0.2657921269220166,0.2288951989620978,-0.50500191785569,0.5140155004775662,-0.4665654664826704,0.5129110972836135,0.0,0.0,0.0,121,5.481446133818524e-16,0,1735643777088297367,map,0.994672644468272,0.2005149813281768,0.2343902928274807,-0.4881020974021612,0.4798657244282113,-0.5090762558966612,0.521849206871905,0.0,0.0,0.0,122,2.0035042780364165e-06,0,1735643777088310956,map,0.9909567228761336,0.1988196938950963,0.1376908796044328,-0.4814382780476818,0.5077594547371157,-0.4898906168206746,0.52000452315976,0.0,0.0,0.0,124,1.2090441148249198e-10,0,1735643777088322877,map,0.99893664726944,-0.033355036825464,0.2340382009041609,0.5410517984955568,-0.5180674179620198,0.4459607601674954,-0.4898858052462013,0.0,0.0,0.0,125,4.009254317427491e-10,0,1735643777088343858,map,1.000940273175038,-0.0289783998252734,0.1349096806124523,0.512097236469742,-0.5080357429898088,0.4873688175527025,-0.4920647720799843,0.0,0.0,0.0,126,1.5316146314008246e-14,0,1735644242188269615,map,0.964281748760227,0.3291544738250593,0.0248945508955818,-0.5046663639001067,0.501589832050669,-0.4835485222706704,0.50980420569183,0.0,0.0,0.0,0,7.641362149866861e-16,0.9097890347081568,0.4676180020186171,0.4584103812805991,1.0,1.4206993731899796e-05,-0.0001319307920647,-0.0001850921052848,0.0,0.0,0.0,-0.0001319307920647,0.0118976600858775,-0.0005408368853646,0.0,0.0,0.0,-0.0001850921052848,-0.0005408368853646,0.002889856736756,0.0,0.0,0.0,0.0,0.0,0.0,0.0,0.0,0.0,0.0,0.0,0.0,0.0,0.0,0.0,0.0,0.0,0.0,0.0,0.0,0.0,0,0,0,1,18,,122
1.800191877,0,1735643777088230371,map,0.9707763849208354,-0.2197203745456796,0.0210493689515038,-0.4951308312845048,0.4993022803733163,-0.494101463608505,0.5112792156791186,0.0,0.0,0.0,1,1.6221293253207208e-27,0,1735643777088253974,map,0.9679345157970812,-0.2474291647754928,0.1476039218648726,-0.5042004808158154,0.4906215185750548,-0.482440914782445,0.521845920171927,0.0,0.0,0.0,16,4.011230465464632e-20,0,1735643777088270664,map,0.9794756049699712,0.0551088606413429,0.0218373706202824,-0.4924053303161135,0.4929334547513788,-0.495316216436343,0.5188597552309637,0.0,0.0,0.0,17,9.215092523047632e-21,0,1735643777088284730,map,0.9993166814407586,-0.2672631885297462,0.2292000745356999,-0.4948719209168522,0.498710240166122,-0.48996875982245,0.5160624890839905,0.0,0.0,0.0,121,7.299079444603849e-17,0,1735643777088297367,map,0.9931599145666274,0.198092898384586,0.2345336689071016,0.5064805605285905,-0.5024999946402237,0.4930449229418049,-0.4978733786361041,0.0,0.0,0.0,122,9.26068537410174e-07,0,1735643777088310956,map,0.990240492875672,0.19686175586116,0.1375392920450332,-0.4831322104444039,0.5164196382385602,-0.4889850215200557,0.5106737443825458,0.0,0.0,0.0,124,3.205728738020497e-11,0,1735643777088322877,map,0.9928290357798256,-0.0353769013884031,0.2345641019084768,-0.5188511239104799,0.5019526034556799,-0.4736013020395425,0.5045184850997502,0.0,0.0,0.0,125,1.1821522927224493e-10,0,1735643777088343858,map,0.9935936772107632,-0.0308420631145912,0.1364031067981998,0.4951455755512541,-0.4988316401042235,0.5096482466762775,-0.4962423989369952,0.0,0.0,0.0,126,3.0782377972424007e-15,0,1735644242188269615,map,0.964281748760227,0.3291544738250593,0.0248945508955818,-0.5046663639001067,0.501589832050669,-0.4835485222706704,0.50980420569183,0.0,0.0,0.0,0,1.1446673547274566e-16,0.9097960970077824,0.4683649619854071,0.4581463343483916,1.0,1.3460154989062535e-05,-0.0001248921115749,-0.0001753839815469,0.0,0.0,0.0,-0.0001248921115749,0.0112815105352344,-0.0005159219709137,0.0,0.0,0.0,-0.0001753839815469,-0.0005159219709137,0.0027390139878522,0.0,0.0,0.0,0.0,0.0,0.0,0.0,0.0,0.0,0.0,0.0,0.0,0.0,0.0,0.0,0.0,0.0,0.0,0.0,0.0,0.0,0,0,0,1,19,,122
1.899615887,0,1735643777088230371,map,0.9707763849208354,-0.2197203745456796,0.0210493689515038,-0.4951308312845048,0.4993022803733163,-0.494101463608505,0.5112792156791186,0.0,0.0,0.0,1,6.406371839145274e-29,0,1735643777088253974,map,0.9735694257469872,-0.2512192935348964,0.1461300741129266,-0.5017484078572364,0.4918845725016926,-0.4915496819520765,0.5144676984227177,0.0,0.0,0.0,16,2.779051804468628e-21,0,1735643777088270664,map,0.9794756049699712,0.0551088606413429,0.0218373706202824,-0.4924053303161135,0.4929334547513788,-0.495316216436343,0.5188597552309637,0.0,0.0,0.0,17,8.111366711102213e-22,0,1735643777088284730,map,0.996814817845776,-0.2666947291444232,0.2302557429591441,-0.4965932269572579,0.4993475518998856,-0.486321354099485,0.5172414618904908,0.0,0.0,0.0,121,1.8608885371619682e-17,0,1735643777088297367,map,0.988869685098683,0.1968966040884173,0.2360691962869216,-0.4994205978370857,0.522604059398928,-0.5032192014908022,0.473534052425767,0.0,0.0,0.0,122,4.994754476683738e-07,0,1735643777088310956,map,0.9908234648175313,0.1964700499742528,0.1376964388902558,-0.4856782757072131,0.5073980912912026,-0.4825193660694314,0.523296140658487,0.0,0.0,0.0,124,8.900056039373716e-12,0,1735643777088322877,map,0.9891390732608508,-0.0353808321494493,0.2359163992052438,-0.531288263496859,0.5018395069125146,-0.4613704838256047,0.5030180583506164,0.0,0.0,0.0,125,4.6595886871170216e-11,0,1735643777088343858,map,0.9893934000271756,-0.0306260345508276,0.1384467374440648,0.4946473978971235,-0.5040877481012953,0.5099063622373512,-0.4911364328958307,0.0,0.0,0.0,126,7.393284728461798e-16,0,1735644242188269615,map,0.964281748760227,0.3291544738250593,0.0248945508955818,-0.5046663639001067,0.501589832050669,-0.4835485222706704,0.50980420569183,0.0,0.0,0.0,0,2.087730247009325e-17,0.909739449159121,0.4633562168712903,0.4600562241513398,1.0,1.284811783601053e-05,-0.0001132565479272,-0.0001686704142914,0.0,0.0,0.0,-0.0001132565479272,0.0111940980332183,-0.0006718827455294,0.0,0.0,0.0,-0.0001686704142914,-0.0006718827455294,0.0026713691905883,0.0,0.0,0.0,0.0,0.0,0.0,0.0,0.0,0.0,0.0,0.0,0.0,0.0,0.0,0.0,0.0,0.0,0.0,0.0,0.0,0.0,0,0,0,1,20,,122
1.999785036,0,1735643777088230371,map,0.9707763849208354,-0.2197203745456796,0.0210493689515038,-0.4951308312845048,0.4993022803733163,-0.494101463608505,0.5112792156791186,0.0,0.0,0.0,1,3.8444905736298454e-30,0,1735643777088253974,map,0.9779507307747092,-0.2551534695314466,0.1447166286043051,-0.4987319267539426,0.5008938937651295,-0.4931006433631584,0.507172089078201,0.0,0.0,0.0,16,1.4813034440735665e-22,0,1735643777088270664,map,0.9794756049699712,0.0551088606413429,0.0218373706202824,-0.4924053303161135,0.4929334547513788,-0.495316216436343,0.5188597552309637,0.0,0.0,0.0,17,2.472946914106774e-22,0,1735643777088284730,map,0.99797859059412,-0.2690201081326553,0.2299220694677259,-0.4953037233646971,0.5062894642870375,-0.4877974688592179,0.5102928858484628,0.0,0.0,0.0,121,2.333967026115335e-18,0,1735643777088297367,map,0.9839550830438348,0.1946435148560042,0.2368492280682934,-0.4816009242807036,0.4903572952055929,-0.5215249704064661,0.505590721842442,0.0,0.0,0.0,122,2.9109682486705424e-07,0,1735643777088310956,map,0.9886140136203416,0.1948829323438404,0.1382015958045262,-0.4841344590711232,0.5031152112205162,-0.4858267689903509,0.5257958351973155,0.0,0.0,0.0,124,5.168900030216861e-12,0,1735643777088322877,map,0.9910924519751458,-0.0368692631731026,0.235449831751717,0.5098222630359969,-0.5044099574380108,0.4859652837879835,-0.4994893371265336,0.0,0.0,0.0,125,1.20286940130665e-11,0,1735643777088343858,map,0.9898545681242592,-0.0321837372792139,0.1381492831654392,0.4954535394466988,-0.4963182324554846,0.510006016948497,-0.4980841947485703,0.0,0.0,0.0,126,1.3881951504145804e-16,0,1735644242188269615,map,0.964281748760227,0.3291544738250593,0.0248945508955818,-0.5046663639001067,0.501589832050669,-0.4835485222706704,0.50980420569183,0.0,0.0,0.0,0,3.3554651031385016e-17,0.9095551792318703,0.4563280366349186,0.4643073014293186,1.0,1.2915410822740577e-05,-8.196173376112484e-05,-0.0001763054038163,0.0,0.0,0.0,-8.196173376112484e-05,0.0116489520946207,-0.0012374350752432,0.0,0.0,0.0,-0.0001763054038163,-0.0012374350752432,0.0029055942943605,0.0,0.0,0.0,0.0,0.0,0.0,0.0,0.0,0.0,0.0,0.0,0.0,0.0,0.0,0.0,0.0,0.0,0.0,0.0,0.0,0.0,0,0,0,1,21,,122
2.100076537,0,1735643777088230371,map,0.9707763849208354,-0.2197203745456796,0.0210493689515038,-0.4951308312845048,0.4993022803733163,-0.494101463608505,0.5112792156791186,0.0,0.0,0.0,1,7.098257958694637e-29,0,1735643777088253974,map,0.9748845401256128,-0.2526942875914031,0.1464128586748723,-0.5030145309431003,0.498634800594532,-0.4900124847722278,0.5081608820673733,0.0,0.0,0.0,16,3.365138248056662e-22,0,1735643777088270664,map,0.9794756049699712,0.0551088606413429,0.0218373706202824,-0.4924053303161135,0.4929334547513788,-0.495316216436343,0.5188597552309637,0.0,0.0,0.0,17,1.8939660448768303e-20,0,1735643777088284730,map,1.001130257810495,-0.2712474202392973,0.2294255168723606,-0.4944701840720475,0.5093437647644948,-0.4846187382984707,0.5110898598576229,0.0,0.0,0.0,121,9.028964865254925e-19,0,1735643777088297367,map,0.989438224120878,0.1966797739162715,0.2356842127634402,-0.4998644280324533,0.4783868475198545,-0.4925242573613332,0.5279218063486968,0.0,0.0,0.0,122,6.46063483600301e-07,0,1735643777088310956,map,0.98574988116161,0.1951367358387216,0.1392601855972631,-0.4768799969720037,0.5008442037411734,-0.4919426432363619,0.5288978992513329,0.0,0.0,0.0,124,6.347010417240284e-11,0,1735643777088322877,map,0.9911558721091276,-0.036830807286756,0.2354949447484312,-0.5082143238576655,0.5166663344907132,-0.4825744484202959,0.4918292402467277,0.0,0.0,0.0,125,1.4337739329128851e-11,0,1735643777088343858,map,0.9952336951402424,-0.0330746076331346,0.1357966216067386,0.4944578844811956,-0.4976806134597439,0.5113260219695186,-0.4963578413982605,0.0,0.0,0.0,126,4.296339838002371e-16,0,1735644242188269615,map,0.964281748760227,0.3291544738250593,0.0248945508955818,-0.5046663639001067,0.501589832050669,-0.4835485222706704,0.50980420569183,0.0,0.0,0.0,0,7.116060162187885e-15,0.9091765971343154,0.4519863284513839,0.4709031750028702,1.0,1.5338159190806886e-05,-4.3718647595363054e-05,-0.000220730194531,0.0,0.0,0.0,-4.3718647595363054e-05,0.0115153133011084,-0.0017825725500773,0.0,0.0,0.0,-0.000220730194531,-0.0017825725500773,0.0036871383385989,0.0,0.0,0.0,0.0,0.0,0.0,0.0,0.0,0.0,0.0,0.0,0.0,0.0,0.0,0.0,0.0,0.0,0.0,0.0,0.0,0.0,0,0,0,1,22,,122
2.199874464,0,1735643777088230371,map,0.9707763849208354,-0.2197203745456796,0.0210493689515038,-0.4951308312845048,0.4993022803733163,-0.494101463608505,0.5112792156791186,0.0,0.0,0.0,1,5.912484934805482e-30,0,1735643777088253974,map,0.9739394695263032,-0.2548516389186223,0.1442903093154855,-0.4971483235490329,0.496142452658734,-0.5005645291589992,0.5060843439684645,0.0,0.0,0.0,16,2.472934576322217e-23,0,1735643777088270664,map,0.9794756049699712,0.0551088606413429,0.0218373706202824,-0.4924053303161135,0.4929334547513788,-0.495316216436343,0.5188597552309637,0.0,0.0,0.0,17,4.887445924677148e-21,0,1735643777088284730,map,0.9970565989417612,-0.2717142045821802,0.2276425538222676,-0.4925658772505997,0.50816034199322,-0.4898185506646608,0.5091460603976544,0.0,0.0,0.0,121,1.1068886347605372e-19,0,1735643777088297367,map,0.9880175382637308,0.1953476109659742,0.2335079276672803,-0.487454878974126,0.4774381958420854,-0.5064062234058236,0.5272506491330529,0.0,0.0,0.0,122,3.009334932357888e-07,0,1735643777088310956,map,0.983532731911802,0.1937684570722576,0.1372560789353094,-0.475258297716194,0.5013728889009271,-0.4903020116211317,0.5313743634456934,0.0,0.0,0.0,124,2.409014827897682e-11,0,1735643777088322877,map,0.9931409546813208,-0.0393722357290505,0.2326419652242329,0.5185050220580799,-0.5138840571049614,0.4737460193439581,-0.492585451581397,0.0,0.0,0.0,125,3.054266908830705e-12,0,1735643777088343858,map,0.9867367077317114,-0.0330852091235532,0.1361336909658648,-0.4908543348008372,0.4893172638000314,-0.5181563528687174,0.5011433241461642,0.0,0.0,0.0,126,1.2118285971152499e-16,0,1735644242188269615,map,0.964281748760227,0.3291544738250593,0.0248945508955818,-0.5046663639001067,0.501589832050669,-0.4835485222706704,0.50980420569183,0.0,0.0,0.0,0,4.348486733185813e-15,0.9090038101723352,0.4485181777312357,0.4742283160593125,1.0,1.5328100057317554e-05,-2.863430984462425e-05,-0.0002237731320199,0.0,0.0,0.0,-2.863430984462425e-05,0.0112792650325966,-0.001958775383415,0.0,0.0,0.0,-0.0002237731320199,-0.001958775383415,0.0037700723630463,0.0,0.0,0.0,0.0,0.0,0.0,0.0,0.0,0.0,0.0,0.0,0.0,0.0,0.0,0.0,0.0,0.0,0.0,0.0,0.0,0.0,0,0,0,1,23,,122
2.300093298,0,1735643777088230371,map,0.9707763849208354,-0.2197203745456796,0.0210493689515038,-0.4951308312845048,0.4993022803733163,-0.494101463608505,0.5112792156791186,0.0,0.0,0.0,1,1.2607998065902744e-28,0,1735643777088253974,map,0.9739394695263032,-0.2548516389186223,0.1442903093154855,-0.4971483235490329,0.496142452658734,-0.5005645291589992,0.5060843439684645,0.0,0.0,0.0,16,2.9866314261345854e-22,0,1735643777088270664,map,0.9794756049699712,0.0551088606413429,0.0218373706202824,-0.4924053303161135,0.4929334547513788,-0.495316216436343,0.5188597552309637,0.0,0.0,0.0,17,3.368980942249465e-20,0,1735643777088284730,map,0.9970565989417612,-0.2717142045821802,0.2276425538222676,-0.4925658772505997,0.50816034199322,-0.4898185506646608,0.5091460603976544,0.0,0.0,0.0,121,8.815784911763524e-19,0,1735643777088297367,map,0.9846636393701128,0.1950986551911624,0.2329874996601609,-0.4999144002303115,0.4871597809751446,-0.495991836176078,0.516481402074943,0.0,0.0,0.0,122,6.413687856365868e-07,0,1735643777088310956,map,0.9823674212874882,0.1938796697497245,0.1364649438695354,-0.4789129026156487,0.5053510569197864,-0.4931263031833672,0.5216216925004307,0.0,0.0,0.0,124,6.462126667106105e-11,0,1735643777088322877,map,0.9879610306135956,-0.0379032523297716,0.2324707730572135,0.5190724547581935,-0.5106398126679839,0.4750847494086272,-0.4940700854221502,0.0,0.0,0.0,125,1.357315735500686e-11,0,1735643777088343858,map,0.9924937618827044,-0.0342602447164153,0.1322392205839552,0.4944604554467122,-0.5025301662223468,0.5109616591452077,-0.4918236197251475,0.0,0.0,0.0,126,3.9937526700679416e-16,0,1735644242188269615,map,0.964281748760227,0.3291544738250593,0.0248945508955818,-0.5046663639001067,0.501589832050669,-0.4835485222706704,0.50980420569183,0.0,0.0,0.0,0,1.0573306451569248e-14,0.9091918266300524,0.4445482650582158,0.4722496598529559,1.0,1.5502483554162777e-05,-4.4608618720325086e-05,-0.0002230057099312,0.0,0.0,0.0,-4.4608618720325086e-05,0.0111717804087607,-0.0016964926184086,0.0,0.0,0.0,-0.0002230057099312,-0.0016964926184086,0.003703032863394,0.0,0.0,0.0,0.0,0.0,0.0,0.0,0.0,0.0,0.0,0.0,0.0,0.0,0.0,0.0,0.0,0.0,0.0,0.0,0.0,0.0,0,0,0,1,24,,122
2.399541893,0,1735643777088230371,map,0.9707763849208354,-0.2197203745456796,0.0210493689515038,-0.4951308312845048,0.4993022803733163,-0.494101463608505,0.5112792156791186,0.0,0.0,0.0,1,4.659851096931982e-22,0,1735643777088253974,map,0.9739394695263032,-0.2548516389186223,0.1442903093154855,-0.4971483235490329,0.496142452658734,-0.5005645291589992,0.5060843439684645,0.0,0.0,0.0,16,2.240438045126209e-17,0,1735643777088270664,map,0.9794756049699712,0.0551088606413429,0.0218373706202824,-0.4924053303161135,0.4929334547513788,-0.495316216436343,0.5188597552309637,0.0,0.0,0.0,17,1.3877405584197008e-15,0,1735643777088284730,map,0.9970565989417612,-0.2717142045821802,0.2276425538222676,-0.4925658772505997,0.50816034199322,-0.4898185506646608,0.5091460603976544,0.0,0.0,0.0,121,5.985128029035308e-15,0,1735643777088297367,map,0.9886485490484492,0.195344941026306,0.2313959054293525,-0.5002207569946218,0.4866542842557816,-0.4956704863254978,0.5169696034324114,0.0,0.0,0.0,122,2.1475869289133694e-05,0,1735643777088310956,map,0.9833541653269996,0.1935914125942584,0.1351539579742757,-0.4867629110994615,0.505041305784913,-0.4822347781999311,0.5248283209998392,0.0,0.0,0.0,124,1.6206112007921547e-08,0,1735643777088322877,map,0.9893140055607536,-0.0390657832771965,0.2313494324998818,0.5216416480801206,-0.5071679876288852,0.4709685885059094,-0.4988579075783745,0.0,0.0,0.0,125,4.387247898307578e-09,0,1735643777088343858,map,0.9919925013156552,-0.0351124799648529,0.131421042380066,-0.5037416881361494,0.507046946138628,-0.4969372004285969,0.4921393348183235,0.0,0.0,0.0,126,1.872796188961967e-12,0,1735644242188269615,map,0.964281748760227,0.3291544738250593,0.0248945508955818,-0.5046663639001067,0.501589832050669,-0.4835485222706704,0.50980420569183,0.0,0.0,0.0,0,8.348586578998951e-12,0.9096129320239372,0.438563392054951,0.4672025952051135,1.0,1.9138298278209917e-05,-0.0001033105692528,-0.0002650937890497,0.0,0.0,0.0,-0.0001033105692528,0.0115845581091753,-0.0009036879307138,0.0,0.0,0.0,-0.0002650937890497,-0.0009036879307138,0.0041662602262862,0.0,0.0,0.0,0.0,0.0,0.0,0.0,0.0,0.0,0.0,0.0,0.0,0.0,0.0,0.0,0.0,0.0,0.0,0.0,0.0,0.0,0,0,0,1,25,,122
