%time,field.boxes0.header.seq,field.boxes0.header.stamp,field.boxes0.header.frame_id,field.boxes0.pose.position.x,field.boxes0.pose.position.y,field.boxes0.pose.position.z,field.boxes0.pose.orientation.x,field.boxes0.pose.orientation.y,field.boxes0.pose.orientation.z,field.boxes0.pose.orientation.w,field.boxes0.scale.x,field.boxes0.scale.y,field.boxes0.scale.z,field.boxes0.id,field.boxes0.pdf,field.boxes1.header.seq,field.boxes1.header.stamp,field.boxes1.header.frame_id,field.boxes1.pose.position.x,field.boxes1.pose.position.y,field.boxes1.pose.position.z,field.boxes1.pose.orientation.x,field.boxes1.pose.orientation.y,field.boxes1.pose.orientation.z,field.boxes1.pose.orientation.w,field.boxes1.scale.x,field.boxes1.scale.y,field.boxes1.scale.z,field.boxes1.id,field.boxes1.pdf,field.boxes2.header.seq,field.boxes2.header.stamp,field.boxes2.header.frame_id,field.boxes2.pose.position.x,field.boxes2.pose.position.y,field.boxes2.pose.position.z,field.boxes2.pose.orientation.x,field.boxes2.pose.orientation.y,field.boxes2.pose.orientation.z,field.boxes2.pose.orientation.w,field.boxes2.scale.x,field.boxes2.scale.y,field.boxes2.scale.z,field.boxes2.id,field.boxes2.pdf,field.boxes3.header.seq,field.boxes3.header.stamp,field.boxes3.header.frame_id,field.boxes3.pose.position.x,field.boxes3.pose.position.y,field.boxes3.pose.position.z,field.boxes3.pose.orientation.x,field.boxes3.pose.orientation.y,field.boxes3.pose.orientation.z,field.boxes3.pose.orientation.w,field.boxes3.scale.x,field.boxes3.scale.y,field.boxes3.scale.z,field.boxes3.id,field.boxes3.pdf,field.boxes4.header.seq,field.boxes4.header.stamp,field.boxes4.header.frame_id,field.boxes4.pose.position.x,field.boxes4.pose.position.y,field.boxes4.pose.position.z,field.boxes4.pose.orientation.x,field.boxes4.pose.orientation.y,field.boxes4.pose.orientation.z,field.boxes4.pose.orientation.w,field.boxes4.scale.x,field.boxes4.scale.y,field.boxes4.scale.z,field.boxes4.id,field.boxes4.pdf,field.boxes5.header.seq,field.boxes5.header.stamp,field.boxes5.header.frame_id,field.boxes5.pose.position.x,field.boxes5.pose.position.y,field.boxes5.pose.position.z,field.boxes5.pose.orientation.x,field.boxes5.pose.orientation.y,field.boxes5.pose.orientation.z,field.boxes5.pose.orientation.w,field.boxes5.scale.x,field.boxes5.scale.y,field.boxes5.scale.z,field.boxes5.id,field.boxes5.pdf,field.boxes6.header.seq,field.boxes6.header.stamp,field.boxes6.header.frame_id,field.boxes6.pose.position.x,field.boxes6.pose.position.y,field.boxes6.pose.position.z,field.boxes6.pose.orientation.x,field.boxes6.pose.orientation.y,field.boxes6.pose.orientation.z,field.boxes6.pose.orientation.w,field.boxes6.scale.x,field.boxes6.scale.y,field.boxes6.scale.z,field.boxes6.id,field.boxes6.pdf,field.boxes7.header.seq,field.boxes7.header.stamp,field.boxes7.header.frame_id,field.boxes7.pose.position.x,field.boxes7.pose.position.y,field.boxes7.pose.position.z,field.boxes7.pose.orientation.x,field.boxes7.pose.orientation.y,field.boxes7.pose.orientation.z,field.boxes7.pose.orientation.w,field.boxes7.scale.x,field.boxes7.scale.y,field.boxes7.scale.z,field.boxes7.id,field.boxes7.pdf,field.boxes8.header.seq,field.boxes8.header.stamp,field.boxes8.header.frame_id,field.boxes8.pose.position.x,field.boxes8.pose.position.y,field.boxes8.pose.position.z,field.boxes8.pose.orientation.x,field.boxes8.pose.orientation.y,field.boxes8.pose.orientation.z,field.boxes8.pose.orientation.w,field.boxes8.scale.x,field.boxes8.scale.y,field.boxes8.scale.z,field.boxes8.id,field.boxes8.pdf,field.pose.pose.position.x,field.pose.pose.position.y,field.pose.pose.position.z,field.pose.pose.orientation.w,field.pose.covariance0,field.pose.covariance1,field.pose.covariance2,field.pose.covariance3,field.pose.covariance4,field.pose.covariance5,field.pose.covariance6,field.pose.covariance7,field.pose.covariance8,field.pose.covariance9,field.pose.covariance10,field.pose.covariance11,field.pose.covariance12,field.pose.covariance13,field.pose.covariance14,field.pose.covariance15,field.pose.covariance16,field.pose.covariance17,field.pose.covariance18,field.pose.covariance19,field.pose.covariance20,field.pose.covariance21,field.pose.covariance22,field.pose.covariance23,field.pose.covariance24,field.pose.covariance25,field.pose.covariance26,field.pose.covariance27,field.pose.covariance28,field.pose.covariance29,field.pose.covariance30,field.pose.covariance31,field.pose.covariance32,field.pose.covariance33,field.pose.covariance34,field.pose.covariance35,field.buttons0,field.buttons1,field.buttons2,field.buttons3,intersection_length,vacuum,desired_box
0.0,0,1735643777088230371,map,0.9801853391359232,-0.2216620427574758,0.0217904991030644,-0.4997434231214427,0.5056631515923892,-0.4959324604727689,0.4986103516955306,0.0,0.0,0.0,1,0.1111111111111111,0,1735643777088253974,map,0.9869852512230544,-0.2515968691621221,0.1473217865708466,-0.504034410943053,0.5112604128288567,-0.4940981874701068,0.4903356850139623,0.0,0.0,0.0,16,0.1111111111111111,0,1735643777088270664,map,1.0014674355769282,0.0567956630920643,0.0203828460806425,-0.5136951654521242,0.4973434954890663,-0.4764968878834208,0.5115832682205769,0.0,0.0,0.0,17,0.1111111111111111,0,1735643777088284730,map,1.0132938645597065,-0.2592903539164731,0.2356308086125837,-0.4845473102669366,0.4834694619704049,-0.5020172266886929,0.5286301992536164,0.0,0.0,0.0,121,0.1111111111111111,0,1735643777088297367,map,1.0245976782158792,0.2115783776929468,0.2403086257154149,0.5126430814238145,-0.4988436980439003,0.4961863894888154,-0.4920885112215443,0.0,0.0,0.0,122,0.1111111111111111,0,1735643777088310956,map,1.0130758862851312,0.2060839001490979,0.1419220416797429,-0.500391354728669,0.5038440374380897,-0.4624891891633778,0.5308986983953659,0.0,0.0,0.0,124,0.1111111111111111,0,1735643777088322877,map,1.0126167415174825,-0.0274711709217178,0.2407165726027038,-0.5077548235998138,0.5120432347294708,-0.4916034980493444,0.4881831270994013,0.0,0.0,0.0,125,0.1111111111111111,0,1735643777088343858,map,1.0133333949824508,-0.0224166032346373,0.1427672830732114,-0.5413372575970566,0.4855976330285738,-0.4594344314295611,0.5099695241397671,0.0,0.0,0.0,126,0.1111111111111111,0,1735644242188269615,map,0.9675315429493374,0.3246070530742785,0.0277316083900446,-0.4901440746318485,0.4911897744940647,-0.4916575444233826,0.5260838816646338,0.0,0.0,0.0,0,0.1111111111111111,0.9482198706335012,-0.9476883357255714,0.1818219007633857,1.0,0.0,0.0,0.0,0.0,0.0,0.0,0.0,0.0,0.0,0.0,0.0,0.0,0.0,0.0,0.0,0.0,0.0,0.0,0.0,0.0,0.0,0.0,0.0,0.0,0.0,0.0,0.0,0.0,0.0,0.0,0.0,0.0,0.0,0.0,0.0,0.0,0,0,0,1,1,,121
0.102611039,0,1735643777088230371,map,0.9837046852321636,-0.2222328304324672,0.0207050035016477,-0.4796573844689688,0.4966761806662171,-0.5181073518642182,0.5047834555801668,0.0,0.0,0.0,1,,0,1735643777088253974,map,0.9817186877853376,-0.2507995120404034,0.1487188438212671,-0.38845528108317,0.7152172892574545,-0.5077339668908876,0.2824410427169837,0.0,0.0,0.0,16,,0,1735643777088270664,map,0.9810951008902224,0.0517126874283197,0.0274494498459263,-0.4849420199956644,0.5066286673279699,-0.5076318277548033,0.5004683387931026,0.0,0.0,0.0,17,,0,1735643777088284730,map,1.0109653518324688,-0.2588893920735313,0.2359836778895965,-0.3645939197730541,0.665175945638691,-0.5580390853809855,0.3364589338914129,0.0,0.0,0.0,121,,0,1735643777088297367,map,1.0217298669285348,0.209314131581649,0.240658595238462,0.5292141407447527,-0.493537725993722,0.4847855784960722,-0.4912594519589088,0.0,0.0,0.0,122,,0,1735643777088310956,map,1.0121746859969258,0.2049234537208151,0.1423683386087937,-0.4905440526672182,0.504511320333856,-0.4766963310298428,0.5268732940949823,0.0,0.0,0.0,124,,0,1735643777088322877,map,1.014547650664301,-0.0283859083175087,0.2409630638958333,-0.4990080261377238,0.5106118339673711,-0.4998504516678998,0.4903224151820991,0.0,0.0,0.0,125,,0,1735643777088343858,map,1.0097006045998875,-0.023648589494192,0.142979007843676,0.502267962709336,-0.5005372973984015,0.5053662787109043,-0.4917257689920368,0.0,0.0,0.0,126,,0,1735644242188269615,map,0.9711260305888214,0.3267974710428,0.0269856654738167,0.8604137739340411,-0.2353662147146706,0.1121895206009475,-0.4378406034880708,0.0,0.0,0.0,0,,0.9435794615573811,-0.884139707319118,0.2379471037499875,1.0,2.153339639373801e-05,-0.0002948916320322,-0.0002604439013381,0.0,0.0,0.0,-0.0002948916320322,0.0040384281723414,0.0035666796688323,0.0,0.0,0.0,-0.0002604439013381,0.0035666796688323,0.0031500384102872,0.0,0.0,0.0,0.0,0.0,0.0,0.0,0.0,0.0,0.0,0.0,0.0,0.0,0.0,0.0,0.0,0.0,0.0,0.0,0.0,0.0,0,0,0,1,2,,121
0.202573995,0,1735643777088230371,map,0.981931657775602,-0.2224586377210181,0.0225167886092524,-0.4813033631815726,0.764143722027979,-0.3539655100314315,0.2431868877705425,0.0,0.0,0.0,1,,0,1735643777088253974,map,0.9887797734656112,-0.2531197794441898,0.1479551617299908,-0.5025899813723909,0.4971434919516351,-0.4940376897128178,0.5061407118356082,0.0,0.0,0.0,16,,0,1735643777088270664,map,0.9818519809259738,0.0524495482322619,0.0277031857383401,-0.4739660133033634,0.502778701891337,-0.5141187121443246,0.5081847547701912,0.0,0.0,0.0,17,,0,1735643777088284730,map,1.006591339220377,-0.2580811773548865,0.2364267920898826,-0.5266462457749429,0.5094583843884478,-0.4550304673916622,0.5060070751805719,0.0,0.0,0.0,121,,0,1735643777088297367,map,1.0153258529075526,0.2073418927320118,0.241111883701042,-0.4852385476017403,0.4894957550997968,-0.5144078032770503,0.5102176688319537,0.0,0.0,0.0,122,,0,1735643777088310956,map,1.0151125390845703,0.2068539173769569,0.1426255505195045,-0.4967280045639519,0.510111731996796,-0.4690183728535791,0.5225601173902622,0.0,0.0,0.0,124,,0,1735643777088322877,map,1.001883090440896,-0.0283214693214065,0.2416818490644722,0.4432666441134825,-0.5256820723107629,0.550163743640881,-0.4738068132166149,0.0,0.0,0.0,125,,0,1735643777088343858,map,1.009147916321386,-0.0229874855629427,0.1446189937402645,0.6363368428908683,-0.504980087217899,0.3643695562366609,-0.455307984095364,0.0,0.0,0.0,126,,0,1735644242188269615,map,0.9763663345015148,0.3294743883715768,0.0260238277672261,-0.4854365719614304,0.4954197996625581,-0.4950800622555844,0.5232650271723236,0.0,0.0,0.0,0,,0.9410933864829356,-0.8813336782178277,0.2746302168162143,1.0,2.671673614738465e-05,-0.0002105464193686,-0.0003560232136527,0.0,0.0,0.0,-0.0002105464193686,0.0027080330468622,0.0025836542114677,0.0,0.0,0.0,-0.0003560232136527,0.0025836542114677,0.0047913271753173,0.0,0.0,0.0,0.0,0.0,0.0,0.0,0.0,0.0,0.0,0.0,0.0,0.0,0.0,0.0,0.0,0.0,0.0,0.0,0.0,0.0,0,0,0,1,3,,121
0.30069225,0,1735643777088230371,map,0.9875065692726774,-0.2252053486212349,0.0203442353087548,-0.5007590778873429,0.5064613126346877,-0.4920698757297823,0.5006041571112292,0.0,0.0,0.0,1,0.0,0,1735643777088253974,map,0.9816439275521324,-0.2520787962130726,0.1492721781421728,-0.5308477483543231,0.5046715180016607,-0.458695551566228,0.5030961319254988,0.0,0.0,0.0,16,0.0,0,1735643777088270664,map,0.9895551925578904,0.0531639754252138,0.0254437036746092,-0.4952875512549592,0.5023962898975267,-0.4974890897626433,0.5047700615490223,0.0,0.0,0.0,17,0.0,0,1735643777088284730,map,1.0097965797868944,-0.2595533472059553,0.2367008750904728,-0.5028371599755481,0.4891197988001357,-0.4779564213027288,0.5286532628338998,0.0,0.0,0.0,121,1.0,0,1735643777088297367,map,1.0190789891930627,0.208554285110895,0.2414013385773814,-0.506876300169592,0.4970573793338536,-0.4926213658140214,0.503323522120391,0.0,0.0,0.0,122,0.0,0,1735643777088310956,map,1.010527228762696,0.2044967479333831,0.1435159680723432,-0.4853868243182955,0.5095969037002658,-0.4843144870762084,0.5197596599635375,0.0,0.0,0.0,124,0.0,0,1735643777088322877,map,1.0017349110768532,-0.0292459704527958,0.2419181050943182,0.4727886125536694,-0.5105529970543334,0.5271623619081607,-0.4877565060825159,0.0,0.0,0.0,125,0.0,0,1735643777088343858,map,1.0057607615057569,-0.0240770046943885,0.1447193662878776,-0.510712803167192,0.467480902335544,-0.4873772701121093,0.5320690135788053,0.0,0.0,0.0,126,0.0,0,1735644242188269615,map,0.970452652460962,0.325109003934332,0.0280153911396619,-0.482998191094168,0.5028782870371125,-0.4897236580647726,0.5234471459068615,0.0,0.0,0.0,0,0.0,0.9359300924876544,-0.8837349928260368,0.3525591828854845,1.0,0.0001000163667556,-0.0001207137346344,-0.0014741278979313,0.0,0.0,0.0,-0.0001207137346344,0.0020483237206894,0.0013763447647264,0.0,0.0,0.0,-0.0014741278979313,0.0013763447647264,0.0218122666393643,0.0,0.0,0.0,0.0,0.0,0.0,0.0,0.0,0.0,0.0,0.0,0.0,0.0,0.0,0.0,0.0,0.0,0.0,0.0,0.0,0.0,0,0,0,1,4,,121
0.400574463,0,1735643777088230371,map,0.9912181368513504,-0.2257394533877636,0.0203706354937568,-0.4830950254597657,0.5185208572206491,-0.5050205360109551,0.4926556355207954,0.0,0.0,0.0,1,,0,1735643777088253974,map,0.9894366281118996,-0.2545072565771434,0.1496503664161213,0.5259160830487749,-0.5145815198638012,0.4603266470350616,-0.4967066649791928,0.0,0.0,0.0,16,,0,1735643777088270664,map,0.9906474500783492,0.0536420925568074,0.0264213933997862,-0.4871682832723146,0.5053151838585975,-0.5048577746276696,0.5024363204759927,0.0,0.0,0.0,17,,0,1735643777088284730,map,1.0121530870028517,-0.2599809378034793,0.2381829137928253,0.3423709649455965,-0.604439492127387,0.623571688364833,-0.3585991804073721,0.0,0.0,0.0,121,,0,1735643777088297367,map,1.0049612071228775,0.2032245684900797,0.2430878783846745,-0.4955528319975905,0.511437463206523,-0.5054055022985745,0.4872621370211007,0.0,0.0,0.0,122,,0,1735643777088310956,map,1.008106624103399,0.204172079594408,0.1451375804068331,-0.4826067774947885,0.5066369235207759,-0.4947426428270995,0.5154022151775794,0.0,0.0,0.0,124,,0,1735643777088322877,map,1.0192571544806652,-0.027261472873165,0.2433952530444835,-0.5018093354394897,0.5286552711805361,-0.4917396516798571,0.4763434791036652,0.0,0.0,0.0,125,,0,1735643777088343858,map,1.0083888262810188,-0.023260561961955,0.1456099596401031,-0.4675850962099144,0.4837740548272786,-0.5384123227178049,0.5073844818517375,0.0,0.0,0.0,126,,0,1735644242188269615,map,0.9692657173098276,0.3248759105459838,0.0300725455646111,-0.4909313198902817,0.4981538513057639,-0.4910084401367613,0.5193648922429056,0.0,0.0,0.0,0,,0.9302133833182278,-0.8802781015614249,0.4375459394679385,1.0,0.0002107361483157,-0.000175619155668,-0.003122680600884,0.0,0.0,0.0,-0.000175619155668,0.0016864593654129,0.0022762357175315,0.0,0.0,0.0,-0.003122680600884,0.0022762357175315,0.0463408084891127,0.0,0.0,0.0,0.0,0.0,0.0,0.0,0.0,0.0,0.0,0.0,0.0,0.0,0.0,0.0,0.0,0.0,0.0,0.0,0.0,0.0,0,0,0,1,5,,121
0.501442885,0,1735643777088230371,map,0.9821911765899872,-0.2240509423649613,0.0238083121799435,-0.4832227128655435,0.4976019080814219,-0.5185330250894151,0.5000116526004296,0.0,0.0,0.0,1,4.547325610590947e-06,0,1735643777088253974,map,0.9811059502300936,-0.2524724336862731,0.1509094446955032,-0.50076701624134,0.4830593256829084,-0.4910347752006729,0.5241859716352049,0.0,0.0,0.0,16,0.024329928868171796,0,1735643777088270664,map,0.996759286488174,0.0552676721825092,0.0243113023143969,-0.4993716460218773,0.499681097679334,-0.4907683596157595,0.5099933107124381,0.0,0.0,0.0,17,0.0,0,1735643777088284730,map,1.0146498900358254,-0.2604558186402482,0.2379294299964828,-0.486612525779023,0.4944628951896664,-0.4991343220911147,0.5192105772673127,0.0,0.0,0.0,121,0.9756655238062176,0,1735643777088297367,map,1.019976868503467,0.2109929383380967,0.2426480219932998,0.5157911561639582,-0.5055613555639518,0.4922984157284204,-0.4858080576263366,0.0,0.0,0.0,122,0.0,0,1735643777088310956,map,1.0079581558090007,0.2046791825559782,0.1450606027733056,-0.4705309763309689,0.5037613318821873,-0.4917977395539669,0.5319399441505763,0.0,0.0,0.0,124,0.0,0,1735643777088322877,map,1.0111025524159047,-0.0275651402080901,0.2431542783867429,-0.473788667507963,0.5373382315077401,-0.523147457019877,0.4616369371213691,0.0,0.0,0.0,125,2.0574301971114806e-18,0,1735643777088343858,map,1.0039858494987577,-0.0233881002930887,0.1460044837695585,-0.4638446701063921,0.4770460722049245,-0.5494521953654071,0.5053488419061436,0.0,0.0,0.0,126,2.4877911493642877e-20,0,1735644242188269615,map,0.9732822750558732,0.3275442375301803,0.0286218994455381,-0.4885997207751324,0.4936496137383498,-0.4935551660051538,0.5234344943009255,0.0,0.0,0.0,0,0.0,0.9275840122714568,-0.8527610411963434,0.4711456875032673,1.0,0.0002101814174377,-0.0005081121054709,-0.0030439648573844,0.0,0.0,0.0,-0.0005081121054709,0.0051913258601884,0.0065196945726412,0.0,0.0,0.0,-0.0030439648573844,0.0065196945726412,0.0442620557477818,0.0,0.0,0.0,0.0,0.0,0.0,0.0,0.0,0.0,0.0,0.0,0.0,0.0,0.0,0.0,0.0,0.0,0.0,0.0,0.0,0.0,0,0,0,1,6,,121
0.60090337,0,1735643777088230371,map,0.98584427804906,-0.2249989551766087,0.0229830075365749,-0.4845408066604101,0.4972676326376097,-0.516507507357729,0.5011637487438334,0.0,0.0,0.0,1,0.0017858340626404042,0,1735643777088253974,map,0.993992919304389,-0.2554766021554236,0.1490445908303736,-0.4787440532645924,0.4918814254733895,-0.5178272639128666,0.5105993727831735,0.0,0.0,0.0,16,0.1394840228782537,0,1735643777088270664,map,1.0010129851205654,0.0565290638107752,0.0231069406624785,-0.5091318310100715,0.4912989911153302,-0.4712911438875581,0.5265878252243852,0.0,0.0,0.0,17,2.209391809785694e-12,0,1735643777088284730,map,1.016056288089528,-0.2607889858053058,0.2380743846925849,-0.4960076120553793,0.5071775234508035,-0.4968605549420344,0.4998769822987686,0.0,0.0,0.0,121,0.8587298208850462,0,1735643777088297367,map,1.010582651691634,0.2071310273323555,0.2432715952890832,0.4930099954957279,-0.5015481856323016,0.5079432338356965,-0.4973773547627433,0.0,0.0,0.0,122,6.975139928358943e-16,0,1735643777088310956,map,1.0060365992858764,0.204327492331898,0.1454627384349715,-0.4757254569102436,0.5017373008324872,-0.4930336453419403,0.5280746113587627,0.0,0.0,0.0,124,8.183337550087261e-17,0,1735643777088322877,map,1.0136049910100189,-0.0268873790846776,0.2431661148718709,-0.5026393996451688,0.5100592753402782,-0.4961366032444126,0.4909599173912174,0.0,0.0,0.0,125,2.96549540316315e-07,0,1735643777088343858,map,1.012833850581038,-0.0218832507525151,0.1445647355701749,0.5095095746796284,-0.5025244059585899,0.4915098150606153,-0.4962734290941134,0.0,0.0,0.0,126,2.5622309168915392e-08,0,1735644242188269615,map,0.9732822750558732,0.3275442375301803,0.0286218994455381,-0.4885997207751324,0.4936496137383498,-0.4935551660051538,0.5234344943009255,0.0,0.0,0.0,0,8.75392244160518e-24,0.9266972914186724,-0.8164017238451052,0.4767432773584608,1.0,0.0001848731438855,-0.0006289680511623,-0.0026388937328006,0.0,0.0,0.0,-0.0006289680511623,0.0123817076296499,0.0068094569093748,0.0,0.0,0.0,-0.0026388937328006,0.0068094569093748,0.0381269029997919,0.0,0.0,0.0,0.0,0.0,0.0,0.0,0.0,0.0,0.0,0.0,0.0,0.0,0.0,0.0,0.0,0.0,0.0,0.0,0.0,0.0,0,0,0,1,7,,121
0.700777718,0,1735643777088230371,map,0.9871926649822504,-0.2238444486568187,0.0209781338633497,-0.4845936131194209,0.5103778035624146,-0.5067818261205094,0.4978510906572685,0.0,0.0,0.0,1,0.008483287318123086,0,1735643777088253974,map,0.9923390730307212,-0.2538279307127019,0.1484201419441694,-0.503622818240778,0.5081756379390574,-0.494304635345126,0.4937453852227589,0.0,0.0,0.0,16,0.19955539154997776,0,1735643777088270664,map,0.9833958325776422,0.0533773785244532,0.0281356231738111,-0.4724495839170471,0.4958135805729976,-0.5107240943317893,0.5197318380135726,0.0,0.0,0.0,17,1.0699051578278621e-07,0,1735643777088284730,map,1.0188653158315106,-0.2597785190997238,0.236876649100441,-0.4903829371521095,0.5043927479488703,-0.5048326158105965,0.5002564949908077,0.0,0.0,0.0,121,0.7917583059267825,0,1735643777088297367,map,1.0129419518788196,0.2107512635508684,0.2421396005189167,-0.4941432712388899,0.4958059339906845,-0.5063708106427073,0.5035747267665458,0.0,0.0,0.0,122,1.7315467917871167e-09,0,1735643777088310956,map,1.0083997799891045,0.2081164873914305,0.1437998093710149,-0.4775062706882284,0.5033371897525029,-0.4906238265044236,0.5271884821689781,0.0,0.0,0.0,124,3.469899517497019e-10,0,1735643777088322877,map,1.0120541303865294,-0.0248578949986007,0.2422577804186244,-0.6123706976376668,0.4438356943826313,-0.3830995879029627,0.5303269848076988,0.0,0.0,0.0,125,0.0001709204089798982,0,1735643777088343858,map,1.0039248363009965,-0.0211750864651967,0.1455716735910428,0.6870006206782582,-0.4911502131909793,0.3189352874380589,-0.4302114569568627,0.0,0.0,0.0,126,3.1985727060286054e-05,0,1735644242188269615,map,0.9732822750558732,0.3275442375301803,0.0286218994455381,-0.4885997207751324,0.4936496137383498,-0.4935551660051538,0.5234344943009255,0.0,0.0,0.0,0,2.3818792742383375e-14,0.9262996049394118,-0.7809475433338607,0.4751997281179232,1.0,0.0001628710826503,-0.0006490445823252,-0.0023047350755592,0.0,0.0,0.0,-0.0006490445823252,0.019632986586011,0.0055751978818888,0.0,0.0,0.0,-0.0023047350755592,0.0055751978818888,0.0333777179346236,0.0,0.0,0.0,0.0,0.0,0.0,0.0,0.0,0.0,0.0,0.0,0.0,0.0,0.0,0.0,0.0,0.0,0.0,0.0,0.0,0.0,0,0,0,1,8,,121
0.800957665,0,1735643777088230371,map,0.9888840294252634,-0.2240880229404196,0.0209690887017941,-0.5488975228213614,0.7418939070042089,-0.299993060457605,0.2414727808012387,0.0,0.0,0.0,1,0.012124047959097526,0,1735643777088253974,map,0.9783957303920356,-0.2511432345286619,0.1513456680949128,-0.5059585923107639,0.4834305580564914,-0.4840921661318828,0.5253147371755726,0.0,0.0,0.0,16,0.21617030811837532,0,1735643777088270664,map,0.9960387276869568,0.0572079231407491,0.023640486404474,-0.5034438397160839,0.4757641678900649,-0.4713863664906363,0.5458824509824032,0.0,0.0,0.0,17,1.317283143000851e-06,0,1735643777088284730,map,1.0128830519439438,-0.258534706268568,0.2370746416981478,-0.4818419157639543,0.488438007435385,-0.5006586517584389,0.5278234510941091,0.0,0.0,0.0,121,0.7704330783957117,0,1735643777088297367,map,1.0145793451832743,0.2123835621995043,0.2419272240668826,0.5146463479257347,-0.5053693849922455,0.4926763214593307,-0.4868377178820121,0.0,0.0,0.0,122,9.759756436261841e-08,0,1735643777088310956,map,1.004584397569219,0.2067874579371226,0.144669666924276,-0.4729138107678702,0.5046373784912782,-0.4931021815693185,0.5277725668752027,0.0,0.0,0.0,124,2.630262691495e-08,0,1735643777088322877,map,1.0058063566868711,-0.0255281665449719,0.2426535842273224,-0.5054050461244546,0.5075643885914943,-0.4935671918648729,0.4932905410610508,0.0,0.0,0.0,125,0.0010572699833267549,0,1735643777088343858,map,1.0062819227383968,-0.0204898874021556,0.1445940145671682,-0.4793634044315371,0.479261920971629,-0.5215807532669273,0.5181430839255655,0.0,0.0,0.0,126,0.00021385435192757847,0,1735644242188269615,map,0.9732822750558732,0.3275442375301803,0.0286218994455381,-0.4885997207751324,0.4936496137383498,-0.4935551660051538,0.5234344943009255,0.0,0.0,0.0,0,8.226670624083006e-12,0.9260986503611924,-0.7540448522652269,0.4725168852804048,1.0,0.0001450973576292,-0.0006201782691157,-0.0020443403640903,0.0,0.0,0.0,-0.0006201782691157,0.0232415819258846,0.0043783259142202,0.0,0.0,0.0,-0.0020443403640903,0.0043783259142202,0.0297266637740809,0.0,0.0,0.0,0.0,0.0,0.0,0.0,0.0,0.0,0.0,0.0,0.0,0.0,0.0,0.0,0.0,0.0,0.0,0.0,0.0,0.0,0,0,0,1,9,,121
0.901053804,0,1735643777088230371,map,0.9788349055966163,-0.2239519781961307,0.0250143298135296,-0.4838493898337316,0.4872716686368076,-0.510320683777352,0.5177150650796669,0.0,0.0,0.0,1,0.009249766153587002,0,1735643777088253974,map,0.9891672979854572,-0.2546944295473616,0.1495303339446978,-0.5030588295474383,0.5087611433797017,-0.4947837466520061,0.4932372218824767,0.0,0.0,0.0,16,0.1990968526062789,0,1735643777088270664,map,0.9909621492247854,0.0544889613469889,0.0256492750479676,-0.4913366764268786,0.4927312403604622,-0.490489834290599,0.5246178777245503,0.0,0.0,0.0,17,1.226067927973957e-06,0,1735643777088284730,map,1.0158888173192129,-0.2603334151716605,0.236909687201537,-0.5137934355348313,0.5531445632117662,-0.4557315092403592,0.4715465929005152,0.0,0.0,0.0,121,0.7902417244712007,0,1735643777088297367,map,1.0165247938164792,0.2125960451946223,0.2419938502075121,-0.5088549728062317,0.4900165576761174,-0.498553491447925,0.5023890982283575,0.0,0.0,0.0,122,1.2997928327182205e-07,0,1735643777088310956,map,1.0049901534825594,0.2062945476270801,0.1445161172373373,-0.4740303089519703,0.5032865294874025,-0.4915203855907034,0.5295334229113329,0.0,0.0,0.0,124,3.008948490722213e-08,0,1735643777088322877,map,1.0124190954573369,-0.0256624246305101,0.2424737560458218,-0.5055796180349081,0.5085332557600991,-0.4932918917359883,0.4923883499446757,0.0,0.0,0.0,125,0.0012158498641553486,0,1735643777088343858,map,1.017175422389777,-0.0196312793279192,0.142329314658937,-0.5091193171474582,0.4706359226512898,-0.48428014228113,0.5336404154574916,0.0,0.0,0.0,126,0.000194420760438466,0,1735644242188269615,map,0.9732822750558732,0.3275442375301803,0.0286218994455381,-0.4885997207751324,0.4936496137383498,-0.4935551660051538,0.5234344943009255,0.0,0.0,0.0,0,7.643407113521774e-12,0.9256449134206498,-0.7374141972547305,0.4757992364891032,1.0,0.0001324405167672,-0.0006260739249172,-0.0018533102436383,0.0,0.0,0.0,-0.0006260739249172,0.0234066319079994,0.0044317821779745,0.0,0.0,0.0,-0.0018533102436383,0.0044317821779745,0.026850961861788,0.0,0.0,0.0,0.0,0.0,0.0,0.0,0.0,0.0,0.0,0.0,0.0,0.0,0.0,0.0,0.0,0.0,0.0,0.0,0.0,0.0,0,0,0,1,10,,121
1.000621583,0,1735643777088230371,map,0.9877973574115524,-0.2250291155252005,0.0197244939874259,-0.490961024995107,0.5103112369237758,-0.5008264865718202,0.4977072872213208,0.0,0.0,0.0,1,0.005458130794955858,0,1735643777088253974,map,0.9824658737655088,-0.2533166730345936,0.1499816126818277,-0.5286386346144794,0.488105259048328,-0.4657480034816746,0.5151439093448913,0.0,0.0,0.0,16,0.1786726164034343,0,1735643777088270664,map,0.9955450853662492,0.0580187039710331,0.0223586305814482,-0.4996756528361554,0.5081854265484241,-0.4900444031285161,0.5019245931103343,0.0,0.0,0.0,17,2.831337353044482e-07,0,1735643777088284730,map,1.0068307900742546,-0.2581386434971162,0.2368076311938096,-0.5260711089145229,0.504242380833735,-0.4557917584899353,0.5111190493703236,0.0,0.0,0.0,121,0.8150299224389373,0,1735643777088297367,map,1.0004996157384671,0.206510583115795,0.2422517749941186,0.4981968835965608,-0.5011858113914596,0.504810397812913,-0.49576114197719,0.0,0.0,0.0,122,5.0555393010539904e-08,0,1735643777088310956,map,1.0049901534825594,0.2062945476270801,0.1445161172373373,-0.4740303089519703,0.5032865294874025,-0.4915203855907034,0.5295334229113329,0.0,0.0,0.0,124,6.981644306743066e-09,0,1735643777088322877,map,1.0044050955919928,-0.0251461408376221,0.2420542082666934,0.4721676067137803,-0.5210921201338496,0.5221237362497291,-0.4826049704978328,0.0,0.0,0.0,125,0.0007484825490679779,0,1735643777088343858,map,1.0135224893500177,-0.018154022362957,0.1415932035406152,0.5083814145607036,-0.5059369973668472,0.4932868451250663,-0.492183076152803,0.0,0.0,0.0,126,9.050714206011732e-05,0,1735644242188269615,map,0.9732822750558732,0.3275442375301803,0.0286218994455381,-0.4885997207751324,0.4936496137383498,-0.4935551660051538,0.5234344943009255,0.0,0.0,0.0,0,7.71704595445078e-13,0.9250301730106366,-0.7310307204424547,0.4836653483974039,1.0,0.0001241795275054,-0.00060839992509,-0.0017331836628138,0.0,0.0,0.0,-0.00060839992509,0.0216862440421281,0.0045310243187618,0.0,0.0,0.0,-0.0017331836628138,0.0045310243187618,0.0250287224944373,0.0,0.0,0.0,0.0,0.0,0.0,0.0,0.0,0.0,0.0,0.0,0.0,0.0,0.0,0.0,0.0,0.0,0.0,0.0,0.0,0.0,0,0,0,1,11,,121
1.101162814,0,1735643777088230371,map,0.981424825856196,-0.2245636944254112,0.0246745640557468,-0.4963296120698739,0.4909241450094833,-0.4900761028720136,0.5219921583923034,0.0,0.0,0.0,1,0.003775271196314426,0,1735643777088253974,map,0.9899304650071497,-0.254667663864854,0.1501544673917423,0.4843075209600312,-0.5011475733440404,0.5142893233279496,-0.4998037882847712,0.0,0.0,0.0,16,0.15789888785391532,0,1735643777088270664,map,0.9867923281614795,0.0550258928668872,0.0277279625293644,-0.4902207183936651,0.4911348280285149,-0.492109491343632,0.5256410148423654,0.0,0.0,0.0,17,9.720091036340719e-08,0,1735643777088284730,map,1.0121805421783696,-0.2587276382099523,0.2380108182191467,-0.435472433072915,0.6265257536531563,-0.5228253281823682,0.3801090846768841,0.0,0.0,0.0,121,0.8378558862554837,0,1735643777088297367,map,1.0155570889303978,0.216799439680255,0.2427545881314515,0.5121249211530259,-0.5023052230498553,0.4920540575353592,-0.4932548352462766,0.0,0.0,0.0,122,7.022301250080305e-09,0,1735643777088310956,map,1.0049901534825594,0.2062945476270801,0.1445161172373373,-0.4740303089519703,0.5032865294874025,-0.4915203855907034,0.5295334229113329,0.0,0.0,0.0,124,1.3286528598013647e-09,0,1735643777088322877,map,1.0027320496473928,-0.0250223921634124,0.2441857525753008,-0.4897561455844872,0.540783664492778,-0.5031886236499579,0.4631340573843064,0.0,0.0,0.0,125,0.00042123342501815335,0,1735643777088343858,map,1.0002929920149355,-0.0203539435967718,0.1462678765695458,0.4866313125876669,-0.5077267902900073,0.5221808498419783,-0.4824216331066849,0.0,0.0,0.0,126,4.861571734077561e-05,0,1735644242188269615,map,0.9732822750558732,0.3275442375301803,0.0286218994455381,-0.4885997207751324,0.4936496137383498,-0.4935551660051538,0.5234344943009255,0.0,0.0,0.0,0,6.311998039499237e-14,0.9245693883077292,-0.7276737653917995,0.4898637831795678,1.0,0.0001161667815134,-0.0005747151002251,-0.0016201692741382,0.0,0.0,0.0,-0.0005747151002251,0.0200030176579507,0.0043823254952945,0.0,0.0,0.0,-0.0016201692741382,0.0043823254952945,0.023365622151137,0.0,0.0,0.0,0.0,0.0,0.0,0.0,0.0,0.0,0.0,0.0,0.0,0.0,0.0,0.0,0.0,0.0,0.0,0.0,0.0,0.0,0,0,0,1,12,,121
1.199759184,0,1735643777088230371,map,0.9840337497480948,-0.225442464794287,0.0214038232138752,-0.4880861610390716,0.4959497159554221,-0.5073292721905177,0.5083530153589304,0.0,0.0,0.0,1,0.0025826800185091902,0,1735643777088253974,map,0.979291276274722,-0.2538856810560791,0.1511712475545436,-0.4975374256639225,0.4730137996455108,-0.485109689496796,0.5416484510870084,0.0,0.0,0.0,16,0.14809183997911066,0,1735643777088270664,map,0.990114911295972,0.0562758957728707,0.0249747416634283,0.8440144383657847,-0.4220328455701045,0.1432081477821476,-0.2983610757101128,0.0,0.0,0.0,17,3.0358371766324216e-08,0,1735643777088284730,map,1.01066392568275,-0.2590342702694847,0.2363887986388554,-0.4786028719660148,0.4880933306278435,-0.5003174260630279,0.5314006630784041,0.0,0.0,0.0,121,0.8490818848739424,0,1735643777088297367,map,1.0155570889303978,0.216799439680255,0.2427545881314515,0.5121249211530259,-0.5023052230498553,0.4920540575353592,-0.4932548352462766,0.0,0.0,0.0,122,2.0464342028708602e-09,0,1735643777088310956,map,0.9990830028254172,0.2076002881212439,0.1442639369700226,-0.4639752222062942,0.499196267407076,-0.500350303133143,0.5340221474246496,0.0,0.0,0.0,124,3.2767744156173046e-10,0,1735643777088322877,map,1.0133569326362335,-0.0221514780007184,0.241086606199545,0.5101206957180399,-0.5053866293440707,0.4886602470130318,-0.4955526144311462,0.0,0.0,0.0,125,0.00021709376087025956,0,1735643777088343858,map,1.0002929920149355,-0.0203539435967718,0.1462678765695458,0.4866313125876669,-0.5077267902900073,0.5221808498419783,-0.4824216331066849,0.0,0.0,0.0,126,2.646863507547562e-05,0,1735644242188269615,map,0.9732822750558732,0.3275442375301803,0.0286218994455381,-0.4885997207751324,0.4936496137383498,-0.4935551660051538,0.5234344943009255,0.0,0.0,0.0,0,8.606538513985676e-15,0.9246855737600416,-0.7246420502552235,0.4874797536980199,1.0,0.0001073928639551,-0.0005262793520285,-0.0014988647429589,0.0,0.0,0.0,-0.0005262793520285,0.0185746195519867,0.003958491154935,0.0,0.0,0.0,-0.0014988647429589,0.003958491154935,0.0216364697598762,0.0,0.0,0.0,0.0,0.0,0.0,0.0,0.0,0.0,0.0,0.0,0.0,0.0,0.0,0.0,0.0,0.0,0.0,0.0,0.0,0.0,0,0,0,1,13,,121
1.301014095,0,1735643777088230371,map,0.975212600430272,-0.2226167011261703,0.0224594039988638,-0.4995312632805407,0.4932213546843892,-0.485622498904835,0.520933777793365,0.0,0.0,0.0,1,0.001867862885236134,0,1735643777088253974,map,0.977956669555934,-0.2519264037021086,0.1488922279163998,-0.5118855572975458,0.476057392153184,-0.477561195114121,0.5322385184554603,0.0,0.0,0.0,16,0.13520186137327553,0,1735643777088270664,map,0.985225066798916,0.0581912227975109,0.0233200694747072,-0.4946434326139622,0.5024856645701861,-0.4950848523075114,0.5076682189077677,0.0,0.0,0.0,17,9.13093964780223e-09,0,1735643777088284730,map,1.0018401289158172,-0.2553453472788919,0.2350208990672198,-0.4565575258482336,0.6448629260719496,-0.4914956363429918,0.3662500124574201,0.0,0.0,0.0,121,0.8627692816763111,0,1735643777088297367,map,1.0045317323026015,0.2161682366791845,0.2395242504050814,-0.5078164375515287,0.4920182280034179,-0.4972406998673518,0.5027844622303652,0.0,0.0,0.0,122,5.70185382972851e-10,0,1735643777088310956,map,0.9990830028254172,0.2076002881212439,0.1442639369700226,-0.4639752222062942,0.499196267407076,-0.500350303133143,0.5340221474246496,0.0,0.0,0.0,124,8.33252826894634e-11,0,1735643777088322877,map,0.9948364224604124,-0.0232753065975181,0.2408545588529229,-0.4880300405048919,0.517055688748915,-0.5044694861368391,0.4898883871393685,0.0,0.0,0.0,125,0.00014839221736688628,0,1735643777088343858,map,0.9935595754211912,-0.0183745079476502,0.1433828436741737,0.4968238148997911,-0.5065798956613414,0.5095994818406682,-0.4866736836607103,0.0,0.0,0.0,126,1.2592063358888214e-05,0,1735644242188269615,map,0.9732822750558732,0.3275442375301803,0.0286218994455381,-0.4885997207751324,0.4936496137383498,-0.4935551660051538,0.5234344943009255,0.0,0.0,0.0,0,1.0650361701132701e-15,0.9246196947911216,-0.7278304847517376,0.4891426489822801,1.0,9.977836560226536e-05,-0.0004859573096385,-0.0013932271233524,0.0,0.0,0.0,-0.0004859573096385,0.0173800205015603,0.0036068153617758,0.0,0.0,0.0,-0.0013932271233524,0.0036068153617758,0.0201269555036141,0.0,0.0,0.0,0.0,0.0,0.0,0.0,0.0,0.0,0.0,0.0,0.0,0.0,0.0,0.0,0.0,0.0,0.0,0.0,0.0,0.0,0,0,0,1,14,,121
1.400202687,0,1735643777088230371,map,0.9767709787323148,-0.2226197408760625,0.0214706156491666,-0.4933323368721222,0.4971600544104857,-0.4982758063168669,0.5110541131173195,0.0,0.0,0.0,1,0.0025945891765655725,0,1735643777088253974,map,0.9843976664742604,-0.2524552382167351,0.1469556604648592,0.5140463101873182,-0.5132773217766423,0.4799680753205508,-0.491867287594618,0.0,0.0,0.0,16,0.14900848456849816,0,1735643777088270664,map,0.9841815688423958,0.0587044428937883,0.0234691108154462,-0.4962318430906724,0.5034630898396009,-0.4982168830491629,0.5020545911718899,0.0,0.0,0.0,17,1.7748136321620853e-08,0,1735643777088284730,map,1.0049487187117574,-0.2554343148862642,0.2343939200494026,-0.5112022484964227,0.5075830950317956,-0.4786741767091161,0.5018990887837866,0.0,0.0,0.0,121,0.8482082055844888,0,1735643777088297367,map,0.9952908010004946,0.2121326563201303,0.2407082736480344,0.4980160947408114,-0.4987082719319901,0.5052920901617007,-0.4979457124082291,0.0,0.0,0.0,122,9.543069603795705e-10,0,1735643777088310956,map,0.9954425793574562,0.2121360757036102,0.1419819291675521,-0.4908288785533628,0.5084844082748555,-0.4768219781098631,0.5226580332404884,0.0,0.0,0.0,124,1.0023691363552612e-10,0,1735643777088322877,map,0.990235314480975,-0.0232477008691834,0.2410339004511618,-0.4994107502043918,0.5439676881982034,-0.5004975278188388,0.4518741876051556,0.0,0.0,0.0,125,0.00017050764099553502,0,1735643777088343858,map,0.989341553187338,-0.0183393391750288,0.1441420656289416,0.4829441777517951,-0.4985382141381255,0.5280841997323971,-0.4892357797755643,0.0,0.0,0.0,126,1.819422676903995e-05,0,1735644242188269615,map,0.9732822750558732,0.3275442375301803,0.0286218994455381,-0.4885997207751324,0.4936496137383498,-0.4935551660051538,0.5234344943009255,0.0,0.0,0.0,0,2.6737171640167978e-15,0.92504401428141,-0.7210741481796555,0.4813497271434551,1.0,9.564713297985516e-05,-0.0004134243215958,-0.001346638955844,0.0,0.0,0.0,-0.0004134243215958,0.0168604256423765,0.0026292385648017,0.0,0.0,0.0,-0.001346638955844,0.0026292385648017,0.0196353733010444,0.0,0.0,0.0,0.0,0.0,0.0,0.0,0.0,0.0,0.0,0.0,0.0,0.0,0.0,0.0,0.0,0.0,0.0,0.0,0.0,0.0,0,0,0,1,15,,121
1.501247672,0,1735643777088230371,map,0.9696517798299886,-0.2225633331921669,0.0242508010209706,-0.4947105100841822,0.4984579011880737,-0.5020290884238316,0.5047455064998254,0.0,0.0,0.0,1,0.0023046220760332956,0,1735643777088253974,map,0.9790066864495828,-0.2522944067162826,0.1481326370935455,-0.5273733081422738,0.502378464811147,-0.4582809452946964,0.5093837915882967,0.0,0.0,0.0,16,0.14683205887902798,0,1735643777088270664,map,0.978934650145227,0.0562885888264885,0.0253003070668589,-0.4960174411077294,0.5006931535068283,-0.488625294699829,0.5143135089882757,0.0,0.0,0.0,17,7.449963268921773e-09,0,1735643777088284730,map,0.9987507577923874,-0.2547635840903706,0.2346222814460846,-0.4766599944895967,0.6399726313906418,-0.4711053678676727,0.3758856383135441,0.0,0.0,0.0,121,0.850764934673092,0,1735643777088297367,map,0.9952908010004946,0.2121326563201303,0.2407082736480344,0.4980160947408114,-0.4987082719319901,0.5052920901617007,-0.4979457124082291,0.0,0.0,0.0,122,2.3133725488216597e-10,0,1735643777088310956,map,0.9954425793574562,0.2121360757036102,0.1419819291675521,-0.4908288785533628,0.5084844082748555,-0.4768219781098631,0.5226580332404884,0.0,0.0,0.0,124,2.1921026988249607e-11,0,1735643777088322877,map,0.9924298595840214,-0.0225670557523072,0.2402787006601062,-0.4959739449374885,0.5220240025664278,-0.506157010010202,0.4746639526077407,0.0,0.0,0.0,125,9.043427001350608e-05,0,1735643777088343858,map,0.9962838630751438,-0.0165886150766179,0.141772363006449,0.7765204000411172,-0.414317254697829,0.2247174177470319,-0.4181618860450379,0.0,0.0,0.0,126,7.942398611219263e-06,0,1735644242188269615,map,0.9732822750558732,0.3275442375301803,0.0286218994455381,-0.4885997207751324,0.4936496137383498,-0.4935551660051538,0.5234344943009255,0.0,0.0,0.0,0,3.060123866862487e-16,0.925537143197462,-0.7233596199286343,0.4744394475822255,1.0,9.331682908631546e-05,-0.0004044907845897,-0.0013135889011485,0.0,0.0,0.0,-0.0004044907845897,0.0158849997564587,0.0027018098852226,0.0,0.0,0.0,-0.0013135889011485,0.0027018098852226,0.0191244419239443,0.0,0.0,0.0,0.0,0.0,0.0,0.0,0.0,0.0,0.0,0.0,0.0,0.0,0.0,0.0,0.0,0.0,0.0,0.0,0.0,0.0,0,0,0,1,16,,121
1.600632454,0,1735643777088230371,map,0.9746026075227676,-0.2235536264803648,0.0219378312771846,0.4819175154764289,-0.5128181431755404,0.5144606402086264,-0.4900033775221832,0.0,0.0,0.0,1,0.0015273825201611408,0,1735643777088253974,map,0.97400545238948,-0.2526552766612576,0.1498748079192849,-0.5138108213322847,0.4732738297597722,-0.46771982685602,0.5415242243077735,0.0,0.0,0.0,16,0.13737909492697195,0,1735643777088270664,map,0.9761835275398936,0.054937858282597,0.0269302720923081,-0.4832267001155743,0.4990360817977095,-0.5017179013804832,0.5154940278934049,0.0,0.0,0.0,17,2.6046389921806976e-09,0,1735643777088284730,map,0.998966945273742,-0.2554932410001553,0.2351295458119246,-0.5101652472346283,0.4885800138446804,-0.4685347231788596,0.5305621582446979,0.0,0.0,0.0,121,0.8610425514951946,0,1735643777088297367,map,0.9952908010004946,0.2121326563201303,0.2407082736480344,0.4980160947408114,-0.4987082719319901,0.5052920901617007,-0.4979457124082291,0.0,0.0,0.0,122,5.79316234158556e-11,0,1735643777088310956,map,0.9954425793574562,0.2121360757036102,0.1419819291675521,-0.4908288785533628,0.5084844082748555,-0.4768219781098631,0.5226580332404884,0.0,0.0,0.0,124,4.686040788040465e-12,0,1735643777088322877,map,0.9959262525581738,-0.0214115186985454,0.2400074030848689,-0.4921353479609274,0.5229187173884455,-0.5066573314510224,0.4771343236229488,0.0,0.0,0.0,125,4.6526417290253446e-05,0,1735643777088343858,map,0.988491665492362,-0.018606506194877,0.1440490163115143,0.4914467663173282,-0.5047716111925953,0.5187716773198865,-0.4843156442042571,0.0,0.0,0.0,126,4.4419731254057015e-06,0,1735644242188269615,map,0.9732822750558732,0.3275442375301803,0.0286218994455381,-0.4885997207751324,0.4936496137383498,-0.4935551660051538,0.5234344943009255,0.0,0.0,0.0,0,3.252975494909944e-17,0.9258077582075108,-0.7262361760619122,0.4709907813170697,1.0,8.899932358456234e-05,-0.0003931522372962,-0.0012512511394828,0.0,0.0,0.0,-0.0003931522372962,0.0150829812090851,0.0027016044055208,0.0,0.0,0.0,-0.0012512511394828,0.0027016044055208,0.0181897675360823,0.0,0.0,0.0,0.0,0.0,0.0,0.0,0.0,0.0,0.0,0.0,0.0,0.0,0.0,0.0,0.0,0.0,0.0,0.0,0.0,0.0,0,0,0,1,17,,121
1.700906819,0,1735643777088230371,map,0.9749885003435126,-0.222255920167483,0.0206858746838609,-0.4918845043640227,0.5008989657907886,-0.4988944340519386,0.5081871742854923,0.0,0.0,0.0,1,0.00137680119148497,0,1735643777088253974,map,0.9840848561430172,-0.2521287051534241,0.146059090930447,-0.510207757048454,0.5153777934852596,-0.485057077993824,0.4886649217182914,0.0,0.0,0.0,16,0.1298898397296768,0,1735643777088270664,map,0.9719918740293014,0.0548702152453481,0.028000429638097,-0.4860318056668946,0.4994938166285143,-0.5003371385422528,0.5137526241542792,0.0,0.0,0.0,17,2.054718744334747e-09,0,1735643777088284730,map,0.9991278666587192,-0.2537844718270582,0.2344480837011018,-0.4473864053326861,0.5630061686033127,-0.5377203292974184,0.4401435060277404,0.0,0.0,0.0,121,0.8686950666268642,0,1735643777088297367,map,0.9952908010004946,0.2121326563201303,0.2407082736480344,0.4980160947408114,-0.4987082719319901,0.5052920901617007,-0.4979457124082291,0.0,0.0,0.0,122,3.5052193629369304e-11,0,1735643777088310956,map,0.9954425793574562,0.2121360757036102,0.1419819291675521,-0.4908288785533628,0.5084844082748555,-0.4768219781098631,0.5226580332404884,0.0,0.0,0.0,124,2.853415730022043e-12,0,1735643777088322877,map,0.9971721032398496,-0.0188335524557413,0.2394112987863509,-0.4976501334405364,0.5068031533729455,-0.5010520123588991,0.4944105473480033,0.0,0.0,0.0,125,3.477843353539281e-05,0,1735643777088343858,map,0.9858754629108102,-0.017038448488386,0.1440500666903944,0.4849988941789208,-0.4958054272619167,0.5251292531658625,-0.4931453319380764,0.0,0.0,0.0,126,3.511925814430099e-06,0,1735644242188269615,map,0.9732822750558732,0.3275442375301803,0.0286218994455381,-0.4885997207751324,0.4936496137383498,-0.4935551660051538,0.5234344943009255,0.0,0.0,0.0,0,1.5688260214755056e-17,0.9259618807077038,-0.7223695147299488,0.467861127201564,1.0,8.445873038487145e-05,-0.0003611794746333,-0.0011899371392787,0.0,0.0,0.0,-0.0003611794746333,0.0144992059961341,0.0023457929585164,0.0,0.0,0.0,-0.0011899371392787,0.0023457929585164,0.0173457353881948,0.0,0.0,0.0,0.0,0.0,0.0,0.0,0.0,0.0,0.0,0.0,0.0,0.0,0.0,0.0,0.0,0.0,0.0,0.0,0.0,0.0,0,0,0,1,18,,121
1.801247352,0,1735643777088230371,map,0.9749885003435126,-0.222255920167483,0.0206858746838609,-0.4918845043640227,0.5008989657907886,-0.4988944340519386,0.5081871742854923,0.0,0.0,0.0,1,0.0016909821507450373,0,1735643777088253974,map,0.9750177877357566,-0.2515517307754658,0.1492921149993708,-0.5100191507413653,0.4930108453191359,-0.4871698156208072,0.5093980202383565,0.0,0.0,0.0,16,0.1478552094899461,0,1735643777088270664,map,0.9807489269233678,0.0597840399802287,0.0234487328639607,-0.5040268762442361,0.5015553634091267,-0.4891701514189841,0.505085822825929,0.0,0.0,0.0,17,1.971262930019682e-09,0,1735643777088284730,map,0.9997546294283506,-0.2536962531729796,0.2345588089071567,-0.5389562345503144,0.5891734966677091,-0.4302177087721016,0.4210860851685493,0.0,0.0,0.0,121,0.8504115795326704,0,1735643777088297367,map,0.9952908010004946,0.2121326563201303,0.2407082736480344,0.4980160947408114,-0.4987082719319901,0.5052920901617007,-0.4979457124082291,0.0,0.0,0.0,122,3.84027324546108e-11,0,1735643777088310956,map,0.9954425793574562,0.2121360757036102,0.1419819291675521,-0.4908288785533628,0.5084844082748555,-0.4768219781098631,0.5226580332404884,0.0,0.0,0.0,124,3.788767292674827e-12,0,1735643777088322877,map,0.9932968741524522,-0.0195271595445983,0.240158893900864,-0.5076935361756775,0.5219055567748435,-0.4931419228443929,0.4761017822549204,0.0,0.0,0.0,125,3.885440487049379e-05,0,1735643777088343858,map,0.993578266171122,-0.0139019788786024,0.1412693368200871,-0.4980659011392398,0.492616331933653,-0.5051914857646475,0.5040248707608572,0.0,0.0,0.0,126,3.3724083135205514e-06,0,1735644242188269615,map,0.9732822750558732,0.3275442375301803,0.0286218994455381,-0.4885997207751324,0.4936496137383498,-0.4935551660051538,0.5234344943009255,0.0,0.0,0.0,0,2.687465097690787e-17,0.9262247226079072,-0.7173400955349595,0.4628551021894915,1.0,8.125707960987014e-05,-0.0003183750708336,-0.0011509931450698,0.0,0.0,0.0,-0.0003183750708336,0.0141914009249751,0.0017691370020724,0.0,0.0,0.0,-0.0011509931450698,0.0017691370020724,0.0168838871022978,0.0,0.0,0.0,0.0,0.0,0.0,0.0,0.0,0.0,0.0,0.0,0.0,0.0,0.0,0.0,0.0,0.0,0.0,0.0,0.0,0.0,0,0,0,1,19,,121
1.900983509,0,1735643777088230371,map,0.9749885003435126,-0.222255920167483,0.0206858746838609,-0.4918845043640227,0.5008989657907886,-0.4988944340519386,0.5081871742854923,0.0,0.0,0.0,1,0.0020126820328657093,0,1735643777088253974,map,0.9761394963053528,-0.2520573119679424,0.1486379177497394,-0.5141738297291695,0.4934986028020648,-0.466650878122451,0.5237569663513735,0.0,0.0,0.0,16,0.1571550329793473,0,1735643777088270664,map,0.9807489269233678,0.0597840399802287,0.0234487328639607,-0.5040268762442361,0.5015553634091267,-0.4891701514189841,0.505085822825929,0.0,0.0,0.0,17,3.4905374426406306e-09,0,1735643777088284730,map,0.9977955551395636,-0.2535238122148049,0.2345400334476056,-0.5052553439263914,0.5139275610489227,-0.4700892326986738,0.5095209639739091,0.0,0.0,0.0,121,0.8407712449911376,0,1735643777088297367,map,0.9952908010004946,0.2121326563201303,0.2407082736480344,0.4980160947408114,-0.4987082719319901,0.5052920901617007,-0.4979457124082291,0.0,0.0,0.0,122,6.011043827872388e-11,0,1735643777088310956,map,0.9954425793574562,0.2121360757036102,0.1419819291675521,-0.4908288785533628,0.5084844082748555,-0.4768219781098631,0.5226580332404884,0.0,0.0,0.0,124,7.001602472627385e-12,0,1735643777088322877,map,0.9858605293151,-0.0220118324638421,0.2412169234041147,-0.4996066136155809,0.5188604094594715,-0.5010277114158919,0.4797377820439776,0.0,0.0,0.0,125,5.587469763971426e-05,0,1735643777088343858,map,0.9898724851053484,-0.0148918645086518,0.1424794342123513,0.4981353170790064,-0.5028340006242062,0.5094053901503427,-0.489413242751594,0.0,0.0,0.0,126,5.161741360224874e-06,0,1735644242188269615,map,0.9732822750558732,0.3275442375301803,0.0286218994455381,-0.4885997207751324,0.4936496137383498,-0.4935551660051538,0.5234344943009255,0.0,0.0,0.0,0,6.953478444807241e-17,0.926400935422202,-0.7115088020375036,0.4589782503263321,1.0,7.778419379188972e-05,-0.0002829328931668,-0.0011064233563871,0.0,0.0,0.0,-0.0002829328931668,0.0141279065719423,0.0012511459918241,0.0,0.0,0.0,-0.0011064233563871,0.0012511459918241,0.0163252623741917,0.0,0.0,0.0,0.0,0.0,0.0,0.0,0.0,0.0,0.0,0.0,0.0,0.0,0.0,0.0,0.0,0.0,0.0,0.0,0.0,0.0,0,0,0,1,20,,121
2.001094585,0,1735643777088230371,map,0.9749885003435126,-0.222255920167483,0.0206858746838609,-0.4918845043640227,0.5008989657907886,-0.4988944340519386,0.5081871742854923,0.0,0.0,0.0,1,0.0016429446662547245,0,1735643777088253974,map,0.9789162512273168,-0.2522833073169238,0.148212096389229,-0.501134790609109,0.4996994908213325,-0.4873720732530432,0.5115005402999058,0.0,0.0,0.0,16,0.14714468384182583,0,1735643777088270664,map,0.9807489269233678,0.0597840399802287,0.0234487328639607,-0.5040268762442361,0.5015553634091267,-0.4891701514189841,0.505085822825929,0.0,0.0,0.0,17,2.8884548301678156e-09,0,1735643777088284730,map,0.9974314286346097,-0.2534942709930216,0.2348591929451916,-0.5147057235395012,0.4934779708915082,-0.4688077691831935,0.5213221517967137,0.0,0.0,0.0,121,0.8511576315194447,0,1735643777088297367,map,0.9952908010004946,0.2121326563201303,0.2407082736480344,0.4980160947408114,-0.4987082719319901,0.5052920901617007,-0.4979457124082291,0.0,0.0,0.0,122,6.125571413631614e-11,0,1735643777088310956,map,0.9954425793574562,0.2121360757036102,0.1419819291675521,-0.4908288785533628,0.5084844082748555,-0.4768219781098631,0.5226580332404884,0.0,0.0,0.0,124,6.569057760492902e-12,0,1735643777088322877,map,0.9903394929601752,-0.0191868630453112,0.2407792761360344,-0.5027359572116368,0.5192816927346519,-0.4992299826018717,0.4778833596061584,0.0,0.0,0.0,125,4.9441405364710775e-05,0,1735643777088343858,map,0.9858785816078408,-0.0157557813654388,0.1436692387679101,-0.5012039554029502,0.5074289351315678,-0.5068619971554026,0.4841501695954648,0.0,0.0,0.0,126,5.295610830336854e-06,0,1735644242188269615,map,0.9732822750558732,0.3275442375301803,0.0286218994455381,-0.4885997207751324,0.4936496137383498,-0.4935551660051538,0.5234344943009255,0.0,0.0,0.0,0,5.636750905010546e-17,0.9263257996634292,-0.7061849878932177,0.4589776690707171,1.0,7.419309220863148e-05,-0.00027746007456,-0.0010537356564309,0.0,0.0,0.0,-0.00027746007456,0.0140220090569935,0.0011915057213238,0.0,0.0,0.0,-0.0010537356564309,0.0011915057213238,0.0155478689345587,0.0,0.0,0.0,0.0,0.0,0.0,0.0,0.0,0.0,0.0,0.0,0.0,0.0,0.0,0.0,0.0,0.0,0.0,0.0,0.0,0.0,0,0,0,1,21,,121
2.101066027,0,1735643777088230371,map,0.9749885003435126,-0.222255920167483,0.0206858746838609,-0.4918845043640227,0.5008989657907886,-0.4988944340519386,0.5081871742854923,0.0,0.0,0.0,1,0.0015584921611568946,0,1735643777088253974,map,0.9713067633431268,-0.2505176278631971,0.1502986456214509,-0.5047088742324158,0.4905278418721934,-0.4829489156043301,0.5209719124250917,0.0,0.0,0.0,16,0.14976874931124856,0,1735643777088270664,map,0.9807489269233678,0.0597840399802287,0.0234487328639607,-0.5040268762442361,0.5015553634091267,-0.4891701514189841,0.505085822825929,0.0,0.0,0.0,17,3.3602038127490585e-09,0,1735643777088284730,map,0.9922911815720992,-0.2513245999539301,0.2353295648256805,-0.4699588283684709,0.5233676733704492,-0.5146204545494308,0.4902966100929865,0.0,0.0,0.0,121,0.848606095459138,0,1735643777088297367,map,0.9952908010004946,0.2121326563201303,0.2407082736480344,0.4980160947408114,-0.4987082719319901,0.5052920901617007,-0.4979457124082291,0.0,0.0,0.0,122,8.610285733159213e-11,0,1735643777088310956,map,0.9954425793574562,0.2121360757036102,0.1419819291675521,-0.4908288785533628,0.5084844082748555,-0.4768219781098631,0.5226580332404884,0.0,0.0,0.0,124,9.067142657010636e-12,0,1735643777088322877,map,0.982863508765752,-0.0193500878517126,0.2415667605317378,-0.5050349003108295,0.5176935441694303,-0.4967206265099936,0.4797934586807578,0.0,0.0,0.0,125,6.184802166854204e-05,0,1735643777088343858,map,0.988318001842156,-0.0115825538744114,0.1415899874692593,0.5069331708045414,-0.5001143603744661,0.4945013361823785,-0.4983701590175063,0.0,0.0,0.0,126,4.811591413988684e-06,0,1735644242188269615,map,0.9732822750558732,0.3275442375301803,0.0286218994455381,-0.4885997207751324,0.4936496137383498,-0.4935551660051538,0.5234344943009255,0.0,0.0,0.0,0,8.040811758160991e-17,0.9263120753844958,-0.7006651505321497,0.458014755475772,1.0,7.082463439889812e-05,-0.0002664391245289,-0.0010055610599485,0.0,0.0,0.0,-0.0002664391245289,0.0140244857032938,0.0010257287151805,0.0,0.0,0.0,-0.0010055610599485,0.0010257287151805,0.0148606188737695,0.0,0.0,0.0,0.0,0.0,0.0,0.0,0.0,0.0,0.0,0.0,0.0,0.0,0.0,0.0,0.0,0.0,0.0,0.0,0.0,0.0,0,0,0,1,22,,121
2.20067231,0,1735643777088230371,map,0.9749885003435126,-0.222255920167483,0.0206858746838609,-0.4918845043640227,0.5008989657907886,-0.4988944340519386,0.5081871742854923,0.0,0.0,0.0,1,0.0013277875004276854,0,1735643777088253974,map,0.976096420773557,-0.2504661523365329,0.1482720395553292,-0.5027645920646175,0.5003261358302259,-0.4893881859740105,0.507346751443587,0.0,0.0,0.0,16,0.1366505494247852,0,1735643777088270664,map,0.9807489269233678,0.0597840399802287,0.0234487328639607,-0.5040268762442361,0.5015553634091267,-0.4891701514189841,0.505085822825929,0.0,0.0,0.0,17,3.216445932004928e-09,0,1735643777088284730,map,0.991707518498499,-0.2512099453976125,0.2350297301883034,-0.4923631826438117,0.5128504605213984,-0.496092921182341,0.4984523197584881,0.0,0.0,0.0,121,0.8619557901558198,0,1735643777088297367,map,0.9952908010004946,0.2121326563201303,0.2407082736480344,0.4980160947408114,-0.4987082719319901,0.5052920901617007,-0.4979457124082291,0.0,0.0,0.0,122,1.0546344830009213e-10,0,1735643777088310956,map,0.9954425793574562,0.2121360757036102,0.1419819291675521,-0.4908288785533628,0.5084844082748555,-0.4768219781098631,0.5226580332404884,0.0,0.0,0.0,124,1.038078797641602e-11,0,1735643777088322877,map,0.986692408723262,-0.0170206357609195,0.2403847743240151,0.5145553539065025,-0.506726256704762,0.4842605772203932,-0.4939159664176745,0.0,0.0,0.0,125,6.0449801216596165e-05,0,1735643777088343858,map,0.984703209305405,-0.0123757925620329,0.1426031772919061,-0.5057720796447811,0.4985311383457285,-0.4945454061472245,0.5010849716467086,0.0,0.0,0.0,126,5.419785460449075e-06,0,1735644242188269615,map,0.9732822750558732,0.3275442375301803,0.0286218994455381,-0.4885997207751324,0.4936496137383498,-0.4935551660051538,0.5234344943009255,0.0,0.0,0.0,0,8.612333195459433e-17,0.9262510099876754,-0.6954508230981464,0.4578263787996255,1.0,6.782734008766555e-05,-0.0002618599441928,-0.0009615879413412,0.0,0.0,0.0,-0.0002618599441928,0.0140128880882825,0.0009595221457726,0.0,0.0,0.0,-0.0009615879413412,0.0009595221457726,0.0142152856966791,0.0,0.0,0.0,0.0,0.0,0.0,0.0,0.0,0.0,0.0,0.0,0.0,0.0,0.0,0.0,0.0,0.0,0.0,0.0,0.0,0.0,0,0,0,1,23,,121
2.300216744,0,1735643777088230371,map,0.9749885003435126,-0.222255920167483,0.0206858746838609,-0.4918845043640227,0.5008989657907886,-0.4988944340519386,0.5081871742854923,0.0,0.0,0.0,1,0.001043611070061266,0,1735643777088253974,map,0.971330511274969,-0.2504191449967449,0.1503952958382592,-0.6350520362077724,0.640292573679219,-0.3015751954122516,0.309494318060391,0.0,0.0,0.0,16,0.13341798595289292,0,1735643777088270664,map,0.9807489269233678,0.0597840399802287,0.0234487328639607,-0.5040268762442361,0.5015553634091267,-0.4891701514189841,0.505085822825929,0.0,0.0,0.0,17,3.192632408308816e-09,0,1735643777088284730,map,0.9898784701986238,-0.2508250915785442,0.2353315912031605,-0.5112852128785716,0.4971279500356461,-0.4662464160268145,0.5235126664439178,0.0,0.0,0.0,121,0.8654436113059301,0,1735643777088297367,map,0.9952908010004946,0.2121326563201303,0.2407082736480344,0.4980160947408114,-0.4987082719319901,0.5052920901617007,-0.4979457124082291,0.0,0.0,0.0,122,1.6890084842852844e-10,0,1735643777088310956,map,0.9954425793574562,0.2121360757036102,0.1419819291675521,-0.4908288785533628,0.5084844082748555,-0.4768219781098631,0.5226580332404884,0.0,0.0,0.0,124,1.4613678719765958e-11,0,1735643777088322877,map,0.9798603882142328,-0.0196588181994421,0.2419629733463176,-0.7735222378175391,0.285038949853479,-0.1855507742806114,0.5347775751020589,0.0,0.0,0.0,125,8.856979889673097e-05,0,1735643777088343858,map,0.9819535211834612,-0.0124620921315654,0.1434763672914957,-0.5016457754480735,0.4964037863399598,-0.5008429397931139,0.5010899585322421,0.0,0.0,0.0,126,6.2184960719617395e-06,0,1735644242188269615,map,0.9732822750558732,0.3275442375301803,0.0286218994455381,-0.4885997207751324,0.4936496137383498,-0.4935551660051538,0.5234344943009255,0.0,0.0,0.0,0,1.1579762737224083e-16,0.926112877885968,-0.6895610892244003,0.4586505697376027,1.0,6.544005190035386e-05,-0.0002696610235097,-0.0009241402633275,0.0,0.0,0.0,-0.0002696610235097,0.0142268639486524,0.0010311901579397,0.0,0.0,0.0,-0.0009241402633275,0.0010311901579397,0.0136386058121357,0.0,0.0,0.0,0.0,0.0,0.0,0.0,0.0,0.0,0.0,0.0,0.0,0.0,0.0,0.0,0.0,0.0,0.0,0.0,0.0,0.0,0,0,0,1,24,,121
2.400667884,0,1735643777088230371,map,0.9749885003435126,-0.222255920167483,0.0206858746838609,-0.4918845043640227,0.5008989657907886,-0.4988944340519386,0.5081871742854923,0.0,0.0,0.0,1,0.0015366168650371357,0,1735643777088253974,map,0.9694950807931304,-0.2488766357256208,0.1484551469703166,-0.5097566889798373,0.510008120621397,-0.487067720669996,0.4927523418735608,0.0,0.0,0.0,16,0.14234361108755644,0,1735643777088270664,map,0.9807489269233678,0.0597840399802287,0.0234487328639607,-0.5040268762442361,0.5015553634091267,-0.4891701514189841,0.505085822825929,0.0,0.0,0.0,17,1.202857461963512e-08,0,1735643777088284730,map,0.9844539386566268,-0.2492864324414215,0.2343542918132645,0.4692905995015658,-0.5163789404720799,0.520257776700976,-0.4923931039713602,0.0,0.0,0.0,121,0.8559853027873521,0,1735643777088297367,map,0.9952908010004946,0.2121326563201303,0.2407082736480344,0.4980160947408114,-0.4987082719319901,0.5052920901617007,-0.4979457124082291,0.0,0.0,0.0,122,6.59746604524953e-10,0,1735643777088310956,map,0.9954425793574562,0.2121360757036102,0.1419819291675521,-0.4908288785533628,0.5084844082748555,-0.4768219781098631,0.5226580332404884,0.0,0.0,0.0,124,7.413357802606722e-11,0,1735643777088322877,map,0.984757248553681,-0.0140275070952136,0.2388842407201988,0.5189548665776083,-0.5144244980822703,0.4794668314172928,-0.4859679411225416,0.0,0.0,0.0,125,0.00012102171081860796,0,1735643777088343858,map,0.9812330881358112,-0.011642674370474,0.1420499043319297,0.5093729041950248,-0.4993365055957618,0.4911781472462405,-0.4999463234379167,0.0,0.0,0.0,126,1.3434786779554586e-05,0,1735644242188269615,map,0.9732822750558732,0.3275442375301803,0.0286218994455381,-0.4885997207751324,0.4936496137383498,-0.4935551660051538,0.5234344943009255,0.0,0.0,0.0,0,1.2714510399889362e-15,0.9262438655529952,-0.682969035730897,0.4552907684607758,1.0,6.323423627825727e-05,-0.0002381511175765,-0.0008977368735366,0.0,0.0,0.0,-0.0002381511175765,0.0147007134529754,0.0004583907977569,0.0,0.0,0.0,-0.0008977368735366,0.0004583907977569,0.0133639799305247,0.0,0.0,0.0,0.0,0.0,0.0,0.0,0.0,0.0,0.0,0.0,0.0,0.0,0.0,0.0,0.0,0.0,0.0,0.0,0.0,0.0,0,0,0,1,25,,121
2.500840027,0,1735643777088230371,map,0.9749885003435126,-0.222255920167483,0.0206858746838609,-0.4918845043640227,0.5008989657907886,-0.4988944340519386,0.5081871742854923,0.0,0.0,0.0,1,0.003036303035260842,0,1735643777088253974,map,0.9722133104501068,-0.2489997622173244,0.1469698915131296,-0.5127162083995045,0.5048725690600738,-0.4795767502752714,0.5022269599001298,0.0,0.0,0.0,16,0.1706721926617934,0,1735643777088270664,map,0.9807489269233678,0.0597840399802287,0.0234487328639607,-0.5040268762442361,0.5015553634091267,-0.4891701514189841,0.505085822825929,0.0,0.0,0.0,17,7.460260383101439e-08,0,1735643777088284730,map,0.9846296359116125,-0.2490763394867676,0.2339137614704874,-0.4810975589237936,0.5114679446072528,-0.5019538578166812,0.5049633700178161,0.0,0.0,0.0,121,0.8260189037660347,0,1735643777088297367,map,0.9952908010004946,0.2121326563201303,0.2407082736480344,0.4980160947408114,-0.4987082719319901,0.5052920901617007,-0.4979457124082291,0.0,0.0,0.0,122,2.82493076138244e-09,0,1735643777088310956,map,0.9954425793574562,0.2121360757036102,0.1419819291675521,-0.4908288785533628,0.5084844082748555,-0.4768219781098631,0.5226580332404884,0.0,0.0,0.0,124,5.158872261657423e-10,0,1735643777088322877,map,0.982569408923276,-0.0143335112524833,0.2386698045436661,0.5049255418249295,-0.5043833733254939,0.4911344962364304,-0.499434196398469,0.0,0.0,0.0,125,0.0002357815799265561,0,1735643777088343858,map,0.9781777683880376,-0.0110646868715341,0.1415934781451201,-0.5015110406863622,0.4964429924756965,-0.4991906775599086,0.5028316803153281,0.0,0.0,0.0,126,3.674101353495247e-05,0,1735644242188269615,map,0.9732822750558732,0.3275442375301803,0.0286218994455381,-0.4885997207751324,0.4936496137383498,-0.4935551660051538,0.5234344943009255,0.0,0.0,0.0,0,2.7757277832961557e-14,0.9265119756264948,-0.6761396123512686,0.4498246400215858,1.0,6.259922555535436e-05,-0.0001832155291014,-0.0008998466346865,0.0,0.0,0.0,-0.0001832155291014,0.015301326989547,-0.0004925022515077,0.0,0.0,0.0,-0.0008998466346865,-0.0004925022515077,0.0135969447052706,0.0,0.0,0.0,0.0,0.0,0.0,0.0,0.0,0.0,0.0,0.0,0.0,0.0,0.0,0.0,0.0,0.0,0.0,0.0,0.0,0.0,0,0,0,1,26,,121
