%time,field.boxes0.header.seq,field.boxes0.header.stamp,field.boxes0.header.frame_id,field.boxes0.pose.position.x,field.boxes0.pose.position.y,field.boxes0.pose.position.z,field.boxes0.pose.orientation.x,field.boxes0.pose.orientation.y,field.boxes0.pose.orientation.z,field.boxes0.pose.orientation.w,field.boxes0.scale.x,field.boxes0.scale.y,field.boxes0.scale.z,field.boxes0.id,field.boxes0.pdf,field.boxes1.header.seq,field.boxes1.header.stamp,field.boxes1.header.frame_id,field.boxes1.pose.position.x,field.boxes1.pose.position.y,field.boxes1.pose.position.z,field.boxes1.pose.orientation.x,field.boxes1.pose.orientation.y,field.boxes1.pose.orientation.z,field.boxes1.pose.orientation.w,field.boxes1.scale.x,field.boxes1.scale.y,field.boxes1.scale.z,field.boxes1.id,field.boxes1.pdf,field.boxes2.header.seq,field.boxes2.header.stamp,field.boxes2.header.frame_id,field.boxes2.pose.position.x,field.boxes2.pose.position.y,field.boxes2.pose.position.z,field.boxes2.pose.orientation.x,field.boxes2.pose.orientation.y,field.boxes2.pose.orientation.z,field.boxes2.pose.orientation.w,field.boxes2.scale.x,field.boxes2.scale.y,field.boxes2.scale.z,field.boxes2.id,field.boxes2.pdf,field.boxes3.header.seq,field.boxes3.header.stamp,field.boxes3.header.frame_id,field.boxes3.pose.position.x,field.boxes3.pose.position.y,field.boxes3.pose.position.z,field.boxes3.pose.orientation.x,field.boxes3.pose.orientation.y,field.boxes3.pose.orientation.z,field.boxes3.pose.orientation.w,field.boxes3.scale.x,field.boxes3.scale.y,field.boxes3.scale.z,field.boxes3.id,field.boxes3.pdf,field.boxes4.header.seq,field.boxes4.header.stamp,field.boxes4.header.frame_id,field.boxes4.pose.position.x,field.boxes4.pose.position.y,field.boxes4.pose.position.z,field.boxes4.pose.orientation.x,field.boxes4.pose.orientation.y,field.boxes4.pose.orientation.z,field.boxes4.pose.orientation.w,field.boxes4.scale.x,field.boxes4.scale.y,field.boxes4.scale.z,field.boxes4.id,field.boxes4.pdf,field.boxes5.header.seq,field.boxes5.header.stamp,field.boxes5.header.frame_id,field.boxes5.pose.position.x,field.boxes5.pose.position.y,field.boxes5.pose.position.z,field.boxes5.pose.orientation.x,field.boxes5.pose.orientation.y,field.boxes5.pose.orientation.z,field.boxes5.pose.orientation.w,field.boxes5.scale.x,field.boxes5.scale.y,field.boxes5.scale.z,field.boxes5.id,field.boxes5.pdf,field.boxes6.header.seq,field.boxes6.header.stamp,field.boxes6.header.frame_id,field.boxes6.pose.position.x,field.boxes6.pose.position.y,field.boxes6.pose.position.z,field.boxes6.pose.orientation.x,field.boxes6.pose.orientation.y,field.boxes6.pose.orientation.z,field.boxes6.pose.orientation.w,field.boxes6.scale.x,field.boxes6.scale.y,field.boxes6.scale.z,field.boxes6.id,field.boxes6.pdf,field.boxes7.header.seq,field.boxes7.header.stamp,field.boxes7.header.frame_id,field.boxes7.pose.position.x,field.boxes7.pose.position.y,field.boxes7.pose.position.z,field.boxes7.pose.orientation.x,field.boxes7.pose.orientation.y,field.boxes7.pose.orientation.z,field.boxes7.pose.orientation.w,field.boxes7.scale.x,field.boxes7.scale.y,field.boxes7.scale.z,field.boxes7.id,field.boxes7.pdf,field.boxes8.header.seq,field.boxes8.header.stamp,field.boxes8.header.frame_id,field.boxes8.pose.position.x,field.boxes8.pose.position.y,field.boxes8.pose.position.z,field.boxes8.pose.orientation.x,field.boxes8.pose.orientation.y,field.boxes8.pose.orientation.z,field.boxes8.pose.orientation.w,field.boxes8.scale.x,field.boxes8.scale.y,field.boxes8.scale.z,field.boxes8.id,field.boxes8.pdf,field.pose.pose.position.x,field.pose.pose.position.y,field.pose.pose.position.z,field.pose.pose.orientation.w,field.pose.covariance0,field.pose.covariance1,field.pose.covariance2,field.pose.covariance3,field.pose.covariance4,field.pose.covariance5,field.pose.covariance6,field.pose.covariance7,field.pose.covariance8,field.pose.covariance9,field.pose.covariance10,field.pose.covariance11,field.pose.covariance12,field.pose.covariance13,field.pose.covariance14,field.pose.covariance15,field.pose.covariance16,field.pose.covariance17,field.pose.covariance18,field.pose.covariance19,field.pose.covariance20,field.pose.covariance21,field.pose.covariance22,field.pose.covariance23,field.pose.covariance24,field.pose.covariance25,field.pose.covariance26,field.pose.covariance27,field.pose.covariance28,field.pose.covariance29,field.pose.covariance30,field.pose.covariance31,field.pose.covariance32,field.pose.covariance33,field.pose.covariance34,field.pose.covariance35,field.buttons0,field.buttons1,field.buttons2,field.buttons3,intersection_length,vacuum,desired_box
0.0,0,1735643777088230371,map,0.9827995347165132,-0.2216394094116312,0.0204673483984271,0.4815652899426988,-0.5097206550967266,0.5186903710334562,-0.4891216865845798,0.0,0.0,0.0,1,0.1111111111111111,0,1735643777088253974,map,0.9785341838150932,-0.2492218799751115,0.1481503018937212,-0.4952040296025247,0.4740076621757438,-0.5010508093866614,0.5282402783554844,0.0,0.0,0.0,16,0.1111111111111111,0,1735643777088270664,map,0.9979452351775512,0.0581579408065966,0.0215010622900742,-0.519400108145851,0.5018055059973963,-0.4726205579335656,0.5050193758929854,0.0,0.0,0.0,17,0.1111111111111111,0,1735643777088284730,map,1.011415709407148,-0.2582607062801038,0.2367020583743579,-0.3584741216354798,0.6201877917172423,-0.5936165769214878,0.3667189206007475,0.0,0.0,0.0,121,0.1111111111111111,0,1735643777088297367,map,1.0230666040267962,0.2110507960647686,0.2423965031738717,-0.5131528955518552,0.4735648869398511,-0.4898027153208267,0.5220188729430558,0.0,0.0,0.0,122,0.1111111111111111,0,1735643777088310956,map,1.0037547920260057,0.2060179497451431,0.1444749826055747,-0.4823419669761676,0.5032957778579061,-0.4871995660476172,0.5260001613374092,0.0,0.0,0.0,124,0.1111111111111111,0,1735643777088322877,map,1.005120110666102,-0.0267002137227431,0.2423659520094352,-0.5013355091231215,0.5058690818281927,-0.4973478312258792,0.4953829974045095,0.0,0.0,0.0,125,0.1111111111111111,0,1735643777088343858,map,0.9895092492468234,-0.0225354042257761,0.1460388730881665,-0.4770524231836859,0.4600922316147378,-0.5181619911046914,0.5405962217004167,0.0,0.0,0.0,126,0.1111111111111111,0,1735644242188269615,map,0.9802799577328069,0.334600789379865,0.0238785876250375,-0.5063236829544173,0.4849624878691457,-0.4739240495888384,0.532769845862695,0.0,0.0,0.0,0,0.1111111111111111,0.9551221726916264,-0.0113262325135373,-0.1199275923911087,1.0,0.0,0.0,0.0,0.0,0.0,0.0,0.0,0.0,0.0,0.0,0.0,0.0,0.0,0.0,0.0,0.0,0.0,0.0,0.0,0.0,0.0,0.0,0.0,0.0,0.0,0.0,0.0,0.0,0.0,0.0,0.0,0.0,0.0,0.0,0.0,0.0,0,0,0,1,1,,17
0.099115732,0,1735643777088230371,map,0.9709090374777374,-0.2190614736050489,0.0245273995950588,-0.502416154692184,0.4856574385884263,-0.4791634830433052,0.531147076021187,0.0,0.0,0.0,1,,0,1735643777088253974,map,0.9794450210355488,-0.2491689209302368,0.1482558867350427,-0.5050999713007658,0.4775583213236072,-0.4858990363676346,0.5298246834411815,0.0,0.0,0.0,16,,0,1735643777088270664,map,0.9885440348007456,0.0559043585397349,0.0243440733708885,-0.4892883284288926,0.5044105097190208,-0.5010048043503346,0.505134789304935,0.0,0.0,0.0,17,,0,1735643777088284730,map,1.0105966402226774,-0.2582220334524242,0.2365567668415436,-0.494397157652055,0.5052493110012379,-0.5010803181128088,0.4992124788487462,0.0,0.0,0.0,121,,0,1735643777088297367,map,1.0213127365899926,0.2097107119180293,0.2422256997117914,-0.6422969041496676,0.2649876752550482,-0.2774057542553974,0.6635376902547979,0.0,0.0,0.0,122,,0,1735643777088310956,map,1.007362591234206,0.206995628348378,0.1441441385367693,-0.489795835484529,0.4955061334091089,-0.4869872457598563,0.5267040286187261,0.0,0.0,0.0,124,,0,1735643777088322877,map,0.9934667174210214,-0.0283514352500463,0.2421514857227431,0.5631873779747915,-0.5257637441353096,0.4376457257873227,-0.4635285118984455,0.0,0.0,0.0,125,,0,1735643777088343858,map,0.9907737280093972,-0.0225158209836633,0.1461976061778177,-0.4582484319227392,0.4712084365369042,-0.5453765911948519,0.5201301354021706,0.0,0.0,0.0,126,,0,1735644242188269615,map,0.9734303340045544,0.3289982424905814,0.0263555556452768,-0.506674028867557,0.4998382540560928,-0.4878939638600407,0.505373751081526,0.0,0.0,0.0,0,,0.954595923925284,-0.0149814865717321,-0.1112628855686767,1.0,2.7693776407699935e-07,1.923572938793406e-06,-4.559791276024288e-06,0.0,0.0,0.0,1.923572938793406e-06,1.33608822299494e-05,-3.1671704775762804e-05,0.0,0.0,0.0,-4.559791276024288e-06,-3.1671704775762804e-05,7.507714431870083e-05,0.0,0.0,0.0,0.0,0.0,0.0,0.0,0.0,0.0,0.0,0.0,0.0,0.0,0.0,0.0,0.0,0.0,0.0,0.0,0.0,0.0,0,0,0,1,2,,17
0.198825727,0,1735643777088230371,map,0.9787702136473388,-0.2204890112369244,0.0216824462322718,-0.5000998462660282,0.498211834403011,-0.4898450385660401,0.5116023358212082,0.0,0.0,0.0,1,,0,1735643777088253974,map,0.988007588522622,-0.2513244939540969,0.1471341027981554,-0.5032224000789545,0.5092965895491781,-0.4949518896007614,0.4923482780644084,0.0,0.0,0.0,16,,0,1735643777088270664,map,0.981089989096488,0.0538624572524089,0.0268083136791812,0.7507824768191889,-0.4762358015297927,0.2348063866387588,-0.3929263221472568,0.0,0.0,0.0,17,,0,1735643777088284730,map,1.0170435629640957,-0.2596981856089241,0.2363530365433234,-0.4824706749840861,0.5169696793744564,-0.4939640978051109,0.505928718761304,0.0,0.0,0.0,121,,0,1735643777088297367,map,1.0224665945828395,0.2104846593822445,0.241917971513079,-0.5222749183813635,0.4850319093383217,-0.4908763565488173,0.5010123343139571,0.0,0.0,0.0,122,,0,1735643777088310956,map,1.009061617935735,0.2075849228709803,0.1434818504161716,-0.4855455689298267,0.4966564198994634,-0.4818823116852839,0.5341978460740044,0.0,0.0,0.0,124,,0,1735643777088322877,map,0.9975539933268968,-0.0279385359881464,0.2417155567270198,-0.5741963784123674,0.4812399204103009,-0.4199015908419737,0.5122395065103708,0.0,0.0,0.0,125,,0,1735643777088343858,map,0.9949742984126624,-0.0220085984830765,0.1455488970947697,-0.4587482992924277,0.4744347302813913,-0.5454352244931976,0.5166837528713125,0.0,0.0,0.0,126,,0,1735644242188269615,map,0.9788698412479582,0.3323899254592725,0.0242912151417183,-0.5093993365562746,0.5001881897636037,-0.4841006566942967,0.5059354157648849,0.0,0.0,0.0,0,,0.954542185584561,-0.0142758557892616,-0.1106065123105338,1.0,1.9040079457863018e-07,1.2065431043696957e-06,-3.1104056702578067e-06,0.0,0.0,0.0,1.2065431043696957e-06,9.903084422306138e-06,-2.0188155499036303e-05,0.0,0.0,0.0,-3.1104056702578067e-06,-2.0188155499036303e-05,5.09130812538109e-05,0.0,0.0,0.0,0.0,0.0,0.0,0.0,0.0,0.0,0.0,0.0,0.0,0.0,0.0,0.0,0.0,0.0,0.0,0.0,0.0,0.0,0,0,0,1,3,,17
0.299722163,0,1735643777088230371,map,0.9797259993891656,-0.2201479928834464,0.021980176964081,-0.4795849623136906,0.75437965782198,-0.3751901660166931,0.2452385269718735,0.0,0.0,0.0,1,0.0,0,1735643777088253974,map,0.978993623718022,-0.2485264278508694,0.1476816405663748,-0.5262942337443063,0.4939984849499613,-0.4678710862322914,0.5099769828751604,0.0,0.0,0.0,16,0.0,0,1735643777088270664,map,0.9909439030539612,0.0558839830092369,0.0233833437768865,-0.4870222004209399,0.4916880740694498,-0.5017098883441805,0.5189791923118791,0.0,0.0,0.0,17,1.0,0,1735643777088284730,map,1.0127129366107042,-0.2580005370059077,0.2360746463113344,-0.343462848038476,0.6215943170107715,-0.6043984896825448,0.3610488093688582,0.0,0.0,0.0,121,0.0,0,1735643777088297367,map,1.0188002426684006,0.2083471470978977,0.2415067081694598,-0.5107682777126027,0.4928029905957091,-0.4898093433241458,0.5063079953297163,0.0,0.0,0.0,122,0.0,0,1735643777088310956,map,1.0074264541192566,0.206615360091142,0.1434975842822425,-0.4829802143659176,0.4955656284867419,-0.4820689384599043,0.5373586874385986,0.0,0.0,0.0,124,0.0,0,1735643777088322877,map,1.0021297030067626,-0.0279292544439367,0.2415586088333836,0.5596615400108151,-0.5004112934427879,0.43783674342835,-0.4946377301942256,0.0,0.0,0.0,125,0.0,0,1735643777088343858,map,0.9962429339335191,-0.0223781891425904,0.1452784780462501,0.6440630124173617,-0.4729657461035465,0.3594744471188919,-0.481938129760611,0.0,0.0,0.0,126,0.0,0,1735644242188269615,map,0.9786159343755804,0.3316468162952665,0.024491751129495,-0.5047804184690524,0.4913146527105114,-0.4831182316583112,0.5200032840295373,0.0,0.0,0.0,0,0.0,0.9536719649795916,-0.0112862828776154,-0.098191043279546,1.0,2.4146522998735783e-06,-6.899856515040773e-06,-3.4745395166066075e-05,0.0,0.0,0.0,-6.899856515040773e-06,3.4239951898875365e-05,9.620973307699154e-05,0.0,0.0,0.0,-3.4745395166066075e-05,9.620973307699154e-05,0.0005006164247186,0.0,0.0,0.0,0.0,0.0,0.0,0.0,0.0,0.0,0.0,0.0,0.0,0.0,0.0,0.0,0.0,0.0,0.0,0.0,0.0,0.0,0,0,0,1,4,,17
0.399594684,0,1735643777088230371,map,0.987271329474284,-0.2226585556487295,0.0188492962265771,-0.48244422810031,0.5248408943101869,-0.5149999641675165,0.4759880663838498,0.0,0.0,0.0,1,0.0,0,1735643777088253974,map,0.9798341687359936,-0.2494457934633756,0.147948566861948,-0.523405551658294,0.4836355829529798,-0.4686362777156099,0.5220376333214555,0.0,0.0,0.0,16,0.0,0,1735643777088270664,map,0.9771096598058384,0.053118703647765,0.0275562718542688,-0.479403199024801,0.4978687247277226,-0.509725842340781,0.5123269184346647,0.0,0.0,0.0,17,1.0,0,1735643777088284730,map,1.0122148248770857,-0.2592561311031465,0.2369020751645367,-0.494929020637553,0.506893269584466,-0.4907894417036962,0.5071786684127171,0.0,0.0,0.0,121,0.0,0,1735643777088297367,map,1.008591719256083,0.2044625447142827,0.241762239428478,-0.4902931565957162,0.4849674654404173,-0.5093535257371588,0.5147602974966424,0.0,0.0,0.0,122,0.0,0,1735643777088310956,map,1.0024949872083109,0.2051972172448739,0.1443169258605905,-0.4770382003448398,0.4974239191832737,-0.4921833261876174,0.5317514207399936,0.0,0.0,0.0,124,0.0,0,1735643777088322877,map,1.006448086686739,-0.0270422374193939,0.2426457553454139,0.5026219931734823,-0.5020663672438018,0.4959008475882882,-0.4993824628700383,0.0,0.0,0.0,125,0.0,0,1735643777088343858,map,1.0040070726448072,-0.021331466247561,0.1443523837043521,0.6026430073812041,-0.5096814437797005,0.4018292579659883,-0.4643053725337251,0.0,0.0,0.0,126,0.0,0,1735644242188269615,map,0.9720162340232066,0.3283787390976032,0.0259850043292264,-0.4985140810487546,0.4944487509916336,-0.4820264250695957,0.5240750606292526,0.0,0.0,0.0,0,0.0,0.952295712363127,-0.0044087238528995,-0.0790111166646276,1.0,9.508006897202428e-06,-4.338091962265478e-05,-0.0001333820128823,0.0,0.0,0.0,-4.338091962265478e-05,0.0002165952340729,0.0006046120959968,0.0,0.0,0.0,-0.0001333820128823,0.0006046120959968,0.0018719714795895,0.0,0.0,0.0,0.0,0.0,0.0,0.0,0.0,0.0,0.0,0.0,0.0,0.0,0.0,0.0,0.0,0.0,0.0,0.0,0.0,0.0,0,0,0,1,5,,17
0.499741005,0,1735643777088230371,map,0.9865800084324128,-0.2223781480006329,0.0195991228790538,-0.491929782612268,0.5042225141962043,-0.5011581941540776,0.5025984576069938,0.0,0.0,0.0,1,0.0,0,1735643777088253974,map,0.9812437368441396,-0.2494662399035161,0.1480056558668765,-0.5172062345392241,0.4838020711671384,-0.4827249713939439,0.5151794530849032,0.0,0.0,0.0,16,0.0,0,1735643777088270664,map,0.9866095781005512,0.0554646367249587,0.0248998463061279,-0.4823729788470272,0.4966598822415136,-0.5059412951438499,0.5144595965848577,0.0,0.0,0.0,17,1.0,0,1735643777088284730,map,1.0100313304273305,-0.2588887816129068,0.2370326396477838,-0.5083402993907503,0.4885615597435018,-0.4761847376949841,0.5254958020219364,0.0,0.0,0.0,121,0.0,0,1735643777088297367,map,1.0086156859049762,0.2039605088972109,0.2423510177535654,-0.6250824122865508,0.2420763399263011,-0.2654190406985774,0.6929817864363818,0.0,0.0,0.0,122,0.0,0,1735643777088310956,map,1.0066192432113277,0.2071103889661029,0.1442433394133408,-0.4865803052329129,0.4998688243719633,-0.4830040191081291,0.5292238491468713,0.0,0.0,0.0,124,0.0,0,1735643777088322877,map,1.0000824213250978,-0.0277549665310047,0.2426048469124931,-0.5014345504174715,0.4993751722403722,-0.4974816060098634,0.5016970008674295,0.0,0.0,0.0,125,0.0,0,1735643777088343858,map,0.9985259992530384,-0.0219149846790568,0.1453432593624546,0.5091479680443781,-0.5017056761294933,0.4918992122441994,-0.4970864373217851,0.0,0.0,0.0,126,0.0,0,1735644242188269615,map,0.97832491894996,0.3325943531835511,0.0248293610293991,-0.5063052839735506,0.4916135551848181,-0.4816096198153618,0.5196376101479844,0.0,0.0,0.0,0,0.0,0.9509540187524596,0.0012634512976775,-0.060094169072067,1.0,1.6924047805531454e-05,-7.420237214279246e-05,-0.0002380554159933,0.0,0.0,0.0,-7.420237214279246e-05,0.0003413638830882,0.0010403446136271,0.0,0.0,0.0,-0.0002380554159933,0.0010403446136271,0.0033492307640896,0.0,0.0,0.0,0.0,0.0,0.0,0.0,0.0,0.0,0.0,0.0,0.0,0.0,0.0,0.0,0.0,0.0,0.0,0.0,0.0,0.0,0,0,0,1,6,,17
0.5986359,0,1735643777088230371,map,0.989342958334662,-0.2235822611504966,0.0181249228432359,-0.491482368275115,0.506165875780953,-0.4976852436021765,0.5045300646841846,0.0,0.0,0.0,1,0.0,0,1735643777088253974,map,0.9855674942050172,-0.2512333420889254,0.1474362121472154,-0.5089810417860022,0.4849913837654798,-0.4834829629278335,0.5215034816127351,0.0,0.0,0.0,16,0.0,0,1735643777088270664,map,0.9868769639042714,0.0546451498112018,0.0244742162471896,-0.4917195080564245,0.4911112122781058,-0.4984999565881007,0.5181886682021708,0.0,0.0,0.0,17,0.9999999999964876,0,1735643777088284730,map,1.0092985224594733,-0.2589400686157282,0.2367976658036126,-0.3088235361140741,0.6339904980826797,-0.6283227191024714,0.3284731839017483,0.0,0.0,0.0,121,0.0,0,1735643777088297367,map,1.011141993162934,0.2051502450811673,0.2417926435545705,-0.5116575785811744,0.4919434036336489,-0.4886150819885674,0.5073987697611183,0.0,0.0,0.0,122,0.0,0,1735643777088310956,map,1.0012693430371795,0.2041989684633535,0.1444158911059442,-0.4755496519393528,0.4968896019838851,-0.4935080763193864,0.5323561125677015,0.0,0.0,0.0,124,0.0,0,1735643777088322877,map,1.0025649903501246,-0.0282319700836341,0.2422291029032816,-0.5210680370966586,0.5363001146251759,-0.473900443985954,0.4650684433061159,0.0,0.0,0.0,125,1.646058071932662e-27,0,1735643777088343858,map,0.9936311024808128,-0.0228668542145809,0.1455307861210245,0.5080729191319778,-0.5014199833797053,0.4933316579394201,-0.4970551120217453,0.0,0.0,0.0,126,3.512498212120995e-12,0,1735644242188269615,map,0.9798739484634934,0.3323407518592924,0.0234802417585305,-0.4938858688871891,0.5067949430814279,-0.4900340036558077,0.5090209322235172,0.0,0.0,0.0,0,0.0,0.9502816121435405,0.0006493185239829,-0.0498818006130853,1.0,1.721911057676458e-05,-6.1124351650534e-05,-0.00024524868369,0.0,0.0,0.0,-6.1124351650534e-05,0.0002948605684579,0.0008540934535313,0.0,0.0,0.0,-0.00024524868369,0.0008540934535313,0.0034965240436146,0.0,0.0,0.0,0.0,0.0,0.0,0.0,0.0,0.0,0.0,0.0,0.0,0.0,0.0,0.0,0.0,0.0,0.0,0.0,0.0,0.0,0,0,0,1,7,,17
0.700402742,0,1735643777088230371,map,0.9853789243615556,-0.2229074038822278,0.0194120945401919,-0.4925879085111594,0.5098106405419464,-0.4934486131966629,0.5039431806395462,0.0,0.0,0.0,1,0.0,0,1735643777088253974,map,0.9833104669860444,-0.2507544701156488,0.1469990397429375,-0.5044421794470303,0.4862530962565533,-0.4867707224576563,0.5216802447224707,0.0,0.0,0.0,16,0.0,0,1735643777088270664,map,0.9891894813311825,0.0546849241309056,0.0238619129183919,-0.4986112720117105,0.4943600594936235,-0.488459219680187,0.5180757876119556,0.0,0.0,0.0,17,0.9983311911146704,0,1735643777088284730,map,1.0130176067949164,-0.2607489206588788,0.2367451689554604,0.2916292366583077,-0.5897782806002061,0.670012327788089,-0.3437985582726369,0.0,0.0,0.0,121,0.0,0,1735643777088297367,map,1.0089012875989836,0.2036699436304556,0.2421067317995499,-0.5049571191981742,0.4903193440270288,-0.4954653834928489,0.5090376237610236,0.0,0.0,0.0,122,4.855813659800767e-25,0,1735643777088310956,map,1.0020691318493684,0.2040575643436128,0.1445042796182483,-0.477060822827823,0.4966302456135882,-0.4947737516266869,0.5300663214786253,0.0,0.0,0.0,124,2.731830737901916e-27,0,1735643777088322877,map,0.9954491601090568,-0.0294403285185098,0.2421349382228711,-0.5342547644961826,0.5475470537563686,-0.4584028837818284,0.4523614336748352,0.0,0.0,0.0,125,3.3081497126708315e-09,0,1735643777088343858,map,0.9961140018751056,-0.0233680247727443,0.1453196024898661,0.6341808438925532,-0.5049482193008409,0.3705713468519644,-0.4533418466863169,0.0,0.0,0.0,126,0.0016688055771798447,0,1735644242188269615,map,0.9798739484634934,0.3323407518592924,0.0234802417585305,-0.4938858688871891,0.5067949430814279,-0.4900340036558077,0.5090209322235172,0.0,0.0,0.0,0,0.0,0.9499371919702276,-0.0030311335314381,-0.0439381709720005,1.0,1.5897098545161892e-05,-4.461045415063874e-05,-0.0002289223398864,0.0,0.0,0.0,-4.461045415063874e-05,0.0003528230887264,0.0005942050643355,0.0,0.0,0.0,-0.0002289223398864,0.0005942050643355,0.0033067456713354,0.0,0.0,0.0,0.0,0.0,0.0,0.0,0.0,0.0,0.0,0.0,0.0,0.0,0.0,0.0,0.0,0.0,0.0,0.0,0.0,0.0,0,0,0,1,8,,17
0.799887551,0,1735643777088230371,map,0.98692072285107,-0.2256221843172977,0.0183228598455744,-0.4931209762093931,0.5241823254630319,-0.5002080014753989,0.4815148468681423,0.0,0.0,0.0,1,1.2164918136546316e-19,0,1735643777088253974,map,0.9796213777750252,-0.2521972918310948,0.1477236098529524,-0.5003619896445609,0.4798441426323169,-0.4932478371630502,0.5254465236676008,0.0,0.0,0.0,16,5.2138315775611325e-31,0,1735643777088270664,map,0.9757155559840658,0.0512102475390375,0.0274525414696561,-0.4760619959111734,0.5010873880413643,-0.5125384829145573,0.5094906369371258,0.0,0.0,0.0,17,0.9898383011603599,0,1735643777088284730,map,1.0071855622913797,-0.2623029718892071,0.2377009653472144,-0.5002158589555322,0.5000785953092429,-0.4777829165393079,0.5209884620853967,0.0,0.0,0.0,121,2.5171263739337116e-39,0,1735643777088297367,map,1.0044395611341677,0.2027737944439197,0.2426912628461609,-0.5015755216075225,0.4896812335595648,-0.4978211729673069,0.5106940036550066,0.0,0.0,0.0,122,2.9069493797549034e-16,0,1735643777088310956,map,0.9994929695343318,0.2037497247300562,0.1451147067898365,-0.4828365897438469,0.5093123204887514,-0.487446089068218,0.5194863790851451,0.0,0.0,0.0,124,3.622712503097156e-15,0,1735643777088322877,map,0.9985903083752384,-0.0304019797303318,0.2431650036707232,-0.5549698214392299,0.4495237151211593,-0.438739637693061,0.5453846873101058,0.0,0.0,0.0,125,6.989468020687209e-07,0,1735643777088343858,map,0.9901572846340568,-0.0248987477466016,0.1460937892479804,-0.4838638628663311,0.45951807472239,-0.5093591736809556,0.5433894859146202,0.0,0.0,0.0,126,0.010160999892834177,0,1735644242188269615,map,0.9798739484634934,0.3323407518592924,0.0234802417585305,-0.4938858688871891,0.5067949430814279,-0.4900340036558077,0.5090209322235172,0.0,0.0,0.0,0,1.0047740166058325e-42,0.9499224872164554,-0.009253960577963,-0.0424001386255947,1.0,1.413248410063416e-05,-3.892169590689622e-05,-0.000203667455439,0.0,0.0,0.0,-3.892169590689622e-05,0.0006234091349201,0.0004516150051402,0.0,0.0,0.0,-0.000203667455439,0.0004516150051402,0.0029582538336202,0.0,0.0,0.0,0.0,0.0,0.0,0.0,0.0,0.0,0.0,0.0,0.0,0.0,0.0,0.0,0.0,0.0,0.0,0.0,0.0,0.0,0,0,0,1,9,,17
0.900466337,0,1735643777088230371,map,0.9783023279581404,-0.2245150231694565,0.0198508387626247,-0.4869493014026881,0.5021834112856709,-0.498927884228442,0.5116279562653424,0.0,0.0,0.0,1,8.433455972023094e-11,0,1735643777088253974,map,0.981600110359761,-0.2540912844169142,0.146411584836385,-0.4874442966551623,0.4791145230682037,-0.5077231420208923,0.5244659593337917,0.0,0.0,0.0,16,1.5207197690938471e-18,0,1735643777088270664,map,0.9788095074193532,0.0510773247083577,0.0251636198267324,-0.4896980345982829,0.4995104228456006,-0.5000843492221513,0.5104907599969324,0.0,0.0,0.0,17,0.9874535414447647,0,1735643777088284730,map,1.0166849119868493,-0.2666534916203319,0.2376697324863815,0.3006533146353841,-0.5914660244242805,0.6605004025113212,-0.3514466454995351,0.0,0.0,0.0,121,4.266815044281817e-25,0,1735643777088297367,map,1.0115451362647063,0.2058908059282204,0.2427467519032584,-0.4959493008945249,0.4753202430779588,-0.5020361992976262,0.5254185113386626,0.0,0.0,0.0,122,1.1515304169245526e-13,0,1735643777088310956,map,1.001007978403852,0.2041220161929886,0.1438835366892802,-0.4751332867385204,0.5008546696684263,-0.4881019979592779,0.5339938195265405,0.0,0.0,0.0,124,4.8538072078069707e-11,0,1735643777088322877,map,0.9914080594395108,-0.0318610640194672,0.2421241541591967,0.585195410907364,-0.4932347978274806,0.4119473943347007,-0.4945352460299432,0.0,0.0,0.0,125,1.070901541011724e-06,0,1735643777088343858,map,0.992641560481436,-0.0253302529043471,0.1448590329220272,-0.4798575719726564,0.4564729665551986,-0.5123871267840412,0.5466521505773104,0.0,0.0,0.0,126,0.012545387520706375,0,1735644242188269615,map,0.9798739484634934,0.3323407518592924,0.0234802417585305,-0.4938858688871891,0.5067949430814279,-0.4900340036558077,0.5090209322235172,0.0,0.0,0.0,0,1.39550898621044e-26,0.9499765495860376,-0.0161470401394838,-0.0417513178007253,1.0,1.2745540348814303e-05,-3.838343224953529e-05,-0.0001829850187741,0.0,0.0,0.0,-3.838343224953529e-05,0.0009886991340012,0.0003662021425232,0.0,0.0,0.0,-0.0001829850187741,0.0003662021425232,0.0026662171664232,0.0,0.0,0.0,0.0,0.0,0.0,0.0,0.0,0.0,0.0,0.0,0.0,0.0,0.0,0.0,0.0,0.0,0.0,0.0,0.0,0.0,0,0,0,1,10,,17
0.999139885,0,1735643777088230371,map,0.9776723348569946,-0.2255440702161647,0.0192821282763099,-0.4912396238326099,0.4949241545751431,-0.5018138803076954,0.5117778255507062,0.0,0.0,0.0,1,4.0143892641204885e-08,0,1735643777088253974,map,0.974944353024533,-0.2530507664654807,0.1462667586899452,-0.5069011051916513,0.4769035214282521,-0.4843297797538464,0.5301310830807845,0.0,0.0,0.0,16,3.387093020554866e-14,0,1735643777088270664,map,0.9819378385117123,0.0510565162952231,0.0231727872509072,-0.4858785764681033,0.507253674253979,-0.503764962667162,0.5028285804070007,0.0,0.0,0.0,17,0.9868136426581389,0,1735643777088284730,map,1.0032636120923777,-0.2642322739458443,0.2365102633184508,-0.5029823318128028,0.5037964445320889,-0.4802895489145031,0.5123669247370326,0.0,0.0,0.0,121,1.1768706824634536e-19,0,1735643777088297367,map,1.0006953808495969,0.2002693469871666,0.2417029556147995,-0.5018780723934485,0.4870732239299377,-0.5031900642885142,0.5076197732382514,0.0,0.0,0.0,122,1.8380215786200095e-13,0,1735643777088310956,map,0.9943917861964312,0.200486738216641,0.1440666514499651,-0.4885610517326896,0.5136520108027931,-0.4842941378063761,0.5127659296545295,0.0,0.0,0.0,124,2.8732062374629165e-10,0,1735643777088322877,map,0.9886159362811052,-0.0330410455469336,0.2417764923988738,0.5413534348007757,-0.5055668967391317,0.4600349693168227,-0.4895982011370509,0.0,0.0,0.0,125,1.1657541286628253e-06,0,1735643777088343858,map,0.9836901980884294,-0.0274410141433246,0.1452048363147907,0.5092171484580826,-0.5005788759501506,0.4916784313844791,-0.4983683424737173,0.0,0.0,0.0,126,0.01318515115630163,0,1735644242188269615,map,0.9798739484634934,0.3323407518592924,0.0234802417585305,-0.4938858688871891,0.5067949430814279,-0.4900340036558077,0.5090209322235172,0.0,0.0,0.0,0,1.4772839126756257e-22,0.9499200367877798,-0.0214469134985352,-0.039781813160083,1.0,1.1618791826227804e-05,-3.1898922578435975e-05,-0.0001674630392516,0.0,0.0,0.0,-3.1898922578435975e-05,0.0011797039707663,0.0002285297869028,0.0,0.0,0.0,-0.0001674630392516,0.0002285297869028,0.0024626232729526,0.0,0.0,0.0,0.0,0.0,0.0,0.0,0.0,0.0,0.0,0.0,0.0,0.0,0.0,0.0,0.0,0.0,0.0,0.0,0.0,0.0,0,0,0,1,11,,17
1.099232863,0,1735643777088230371,map,0.981769514052122,-0.2276166735554501,0.0180852925613462,-0.4985946576226201,0.5126652141579406,-0.4870803348920232,0.5013287274274736,0.0,0.0,0.0,1,1.837225111169592e-07,0,1735643777088253974,map,0.9764840682354192,-0.2545106584473527,0.1470676853700737,-0.5124468656008762,0.4823783264308264,-0.4782289255471602,0.5253631647685643,0.0,0.0,0.0,16,8.859071100450603e-13,0,1735643777088270664,map,0.9767428761141536,0.0504204869782741,0.0254520887021322,-0.493421052108648,0.4941095372007086,-0.4931765721093191,0.5188143206444847,0.0,0.0,0.0,17,0.9792097496045058,0,1735643777088284730,map,1.003697390129608,-0.2657154166037722,0.2385014977529346,-0.4933562938800714,0.4865761839200138,-0.4922517552542472,0.5268124846469286,0.0,0.0,0.0,121,8.636352363425654e-18,0,1735643777088297367,map,0.9962482357426798,0.2001688054452653,0.2433894095295491,0.5140209707370977,-0.5003989369293556,0.4963833181426517,-0.4888629123099374,0.0,0.0,0.0,122,1.1101525783588692e-14,0,1735643777088310956,map,0.989090755468452,0.1997164725962108,0.1456642827348991,-0.4670973690276556,0.5032514972857169,-0.4994066764441934,0.5283473761173527,0.0,0.0,0.0,124,5.7607863673302855e-11,0,1735643777088322877,map,0.980350763311395,-0.0333846580068709,0.2425583995465058,-0.5213518571738985,0.5379913864081801,-0.4720956912555719,0.4646322927540173,0.0,0.0,0.0,125,2.007739022567445e-06,0,1735643777088343858,map,0.9829421096290636,-0.0268041809312979,0.1465638537216367,-0.5138553015081408,0.5250581063444422,-0.4938427805319313,0.4651731099176486,0.0,0.0,0.0,126,0.020788058875455512,0,1735644242188269615,map,0.9798739484634934,0.3323407518592924,0.0234802417585305,-0.4938858688871891,0.5067949430814279,-0.4900340036558077,0.5090209322235172,0.0,0.0,0.0,0,8.675931875784899e-23,0.949730358833482,-0.0245255009026496,-0.0362858829011975,1.0,1.104631416385508e-05,-2.281733725989697e-05,-0.0001608018958792,0.0,0.0,0.0,-2.281733725989697e-05,0.0011856500109883,9.10978425269258e-05,0.0,0.0,0.0,-0.0001608018958792,9.10978425269258e-05,0.0023918414789981,0.0,0.0,0.0,0.0,0.0,0.0,0.0,0.0,0.0,0.0,0.0,0.0,0.0,0.0,0.0,0.0,0.0,0.0,0.0,0.0,0.0,0,0,0,1,12,,17
1.198697446,0,1735643777088230371,map,0.9689544091199294,-0.2255587786002124,0.0227987531445355,-0.5035277946128818,0.4985287732941966,-0.486286233986514,0.5113262372353726,0.0,0.0,0.0,1,1.249721722141684e-07,0,1735643777088253974,map,0.9713505357104016,-0.2549780435333006,0.1494514456991595,-0.5047978375820207,0.4803578612160606,-0.4861039239784176,0.5273883231862766,0.0,0.0,0.0,16,2.4500706882376413e-13,0,1735643777088270664,map,0.969002146850198,0.0500060778236514,0.0281930404921684,-0.480402088454875,0.4986183357845237,-0.5071126944818258,0.5132546188034247,0.0,0.0,0.0,17,0.9814294132523097,0,1735643777088284730,map,0.9947196298215496,-0.2653365032840062,0.2409263840542839,-0.4936723272366946,0.4883034473891802,-0.4925498820982663,0.5246351019837807,0.0,0.0,0.0,121,1.7241386139033738e-18,0,1735643777088297367,map,0.9912257089268386,0.2014224868241202,0.2462781019085107,-0.493429626790314,0.4893370737594431,-0.5051728225799255,0.5117390457809021,0.0,0.0,0.0,122,4.640093123277501e-16,0,1735643777088310956,map,0.983474465176246,0.2004774639201805,0.148171199593653,-0.4739643927345387,0.5047564275465187,-0.4917683759487672,0.527960763397213,0.0,0.0,0.0,124,5.7888095121403485e-12,0,1735643777088322877,map,0.9741110310236868,-0.0334618200366746,0.2450341850650265,-0.5360347892831566,0.5375062162894542,-0.4580584729404141,0.4625323853481528,0.0,0.0,0.0,125,1.0183960768606088e-06,0,1735643777088343858,map,0.9790212277492896,-0.0267717066467181,0.1489561334828841,0.5126094467795289,-0.5072385363639336,0.4899552332489982,-0.4897800442154411,0.0,0.0,0.0,126,0.018569443373406953,0,1735644242188269615,map,0.9798739484634934,0.3323407518592924,0.0234802417585305,-0.4938858688871891,0.5067949430814279,-0.4900340036558077,0.5090209322235172,0.0,0.0,0.0,0,1.6477461440470725e-24,0.9496089384456912,-0.0254864030050418,-0.0342618066032591,1.0,1.03735126165675e-05,-1.9662080199856995e-05,-0.0001513816888213,0.0,0.0,0.0,-1.9662080199856995e-05,0.0011055261581938,6.075104613760459e-05,0.0,0.0,0.0,-0.0001513816888213,6.075104613760459e-05,0.0022570162912398,0.0,0.0,0.0,0.0,0.0,0.0,0.0,0.0,0.0,0.0,0.0,0.0,0.0,0.0,0.0,0.0,0.0,0.0,0.0,0.0,0.0,0,0,0,1,13,,17
1.29938643,0,1735643777088230371,map,0.9623836934618576,-0.2225516741362277,0.0241116203105291,-0.4995334570690944,0.4929307131527329,-0.4892300920480852,0.5178219330367918,0.0,0.0,0.0,1,7.16719825188584e-08,0,1735643777088253974,map,0.969930271591923,-0.2538601638002912,0.1491392490968782,-0.4976786084288874,0.4808081346296099,-0.497477552521354,0.5231210425165908,0.0,0.0,0.0,16,4.143192311881985e-14,0,1735643777088270664,map,0.9660373216943452,0.0501476532711039,0.0283791407485318,-0.4888633522661366,0.5013624034195926,-0.5031879204053983,0.5064092021345348,0.0,0.0,0.0,17,0.9885161600395216,0,1735643777088284730,map,0.9962041890401614,-0.2660568928028992,0.2414048255729811,-0.4927173734783043,0.5050676655236049,-0.4912960147105076,0.5106510247172232,0.0,0.0,0.0,121,6.88550229558636e-20,0,1735643777088297367,map,0.9884651474301752,0.2017225508662162,0.2460504641700815,-0.5189159030111082,0.4915854391739343,-0.4878358348670393,0.5010850624533879,0.0,0.0,0.0,122,1.6071668971210293e-16,0,1735643777088310956,map,0.9835101508219496,0.2026880641416855,0.1479321383568935,-0.4868185804734408,0.5019336200392231,-0.4831964653760811,0.5268695157514872,0.0,0.0,0.0,124,2.297342466881028e-12,0,1735643777088322877,map,0.9782098986351772,-0.0320990136006124,0.2457108237136495,0.5494568852523147,-0.5112819421975869,0.4510456414853589,-0.4829552113069592,0.0,0.0,0.0,125,2.905874372772329e-07,0,1735643777088343858,map,0.9770317472976988,-0.0260248708128771,0.1486560637010386,0.5913648626470998,-0.5168211498349,0.4122122389981626,-0.4618057690521312,0.0,0.0,0.0,126,0.011483477698719663,0,1735644242188269615,map,0.9798739484634934,0.3323407518592924,0.0234802417585305,-0.4938858688871891,0.5067949430814279,-0.4900340036558077,0.5090209322235172,0.0,0.0,0.0,0,5.244809418896725e-25,0.9495318537013694,-0.0236233550314514,-0.033500424802783,1.0,9.709794181162783e-06,-2.012460939701127e-05,-0.0001413316930268,0.0,0.0,0.0,-2.012460939701127e-05,0.0010716823248118,7.48520663657765e-05,0.0,0.0,0.0,-0.0001413316930268,7.48520663657765e-05,0.0021033369710648,0.0,0.0,0.0,0.0,0.0,0.0,0.0,0.0,0.0,0.0,0.0,0.0,0.0,0.0,0.0,0.0,0.0,0.0,0.0,0.0,0.0,0,0,0,1,14,,17
1.397873947,0,1735643777088230371,map,0.9668749187665692,-0.2250928970885153,0.0204613244200083,-0.4966711822069438,0.5073951637121598,-0.4925245698288029,0.5032766959850422,0.0,0.0,0.0,1,2.5092044658212774e-07,0,1735643777088253974,map,0.959325643141536,-0.2500557411614201,0.1481805470114119,-0.5129516475231544,0.4707166383293119,-0.4800648541609164,0.5337079627499406,0.0,0.0,0.0,16,2.9555150105844196e-13,0,1735643777088270664,map,0.9624077508494276,0.0499278565741898,0.0275155393163748,-0.4814136502342876,0.4999154576994246,-0.5066630106406298,0.5114860957737243,0.0,0.0,0.0,17,0.9966315966021801,0,1735643777088284730,map,0.9894006543006126,-0.2645173693962628,0.2397037247458318,-0.4959956668734895,0.4890912330021135,-0.4893674951938782,0.5246880205330259,0.0,0.0,0.0,121,1.56436539320016e-19,0,1735643777088297367,map,0.9833686808264932,0.2002698575345362,0.2443883674609702,-0.5001189138925608,0.4927640521067313,-0.5009554026485097,0.5060714825748924,0.0,0.0,0.0,122,5.283776308498686e-14,0,1735643777088310956,map,0.9778949449090222,0.2007436881233618,0.1469195297514207,-0.4876585372271984,0.5057863226274737,-0.4838998374241886,0.5217377638749665,0.0,0.0,0.0,124,6.939841596373365e-10,0,1735643777088322877,map,0.975404917418339,-0.0321112869339896,0.2445350108574994,-0.5329073240863907,0.4959640096640306,-0.4619526710080832,0.506585841493382,0.0,0.0,0.0,125,4.483709388935726e-08,0,1735643777088343858,map,0.9720729956047464,-0.0264188151252429,0.1473624095989768,-0.5321950437251933,0.4370849772591519,-0.4600287692072956,0.5604450816898365,0.0,0.0,0.0,126,0.003368106945946743,0,1735644242188269615,map,0.9798739484634934,0.3323407518592924,0.0234802417585305,-0.4938858688871891,0.5067949430814279,-0.4900340036558077,0.5090209322235172,0.0,0.0,0.0,0,1.0208776185448743e-19,0.949359885851586,-0.0187468601044315,-0.0319543563292644,1.0,9.476495748113192e-06,-3.0523373629656015e-05,-0.0001356318171525,0.0,0.0,0.0,-3.0523373629656015e-05,0.0013331596753165,0.0001754134595592,0.0,0.0,0.0,-0.0001356318171525,0.0001754134595592,0.0019965790944745,0.0,0.0,0.0,0.0,0.0,0.0,0.0,0.0,0.0,0.0,0.0,0.0,0.0,0.0,0.0,0.0,0.0,0.0,0.0,0.0,0.0,0,0,0,1,15,,17
1.499544838,0,1735643777088230371,map,0.96450909262537,-0.2230584497732908,0.0218350354668204,-0.5000301248095907,0.5039197568521014,-0.4862169744692024,0.5095368550704061,0.0,0.0,0.0,1,8.600566746953964e-06,0,1735643777088253974,map,0.959325643141536,-0.2500557411614201,0.1481805470114119,-0.5129516475231544,0.4707166383293119,-0.4800648541609164,0.5337079627499406,0.0,0.0,0.0,16,1.4507803697733413e-11,0,1735643777088270664,map,0.9639119693137306,0.0519730012162036,0.02766802675521,-0.4860522910527169,0.5078357918792915,-0.505947489631156,0.4998731004811816,0.0,0.0,0.0,17,0.9990788007649932,0,1735643777088284730,map,0.9894006543006126,-0.2645173693962628,0.2397037247458318,-0.4959956668734895,0.4890912330021135,-0.4893674951938782,0.5246880205330259,0.0,0.0,0.0,121,7.60005665677204e-18,0,1735643777088297367,map,0.9846051596045488,0.203335760146247,0.2465498520205097,-0.52098223808767,0.48619620682469,-0.4844699564037488,0.5074244942930882,0.0,0.0,0.0,122,2.564227567984835e-12,0,1735643777088310956,map,0.97556651281182,0.2015968748219039,0.1481938996712485,-0.4822888232762904,0.4966955335160535,-0.483575409289183,0.5355799300373134,0.0,0.0,0.0,124,9.587487210315248e-08,0,1735643777088322877,map,0.9754240716587091,-0.0312241831176114,0.2462845976620176,-0.5257410859439309,0.5261044053800353,-0.4682142089962834,0.4770596605082012,0.0,0.0,0.0,125,4.965620802030843e-09,0,1735643777088343858,map,0.973478205915154,-0.0253193209972414,0.1486039916579118,-0.5753460723867441,0.4566231515008083,-0.4264177323160821,0.5278637249035287,0.0,0.0,0.0,126,0.0009124978105009733,0,1735644242188269615,map,0.9798739484634934,0.3323407518592924,0.0234802417585305,-0.4938858688871891,0.5067949430814279,-0.4900340036558077,0.5090209322235172,0.0,0.0,0.0,0,1.9399736251263505e-13,0.9492096920817308,-0.0121172839259136,-0.0311059527249308,1.0,9.222587291406512e-06,-4.3551478359724326e-05,-0.0001290662026159,0.0,0.0,0.0,-4.3551478359724326e-05,0.0019091064002108,0.0002488184632126,0.0,0.0,0.0,-0.0001290662026159,0.0002488184632126,0.0018825897312075,0.0,0.0,0.0,0.0,0.0,0.0,0.0,0.0,0.0,0.0,0.0,0.0,0.0,0.0,0.0,0.0,0.0,0.0,0.0,0.0,0.0,0,0,0,1,16,,17
1.599432859,0,1735643777088230371,map,0.9690016785232358,-0.2259157575977955,0.0189416663715983,-0.5063459748538235,0.5171040530171868,-0.4849970509793246,0.4909124286916032,0.0,0.0,0.0,1,0.0001667061075987086,0,1735643777088253974,map,0.9611294311299868,-0.2505224259146728,0.1482082838561529,-0.4983471958055052,0.477053946042962,-0.4923422073279383,0.5307247458721726,0.0,0.0,0.0,16,5.409253916670082e-10,0,1735643777088270664,map,0.9617361269417986,0.0526236969734638,0.0270807702809039,-0.4937762846908451,0.5023309632507653,-0.4992830644713331,0.5045443544115608,0.0,0.0,0.0,17,0.9995086824416884,0,1735643777088284730,map,0.9894006543006126,-0.2645173693962628,0.2397037247458318,-0.4959956668734895,0.4890912330021135,-0.4893674951938782,0.5246880205330259,0.0,0.0,0.0,121,2.9333046616624786e-16,0,1735643777088297367,map,0.9831972151580234,0.2044843889216068,0.2465043557534228,-0.5144190401615163,0.4828187271766537,-0.4891982792037688,0.5127808220194008,0.0,0.0,0.0,122,5.5695980627698846e-11,0,1735643777088310956,map,0.972601385605854,0.2016773112907693,0.1477080102702433,-0.4910498957072317,0.4982530097855924,-0.4783532888280442,0.5308409076483365,0.0,0.0,0.0,124,4.540723794435576e-06,0,1735643777088322877,map,0.9778607470827524,-0.0306910008758605,0.2471036676501285,-0.4948074721663709,0.4975879141013687,-0.5015814582408429,0.505952442406957,0.0,0.0,0.0,125,7.416212156100271e-10,0,1735643777088343858,map,0.9680243678283904,-0.0251211426028865,0.1480696593668582,-0.4914245521780851,0.5205729254471426,-0.5100926664990603,0.476771654350225,0.0,0.0,0.0,126,0.0003200479498395021,0,1735644242188269615,map,0.9798739484634934,0.3323407518592924,0.0234802417585305,-0.4938858688871891,0.5067949430814279,-0.4900340036558077,0.5090209322235172,0.0,0.0,0.0,0,2.1438836013501148e-08,0.9490262607317096,-0.0035095587968101,-0.0301779996677199,1.0,9.21843511934781e-06,-6.625245294819828e-05,-0.0001241975239629,0.0,0.0,0.0,-6.625245294819828e-05,0.002982292934099,0.0003619831206105,0.0,0.0,0.0,-0.0001241975239629,0.0003619831206105,0.0017856267088057,0.0,0.0,0.0,0.0,0.0,0.0,0.0,0.0,0.0,0.0,0.0,0.0,0.0,0.0,0.0,0.0,0.0,0.0,0.0,0.0,0.0,0,0,0,1,17,,17
1.698842758,0,1735643777088230371,map,0.9575142811768312,-0.2241341742834715,0.0229386392492621,-0.5106747752571806,0.4990734237232011,-0.4739994816880251,0.5152295439983173,0.0,0.0,0.0,1,0.001375877924020642,0,1735643777088253974,map,0.9611294311299868,-0.2505224259146728,0.1482082838561529,-0.4983471958055052,0.477053946042962,-0.4923422073279383,0.5307247458721726,0.0,0.0,0.0,16,6.1566247754252156e-09,0,1735643777088270664,map,0.961878180323774,0.0523541669966287,0.0270199396121288,-0.4985022321614973,0.5097695330731877,-0.4908700062747005,0.5006767266612502,0.0,0.0,0.0,17,0.9984495157546482,0,1735643777088284730,map,0.9894006543006126,-0.2645173693962628,0.2397037247458318,-0.4959956668734895,0.4890912330021135,-0.4893674951938782,0.5246880205330259,0.0,0.0,0.0,121,2.71860738637969e-15,0,1735643777088297367,map,0.980197011495527,0.2040893467744102,0.2490707472907529,-0.5173338350240583,0.4742804869594667,-0.4882234426295566,0.5187114736495961,0.0,0.0,0.0,122,1.5135041398101966e-10,0,1735643777088310956,map,0.9684327060045564,0.200591763964271,0.1494629708439393,-0.492052669560243,0.496784026410064,-0.4764632037992603,0.5329846310239982,0.0,0.0,0.0,124,3.258291055152845e-05,0,1735643777088322877,map,0.976909369505102,-0.0329724695625931,0.2499764303098642,-0.5035590828537168,0.4838747561976683,-0.4970971492741042,0.5149639740542339,0.0,0.0,0.0,125,9.097302751131441e-11,0,1735643777088343858,map,0.966593580276306,-0.027216349580501,0.1497660489057145,-0.5676823975232753,0.4583835509030341,-0.4333556392368047,0.5289840316544648,0.0,0.0,0.0,126,0.00011321812007188406,0,1735644242188269615,map,0.9798739484634934,0.3323407518592924,0.0234802417585305,-0.4938858688871891,0.5067949430814279,-0.4900340036558077,0.5090209322235172,0.0,0.0,0.0,0,2.8798891756705122e-05,0.9488138458436686,0.0068497300822668,-0.0291863097004231,1.0,9.473341274183664e-06,-9.99797033040898e-05,-0.0001208787066478,0.0,0.0,0.0,-9.99797033040898e-05,0.0046409627166786,0.0005165173956884,0.0,0.0,0.0,-0.0001208787066478,0.0005165173956884,0.0017031438578342,0.0,0.0,0.0,0.0,0.0,0.0,0.0,0.0,0.0,0.0,0.0,0.0,0.0,0.0,0.0,0.0,0.0,0.0,0.0,0.0,0.0,0,0,0,1,18,,17
1.79902685,0,1735643777088230371,map,0.9575142811768312,-0.2241341742834715,0.0229386392492621,-0.5106747752571806,0.4990734237232011,-0.4739994816880251,0.5152295439983173,0.0,0.0,0.0,1,0.004694111156541695,0,1735643777088253974,map,0.9611294311299868,-0.2505224259146728,0.1482082838561529,-0.4983471958055052,0.477053946042962,-0.4923422073279383,0.5307247458721726,0.0,0.0,0.0,16,1.9997012708073057e-08,0,1735643777088270664,map,0.9598926518730444,0.0525570689371237,0.0279167479027875,-0.4983891488405818,0.5112931804844605,-0.4961415368680786,0.4939950559491725,0.0,0.0,0.0,17,0.9939521798331385,0,1735643777088284730,map,0.9894006543006126,-0.2645173693962628,0.2397037247458318,-0.4959956668734895,0.4890912330021135,-0.4893674951938782,0.5246880205330259,0.0,0.0,0.0,121,5.9764057423219825e-15,0,1735643777088297367,map,0.970429837232548,0.1988218697821818,0.2477105208933691,-0.5085533735972292,0.4869474646144855,-0.4938412564454232,0.5102709538478615,0.0,0.0,0.0,122,1.9719661848958517e-10,0,1735643777088310956,map,0.964668201507486,0.1991662208652256,0.1502118925113471,-0.4855680893235752,0.5024230834343325,-0.4830333924811654,0.5277058059289534,0.0,0.0,0.0,124,7.005001200821968e-05,0,1735643777088322877,map,0.9751638228266368,-0.0333860935801394,0.2509140931314557,-0.4762774092762598,0.4972917795074053,-0.5162052471521738,0.5093062519349381,0.0,0.0,0.0,125,1.9411866823863653e-11,0,1735643777088343858,map,0.9621282354063828,-0.0267808741657682,0.1504817046062777,0.4352332163728245,-0.5551347595967857,0.5630349662815585,-0.430568313740699,0.0,0.0,0.0,126,5.577708366434047e-05,0,1735644242188269615,map,0.9798739484634934,0.3323407518592924,0.0234802417585305,-0.4938858688871891,0.5067949430814279,-0.4900340036558077,0.5090209322235172,0.0,0.0,0.0,0,0.0012278617010199682,0.9485996067526652,0.0177428506843728,-0.028280293713163,1.0,9.80091535106769e-06,-0.0001367247942642,-0.0001180105422037,0.0,0.0,0.0,-0.0001367247942642,0.0065325828972004,0.0006669804150994,0.0,0.0,0.0,-0.0001180105422037,0.0006669804150994,0.001628280276867,0.0,0.0,0.0,0.0,0.0,0.0,0.0,0.0,0.0,0.0,0.0,0.0,0.0,0.0,0.0,0.0,0.0,0.0,0.0,0.0,0.0,0,0,0,1,19,,17
1.899907398,0,1735643777088230371,map,0.9575142811768312,-0.2241341742834715,0.0229386392492621,-0.5106747752571806,0.4990734237232011,-0.4739994816880251,0.5152295439983173,0.0,0.0,0.0,1,0.006344832019668498,0,1735643777088253974,map,0.9611294311299868,-0.2505224259146728,0.1482082838561529,-0.4983471958055052,0.477053946042962,-0.4923422073279383,0.5307247458721726,0.0,0.0,0.0,16,3.022000047593643e-08,0,1735643777088270664,map,0.9619621935899209,0.0525692229400925,0.0254411546159409,-0.5048447577137343,0.5101437806048067,-0.4897758409872038,0.4949795140250486,0.0,0.0,0.0,17,0.9905270500712675,0,1735643777088284730,map,0.9894006543006126,-0.2645173693962628,0.2397037247458318,-0.4959956668734895,0.4890912330021135,-0.4893674951938782,0.5246880205330259,0.0,0.0,0.0,121,7.997851802731861e-15,0,1735643777088297367,map,0.9724946064802588,0.1997940488571494,0.2472651700648628,-0.5181905634905091,0.4859524330571229,-0.4880262485835711,0.507108620917351,0.0,0.0,0.0,122,6.153056569379363e-11,0,1735643777088310956,map,0.9639045886718752,0.1983882220535746,0.148747177819996,-0.4870526075860689,0.5019963545683984,-0.4812169321148876,0.5284029538993754,0.0,0.0,0.0,124,5.249216431939349e-05,0,1735643777088322877,map,0.9724235051788416,-0.0348015739258934,0.2492239353239286,-0.5097195272438182,0.47468930582112,-0.4861197967322799,0.5277723085861636,0.0,0.0,0.0,125,9.253417279876735e-12,0,1735643777088343858,map,0.9615466902619936,-0.0282028492517072,0.1492620807536947,-0.5607148168883996,0.4534077441104944,-0.440493606301042,0.5347763032430886,0.0,0.0,0.0,126,3.936499865832858e-05,0,1735644242188269615,map,0.9798739484634934,0.3323407518592924,0.0234802417585305,-0.4938858688871891,0.5067949430814279,-0.4900340036558077,0.5090209322235172,0.0,0.0,0.0,0,0.003036230455293682,0.9485222286217128,0.0251513326646944,-0.0286886333121602,1.0,9.424629711357782e-06,-0.0001407803898388,-0.0001115096805492,0.0,0.0,0.0,-0.0001407803898388,0.0072487802521426,0.000576153039685,0.0,0.0,0.0,-0.0001115096805492,0.000576153039685,0.0015500343463577,0.0,0.0,0.0,0.0,0.0,0.0,0.0,0.0,0.0,0.0,0.0,0.0,0.0,0.0,0.0,0.0,0.0,0.0,0.0,0.0,0.0,0,0,0,1,20,,17
1.998828011,0,1735643777088230371,map,0.9575142811768312,-0.2241341742834715,0.0229386392492621,-0.5106747752571806,0.4990734237232011,-0.4739994816880251,0.5152295439983173,0.0,0.0,0.0,1,0.006996397836281293,0,1735643777088253974,map,0.9611294311299868,-0.2505224259146728,0.1482082838561529,-0.4983471958055052,0.477053946042962,-0.4923422073279383,0.5307247458721726,0.0,0.0,0.0,16,2.7916668049034427e-08,0,1735643777088270664,map,0.9555764423879354,0.0491771688279516,0.0261703201120742,-0.4989648865454151,0.5078424000344668,-0.4943348682165184,0.498761643259895,0.0,0.0,0.0,17,0.9883300150809379,0,1735643777088284730,map,0.9894006543006126,-0.2645173693962628,0.2397037247458318,-0.4959956668734895,0.4890912330021135,-0.4893674951938782,0.5246880205330259,0.0,0.0,0.0,121,5.167144705717965e-15,0,1735643777088297367,map,0.9716415114886044,0.1979209044224832,0.247787482156855,-0.5228962022447502,0.4809005652553978,-0.4846524033393124,0.5103197585362383,0.0,0.0,0.0,122,1.7966400440315604e-11,0,1735643777088310956,map,0.9619721307823532,0.1959999660045822,0.1484166951118872,-0.4932126826864367,0.4976920392462543,-0.4770022448094445,0.5305777437425202,0.0,0.0,0.0,124,3.711563188218452e-05,0,1735643777088322877,map,0.9675556084729996,-0.0382943233245301,0.2487344508328554,-0.5139927139030486,0.4919620559300215,-0.4850901476023215,0.508401784299429,0.0,0.0,0.0,125,3.3440340581641496e-12,0,1735643777088343858,map,0.957191428562945,-0.0313450094806104,0.1488123987377612,-0.5449837797596435,0.4642267278849571,-0.4558609420732792,0.5288449927986275,0.0,0.0,0.0,126,2.6054417107571696e-05,0,1735644242188269615,map,0.9798739484634934,0.3323407518592924,0.0234802417585305,-0.4938858688871891,0.5067949430814279,-0.4900340036558077,0.5090209322235172,0.0,0.0,0.0,0,0.004610389095807555,0.9484774362308204,0.0305352797246996,-0.0291569272241612,1.0,9.01596498597804e-06,-0.0001388997589763,-0.0001057801756819,0.0,0.0,0.0,-0.0001388997589763,0.0074833379590346,0.0004982917880376,0.0,0.0,0.0,-0.0001057801756819,0.0004982917880376,0.0014806091707677,0.0,0.0,0.0,0.0,0.0,0.0,0.0,0.0,0.0,0.0,0.0,0.0,0.0,0.0,0.0,0.0,0.0,0.0,0.0,0.0,0.0,0,0,0,1,21,,17
2.098455411,0,1735643777088230371,map,0.9575142811768312,-0.2241341742834715,0.0229386392492621,-0.5106747752571806,0.4990734237232011,-0.4739994816880251,0.5152295439983173,0.0,0.0,0.0,1,0.0066887802852553385,0,1735643777088253974,map,0.9611294311299868,-0.2505224259146728,0.1482082838561529,-0.4983471958055052,0.477053946042962,-0.4923422073279383,0.5307247458721726,0.0,0.0,0.0,16,1.9806545107983225e-08,0,1735643777088270664,map,0.953575651626528,0.0482755206847054,0.0274148430058795,-0.4900860663781526,0.5070060932722501,-0.501876425542198,0.5008797484544425,0.0,0.0,0.0,17,0.9881275606307489,0,1735643777088284730,map,0.9894006543006126,-0.2645173693962628,0.2397037247458318,-0.4959956668734895,0.4890912330021135,-0.4893674951938782,0.5246880205330259,0.0,0.0,0.0,121,2.3553829302822046e-15,0,1735643777088297367,map,0.9713625933390404,0.1972342045277456,0.249162311459308,-0.5324425763491384,0.4792595770864131,-0.4780267570367077,0.5082377201847694,0.0,0.0,0.0,122,4.529595079864776e-12,0,1735643777088310956,map,0.9643962117647784,0.1969659451223198,0.1494446756931211,-0.4976504021685566,0.492297856490952,-0.4712134550150543,0.536604861633458,0.0,0.0,0.0,124,2.151014940294237e-05,0,1735643777088322877,map,0.964780245011806,-0.0393810076858482,0.2492261573226453,0.5200946310032221,-0.507742606593168,0.4761132266621616,-0.4949901167184479,0.0,0.0,0.0,125,1.0859369456391745e-12,0,1735643777088343858,map,0.9608623634519444,-0.0326044371438556,0.149904593170869,0.533625720769734,-0.5108759897196653,0.4683265247092443,-0.4846850312467837,0.0,0.0,0.0,126,1.579951862226039e-05,0,1735644242188269615,map,0.9798739484634934,0.3323407518592924,0.0234802417585305,-0.4938858688871891,0.5067949430814279,-0.4900340036558077,0.5090209322235172,0.0,0.0,0.0,0,0.0051463296038075515,0.9484677869638508,0.0340536584897879,-0.0297571795057449,1.0,8.608103671120331e-06,-0.0001332990788644,-0.0001008503539934,0.0,0.0,0.0,-0.0001332990788644,0.007403145005451,0.000431291948803,0.0,0.0,0.0,-0.0001008503539934,0.000431291948803,0.0014208751127471,0.0,0.0,0.0,0.0,0.0,0.0,0.0,0.0,0.0,0.0,0.0,0.0,0.0,0.0,0.0,0.0,0.0,0.0,0.0,0.0,0.0,0,0,0,1,22,,17
2.198682154,0,1735643777088230371,map,0.9575142811768312,-0.2241341742834715,0.0229386392492621,-0.5106747752571806,0.4990734237232011,-0.4739994816880251,0.5152295439983173,0.0,0.0,0.0,1,0.006139973972872838,0,1735643777088253974,map,0.9611294311299868,-0.2505224259146728,0.1482082838561529,-0.4983471958055052,0.477053946042962,-0.4923422073279383,0.5307247458721726,0.0,0.0,0.0,16,1.2293776294957493e-08,0,1735643777088270664,map,0.952749434617516,0.0475155002305456,0.0275836920078578,-0.4943866332745698,0.5065097990540175,-0.49451851025953,0.5044612208211747,0.0,0.0,0.0,17,0.987896222529185,0,1735643777088284730,map,0.9894006543006126,-0.2645173693962628,0.2397037247458318,-0.4959956668734895,0.4890912330021135,-0.4893674951938782,0.5246880205330259,0.0,0.0,0.0,121,8.397221108514509e-16,0,1735643777088297367,map,0.9681243357046396,0.1953501573499843,0.2495823810404763,-0.5244082585866301,0.4757269710649156,-0.48388061984328,0.5143339120334397,0.0,0.0,0.0,122,1.254898614616769e-12,0,1735643777088310956,map,0.9578755845450616,0.1930766626524063,0.1498778701766865,-0.4928653770764766,0.5022799895356583,-0.4769062991611806,0.5266487577235023,0.0,0.0,0.0,124,1.3141359851054411e-05,0,1735643777088322877,map,0.958813025696023,-0.040033543221144,0.2484986590206186,-0.5213047677538141,0.5000642562534526,-0.4766211897398107,0.501008303549782,0.0,0.0,0.0,125,3.629131803469354e-13,0,1735643777088343858,map,0.955641261680451,-0.0334085371641759,0.1502151445040225,-0.5140261349344049,0.4799807033947349,-0.4882807624346487,0.5166987071875937,0.0,0.0,0.0,126,8.93407289494704e-06,0,1735644242188269615,map,0.9798739484634934,0.3323407518592924,0.0234802417585305,-0.4938858688871891,0.5067949430814279,-0.4900340036558077,0.5090209322235172,0.0,0.0,0.0,0,0.005941715769801212,0.9484330338982636,0.0378134687536697,-0.0300321328375314,1.0,8.260409356604807e-06,-0.0001303780952592,-9.625533562793084e-05,0.0,0.0,0.0,-0.0001303780952592,0.0073922649464974,0.0003897971330454,0.0,0.0,0.0,-9.625533562793084e-05,0.0003897971330454,0.0013607611192945,0.0,0.0,0.0,0.0,0.0,0.0,0.0,0.0,0.0,0.0,0.0,0.0,0.0,0.0,0.0,0.0,0.0,0.0,0.0,0.0,0.0,0,0,0,1,23,,17
2.299998435,0,1735643777088230371,map,0.9575142811768312,-0.2241341742834715,0.0229386392492621,-0.5106747752571806,0.4990734237232011,-0.4739994816880251,0.5152295439983173,0.0,0.0,0.0,1,0.005347452773663504,0,1735643777088253974,map,0.9611294311299868,-0.2505224259146728,0.1482082838561529,-0.4983471958055052,0.477053946042962,-0.4923422073279383,0.5307247458721726,0.0,0.0,0.0,16,5.719801920614213e-09,0,1735643777088270664,map,0.9506565027392316,0.046714086404748,0.0283587265307229,-0.4978289259698367,0.5049629501743853,-0.4882470615835668,0.5087175899002445,0.0,0.0,0.0,17,0.9857925999214819,0,1735643777088284730,map,0.9894006543006126,-0.2645173693962628,0.2397037247458318,-0.4959956668734895,0.4890912330021135,-0.4893674951938782,0.5246880205330259,0.0,0.0,0.0,121,1.8535561802987742e-16,0,1735643777088297367,map,0.9584674251933034,0.1907138615637598,0.2486779122802117,-0.5162709661433805,0.482587808368916,-0.4913621438532106,0.5090545553465212,0.0,0.0,0.0,122,7.972795924565781e-13,0,1735643777088310956,map,0.9525115040988792,0.1909774916710553,0.1510869136261939,-0.4918668501188157,0.5036215719546997,-0.4783365482700612,0.5250013910506864,0.0,0.0,0.0,124,1.0580144926216392e-05,0,1735643777088322877,map,0.9557017658732132,-0.0415699309196437,0.2501892490558426,-0.5119563940650536,0.4897810996575215,-0.4869582390523624,0.5107707885276913,0.0,0.0,0.0,125,7.390100920542468e-14,0,1735643777088343858,map,0.9494578918188784,-0.0341584019155822,0.1511915437960284,-0.5210640101704191,0.4749898391492612,-0.4843486530913183,0.5179607439359735,0.0,0.0,0.0,126,4.54110455664192e-06,0,1735644242188269615,map,0.9798739484634934,0.3323407518592924,0.0234802417585305,-0.4938858688871891,0.5067949430814279,-0.4900340036558077,0.5090209322235172,0.0,0.0,0.0,0,0.008844820334698624,0.9483201430408869,0.0422914072764953,-0.0292875036216274,1.0,8.209345584036433e-06,-0.0001365725959632,-9.41781187474929e-05,0.0,0.0,0.0,-0.0001365725959632,0.0075454483755867,0.0004502468744108,0.0,0.0,0.0,-9.41781187474929e-05,0.0004502468744108,0.001316815610715,0.0,0.0,0.0,0.0,0.0,0.0,0.0,0.0,0.0,0.0,0.0,0.0,0.0,0.0,0.0,0.0,0.0,0.0,0.0,0.0,0.0,0,0,0,1,24,,17
2.398948536,0,1735643777088230371,map,0.9575142811768312,-0.2241341742834715,0.0229386392492621,-0.5106747752571806,0.4990734237232011,-0.4739994816880251,0.5152295439983173,0.0,0.0,0.0,1,0.003820062144427795,0,1735643777088253974,map,0.9611294311299868,-0.2505224259146728,0.1482082838561529,-0.4983471958055052,0.477053946042962,-0.4923422073279383,0.5307247458721726,0.0,0.0,0.0,16,2.8217328842626734e-09,0,1735643777088270664,map,0.9488070143854868,0.0464608401976287,0.0287617033199301,-0.4921784089942735,0.505010728677597,-0.4987784119884071,0.5039292344910258,0.0,0.0,0.0,17,0.9850107680804301,0,1735643777088284730,map,0.9894006543006126,-0.2645173693962628,0.2397037247458318,-0.4959956668734895,0.4890912330021135,-0.4893674951938782,0.5246880205330259,0.0,0.0,0.0,121,6.819381742466883e-17,0,1735643777088297367,map,0.9561626019852216,0.1897233334226194,0.248488637884711,-0.5065757267870388,0.4854396638408347,-0.4970888988477499,0.5105212947983778,0.0,0.0,0.0,122,1.8947486482063136e-12,0,1735643777088310956,map,0.9510800999616976,0.1904923673874932,0.1512533841408382,-0.4881649720799673,0.5024582551942528,-0.4806892561893701,0.5274168188495907,0.0,0.0,0.0,124,1.7754396852624737e-05,0,1735643777088322877,map,0.954299835217852,-0.0421236571545367,0.2504364414836508,-0.509519849302279,0.4851027949995706,-0.490590539886154,0.5141845229339361,0.0,0.0,0.0,125,6.386450285499883e-14,0,1735643777088343858,map,0.9468487692919864,-0.0343811242619912,0.1514307556565708,-0.5249793433615196,0.4705385600000746,-0.4789907622013682,0.5230277261508385,0.0,0.0,0.0,126,4.05514388020697e-06,0,1735644242188269615,map,0.9798739484634934,0.3323407518592924,0.0234802417585305,-0.4938858688871891,0.5067949430814279,-0.4900340036558077,0.5090209322235172,0.0,0.0,0.0,0,0.011147357410717703,0.948155700023464,0.0458104592111485,-0.0275668576292372,1.0,8.529967904174587e-06,-0.0001449980965711,-9.720175125131956e-05,0.0,0.0,0.0,-0.0001449980965711,0.0075408398770142,0.0005775580220354,0.0,0.0,0.0,-9.720175125131956e-05,0.0005775580220354,0.0013351979294335,0.0,0.0,0.0,0.0,0.0,0.0,0.0,0.0,0.0,0.0,0.0,0.0,0.0,0.0,0.0,0.0,0.0,0.0,0.0,0.0,0.0,0,0,0,1,25,,17
2.499050523,0,1735643777088230371,map,0.9575142811768312,-0.2241341742834715,0.0229386392492621,-0.5106747752571806,0.4990734237232011,-0.4739994816880251,0.5152295439983173,0.0,0.0,0.0,1,0.002958341054932794,0,1735643777088253974,map,0.9611294311299868,-0.2505224259146728,0.1482082838561529,-0.4983471958055052,0.477053946042962,-0.4923422073279383,0.5307247458721726,0.0,0.0,0.0,16,1.6942781855848973e-09,0,1735643777088270664,map,0.9478363603538228,0.0454874797575097,0.0294716733613746,-0.4902804546858875,0.4939024894068348,-0.4986650238317605,0.5167384258187119,0.0,0.0,0.0,17,0.9865566671837662,0,1735643777088284730,map,0.9894006543006126,-0.2645173693962628,0.2397037247458318,-0.4959956668734895,0.4890912330021135,-0.4893674951938782,0.5246880205330259,0.0,0.0,0.0,121,3.106092112541123e-17,0,1735643777088297367,map,0.955506666550096,0.1882723732230753,0.2484664868517474,-0.5110964138608377,0.487096777308027,-0.494177006001644,0.5072536564816236,0.0,0.0,0.0,122,2.0873749595606657e-12,0,1735643777088310956,map,0.9508014985463548,0.1892804100165458,0.1515195514689732,-0.4911542052674023,0.5018318973350774,-0.480048512278408,0.5258190937237918,0.0,0.0,0.0,124,1.9649777238586257e-05,0,1735643777088322877,map,0.954299835217852,-0.0421236571545367,0.2504364414836508,-0.509519849302279,0.4851027949995706,-0.490590539886154,0.5141845229339361,0.0,0.0,0.0,125,5.0096510378179836e-14,0,1735643777088343858,map,0.9476442749408404,-0.0353889396206387,0.1518195053736173,-0.5164570787651505,0.4748975308834178,-0.4868994831837856,0.5202627357687295,0.0,0.0,0.0,126,3.4897513171843795e-06,0,1735644242188269615,map,0.9798739484634934,0.3323407518592924,0.0234802417585305,-0.4938858688871891,0.5067949430814279,-0.4900340036558077,0.5090209322235172,0.0,0.0,0.0,0,0.010461850536329345,0.9480482030878862,0.0472762558823734,-0.0262653539927798,1.0,8.490781994517619e-06,-0.0001433604629614,-9.696091367109952e-05,0.0,0.0,0.0,-0.0001433604629614,0.0073045215710864,0.0006030377444048,0.0,0.0,0.0,-9.696091367109952e-05,0.0006030377444048,0.0013261919558096,0.0,0.0,0.0,0.0,0.0,0.0,0.0,0.0,0.0,0.0,0.0,0.0,0.0,0.0,0.0,0.0,0.0,0.0,0.0,0.0,0.0,0,0,0,1,26,on,17
