%time,field.boxes0.header.seq,field.boxes0.header.stamp,field.boxes0.header.frame_id,field.boxes0.pose.position.x,field.boxes0.pose.position.y,field.boxes0.pose.position.z,field.boxes0.pose.orientation.x,field.boxes0.pose.orientation.y,field.boxes0.pose.orientation.z,field.boxes0.pose.orientation.w,field.boxes0.scale.x,field.boxes0.scale.y,field.boxes0.scale.z,field.boxes0.id,field.boxes0.pdf,field.boxes1.header.seq,field.boxes1.header.stamp,field.boxes1.header.frame_id,field.boxes1.pose.position.x,field.boxes1.pose.position.y,field.boxes1.pose.position.z,field.boxes1.pose.orientation.x,field.boxes1.pose.orientation.y,field.boxes1.pose.orientation.z,field.boxes1.pose.orientation.w,field.boxes1.scale.x,field.boxes1.scale.y,field.boxes1.scale.z,field.boxes1.id,field.boxes1.pdf,field.boxes2.header.seq,field.boxes2.header.stamp,field.boxes2.header.frame_id,field.boxes2.pose.position.x,field.boxes2.pose.position.y,field.boxes2.pose.position.z,field.boxes2.pose.orientation.x,field.boxes2.pose.orientation.y,field.boxes2.pose.orientation.z,field.boxes2.pose.orientation.w,field.boxes2.scale.x,field.boxes2.scale.y,field.boxes2.scale.z,field.boxes2.id,field.boxes2.pdf,field.boxes3.header.seq,field.boxes3.header.stamp,field.boxes3.header.frame_id,field.boxes3.pose.position.x,field.boxes3.pose.position.y,field.boxes3.pose.position.z,field.boxes3.pose.orientation.x,field.boxes3.pose.orientation.y,field.boxes3.pose.orientation.z,field.boxes3.pose.orientation.w,field.boxes3.scale.x,field.boxes3.scale.y,field.boxes3.scale.z,field.boxes3.id,field.boxes3.pdf,field.boxes4.header.seq,field.boxes4.header.stamp,field.boxes4.header.frame_id,field.boxes4.pose.position.x,field.boxes4.pose.position.y,field.boxes4.pose.position.z,field.boxes4.pose.orientation.x,field.boxes4.pose.orientation.y,field.boxes4.pose.orientation.z,field.boxes4.pose.orientation.w,field.boxes4.scale.x,field.boxes4.scale.y,field.boxes4.scale.z,field.boxes4.id,field.boxes4.pdf,field.boxes5.header.seq,field.boxes5.header.stamp,field.boxes5.header.frame_id,field.boxes5.pose.position.x,field.boxes5.pose.position.y,field.boxes5.pose.position.z,field.boxes5.pose.orientation.x,field.boxes5.pose.orientation.y,field.boxes5.pose.orientation.z,field.boxes5.pose.orientation.w,field.boxes5.scale.x,field.boxes5.scale.y,field.boxes5.scale.z,field.boxes5.id,field.boxes5.pdf,field.boxes6.header.seq,field.boxes6.header.stamp,field.boxes6.header.frame_id,field.boxes6.pose.position.x,field.boxes6.pose.position.y,field.boxes6.pose.position.z,field.boxes6.pose.orientation.x,field.boxes6.pose.orientation.y,field.boxes6.pose.orientation.z,field.boxes6.pose.orientation.w,field.boxes6.scale.x,field.boxes6.scale.y,field.boxes6.scale.z,field.boxes6.id,field.boxes6.pdf,field.boxes7.header.seq,field.boxes7.header.stamp,field.boxes7.header.frame_id,field.boxes7.pose.position.x,field.boxes7.pose.position.y,field.boxes7.pose.position.z,field.boxes7.pose.orientation.x,field.boxes7.pose.orientation.y,field.boxes7.pose.orientation.z,field.boxes7.pose.orientation.w,field.boxes7.scale.x,field.boxes7.scale.y,field.boxes7.scale.z,field.boxes7.id,field.boxes7.pdf,field.boxes8.header.seq,field.boxes8.header.stamp,field.boxes8.header.frame_id,field.boxes8.pose.position.x,field.boxes8.pose.position.y,field.boxes8.pose.position.z,field.boxes8.pose.orientation.x,field.boxes8.pose.orientation.y,field.boxes8.pose.orientation.z,field.boxes8.pose.orientation.w,field.boxes8.scale.x,field.boxes8.scale.y,field.boxes8.scale.z,field.boxes8.id,field.boxes8.pdf,field.pose.pose.position.x,field.pose.pose.position.y,field.pose.pose.position.z,field.pose.pose.orientation.w,field.pose.covariance0,field.pose.covariance1,field.pose.covariance2,field.pose.covariance3,field.pose.covariance4,field.pose.covariance5,field.pose.covariance6,field.pose.covariance7,field.pose.covariance8,field.pose.covariance9,field.pose.covariance10,field.pose.covariance11,field.pose.covariance12,field.pose.covariance13,field.pose.covariance14,field.pose.covariance15,field.pose.covariance16,field.pose.covariance17,field.pose.covariance18,field.pose.covariance19,field.pose.covariance20,field.pose.covariance21,field.pose.covariance22,field.pose.covariance23,field.pose.covariance24,field.pose.covariance25,field.pose.covariance26,field.pose.covariance27,field.pose.covariance28,field.pose.covariance29,field.pose.covariance30,field.pose.covariance31,field.pose.covariance32,field.pose.covariance33,field.pose.covariance34,field.pose.covariance35,field.buttons0,field.buttons1,field.buttons2,field.buttons3,intersection_length,vacuum,desired_box
0.0,0,1735643777088230371,map,0.9868864783463244,-0.223695740029974,0.0176112333835649,0.4844601063516004,-0.5063145664687678,0.5140870684533294,-0.4946296100966877,0.0,0.0,0.0,1,0.1111111111111111,0,1735643777088253974,map,0.9821989903486292,-0.2505409336066304,0.1463526288878962,-0.4937896934309105,0.493202253361351,-0.5022680937920094,0.5105389680516402,0.0,0.0,0.0,16,0.1111111111111111,0,1735643777088270664,map,0.9890931567192848,0.0546940955862533,0.0222543966539966,-0.4946366783028029,0.5045912094676196,-0.4880323554876735,0.512393098902324,0.0,0.0,0.0,17,0.1111111111111111,0,1735643777088284730,map,1.0078121155955613,-0.2603862657326694,0.2340008824008568,-0.4745531409666297,0.4748205388867432,-0.5179966490807396,0.530117198165777,0.0,0.0,0.0,121,0.1111111111111111,0,1735643777088297367,map,1.011136172683874,0.2054675241190297,0.2386860908880703,0.5104781019985989,-0.4996228111578724,0.491007630502809,-0.4986989680545067,0.0,0.0,0.0,122,0.1111111111111111,0,1735643777088310956,map,1.000314848914863,0.2009860038800004,0.1416742392256371,-0.4725135414709774,0.4994735354351466,-0.4955127307242187,0.5307770475601762,0.0,0.0,0.0,124,0.1111111111111111,0,1735643777088322877,map,0.9918894475558078,-0.0295090992610532,0.2398880433002466,-0.4713382960976956,0.5875422742218201,-0.510130775681423,0.4152118475388703,0.0,0.0,0.0,125,0.1111111111111111,0,1735643777088343858,map,0.994764008774498,-0.0247295809221292,0.1433815635171031,-0.4841534594705137,0.4920360580303259,-0.5184092039824822,0.5047255120428925,0.0,0.0,0.0,126,0.1111111111111111,0,1735644242188269615,map,0.9671259539520168,0.3266376483328175,0.0263840108420538,-0.4849443689600283,0.4985002107147905,-0.4995652764591416,0.5164891416937725,0.0,0.0,0.0,0,0.1111111111111111,0.9101285022676447,0.4568435698304958,0.4556015088261376,1.0,0.0,0.0,0.0,0.0,0.0,0.0,0.0,0.0,0.0,0.0,0.0,0.0,0.0,0.0,0.0,0.0,0.0,0.0,0.0,0.0,0.0,0.0,0.0,0.0,0.0,0.0,0.0,0.0,0.0,0.0,0.0,0.0,0.0,0.0,0.0,0.0,0,0,0,1,1,,122
0.099585887,0,1735643777088230371,map,0.983973281195472,-0.221632110826964,0.0191779165671301,-0.4808638847960529,0.5016155268233241,-0.5148818703638854,0.5020442680871828,0.0,0.0,0.0,1,,0,1735643777088253974,map,0.96620897018921,-0.243847099820456,0.1500685329142652,-0.4991965055394969,0.4601681469429831,-0.4945932187028159,0.5426100564949062,0.0,0.0,0.0,16,,0,1735643777088270664,map,0.9784627939963126,0.0544780011307164,0.0267494303887416,-0.4934426271140169,0.4911205019115204,-0.4874659271188545,0.526964890905599,0.0,0.0,0.0,17,,0,1735643777088284730,map,1.0116563819277389,-0.260918541566262,0.2339740849761479,-0.5085473698980078,0.5230558546591668,-0.4753722619479454,0.4917452165980691,0.0,0.0,0.0,121,,0,1735643777088297367,map,1.0142421350916355,0.2066861008549819,0.2384434995330059,-0.5039097212939154,0.4917005210349379,-0.4948624990938675,0.5093296549289387,0.0,0.0,0.0,122,,0,1735643777088310956,map,1.0056323744026456,0.2033100242442486,0.1409879394316626,-0.492011620524814,0.502592640368936,-0.4771293419724627,0.5269466710630716,0.0,0.0,0.0,124,,0,1735643777088322877,map,0.9988718351010988,-0.0289421840141315,0.2395449452839494,-0.4516219738228496,0.5700462682748024,-0.538212655100912,0.425924855667701,0.0,0.0,0.0,125,,0,1735643777088343858,map,0.9957358572927456,-0.023989580992024,0.1434809754346163,-0.4887071491932662,0.4704378913283273,-0.5107403893531687,0.5282023924721679,0.0,0.0,0.0,126,,0,1735644242188269615,map,0.9647208400369998,0.3256923814238278,0.0278939476244128,-0.4819115332900022,0.4985143979150899,-0.4928357973011448,0.5256971999658931,0.0,0.0,0.0,0,,0.9163563670737238,0.426891253875836,0.3685600840751671,1.0,3.878630004279615e-05,-0.0001865389743945,-0.0005420822258775,0.0,0.0,0.0,-0.0001865389743945,0.0008971412310477,0.0026070922552848,0.0,0.0,0.0,-0.0005420822258775,0.0026070922552848,0.0075762096226788,0.0,0.0,0.0,0.0,0.0,0.0,0.0,0.0,0.0,0.0,0.0,0.0,0.0,0.0,0.0,0.0,0.0,0.0,0.0,0.0,0.0,0,0,0,1,2,,122
0.199178267,0,1735643777088230371,map,0.9817203276398804,-0.2214294076194959,0.0193928906144114,-0.499146181251594,0.5028182723343189,-0.494906073169069,0.503085334201916,0.0,0.0,0.0,1,1.5181670432429905e-39,0,1735643777088253974,map,0.985947945274478,-0.2510524643474709,0.1456370882100551,-0.5096711363996231,0.5152235037148579,-0.4769337566759867,0.4973070135075849,0.0,0.0,0.0,16,9.432611550254475e-38,0,1735643777088270664,map,0.9871283390200404,0.0552066276424096,0.0231101273879241,-0.4905834779262165,0.4920567126899035,-0.4946639868599042,0.5220302508346502,0.0,0.0,0.0,17,7.968063839699198e-15,0,1735643777088284730,map,1.0051318900915576,-0.2575323224964285,0.2337109852802204,-0.4874679307796803,0.4927850052997242,-0.4931571053084106,0.5256748277185779,0.0,0.0,0.0,121,2.55704076058131e-35,0,1735643777088297367,map,1.0058832671668856,0.2043736802679646,0.2385165503711304,-0.5055288375011225,0.5135218608968437,-0.499418167620121,0.4809546617788075,0.0,0.0,0.0,122,0.04709253766500867,0,1735643777088310956,map,1.003085327965151,0.2026031567579788,0.1411364777089137,-0.4758703372171876,0.4982359691340068,-0.4903845008528481,0.5336959645165025,0.0,0.0,0.0,124,0.0011019194044013594,0,1735643777088322877,map,1.001503554123327,-0.0284055513628647,0.2388540178787605,-0.4435623608379411,0.5629299920086079,-0.5493765389243757,0.4295901239839371,0.0,0.0,0.0,125,4.893731622642873e-15,0,1735643777088343858,map,0.9995275121841728,-0.023380272657919,0.1422792089582346,-0.5109983713231898,0.4927994061542279,-0.4898810373118401,0.5060098606562555,0.0,0.0,0.0,126,3.4945811121392144e-17,0,1735644242188269615,map,0.9791066738140768,0.3334622425727583,0.0221036664164224,-0.5098364908653684,0.4934767610148803,-0.477735467346748,0.5179925309879807,0.0,0.0,0.0,0,0.9518055429305771,0.920982293754354,0.4736775473964452,0.2892911052353749,1.0,6.865592867099819e-05,0.0003085006107065,-0.0010947731189076,0.0,0.0,0.0,0.0003085006107065,0.004976008676825,-0.0056793419186317,0.0,0.0,0.0,-0.0010947731189076,-0.0056793419186317,0.017617948427726,0.0,0.0,0.0,0.0,0.0,0.0,0.0,0.0,0.0,0.0,0.0,0.0,0.0,0.0,0.0,0.0,0.0,0.0,0.0,0.0,0.0,0,0,0,1,3,,122
0.298823998,0,1735643777088230371,map,0.9828439410939992,-0.221281616486247,0.0188741543472604,-0.497597251217272,0.5005626287985554,-0.4953740676625423,0.5063976336030426,0.0,0.0,0.0,1,3.827383233043746e-11,0,1735643777088253974,map,0.9710907682819866,-0.2450538927019868,0.1480446484205103,-0.5007896612028497,0.470694360537963,-0.4911903644204184,0.5351528380664998,0.0,0.0,0.0,16,1.48267289103569e-09,0,1735643777088270664,map,0.9923421789270966,0.0562284135462412,0.0205572229336156,0.5080949978629217,-0.5069713477217168,0.487928079084542,-0.4967350555142781,0.0,0.0,0.0,17,2.9495829751520444e-05,0,1735643777088284730,map,1.0138892459425444,-0.261904601096148,0.2329968808558825,-0.4876104164069132,0.4925594075290951,-0.4994066505980216,0.5198214204941237,0.0,0.0,0.0,121,6.598398712524852e-09,0,1735643777088297367,map,1.0180689697571108,0.2084387687452346,0.2374776564342208,0.5127801937207392,-0.5013064675841468,0.4901022654002763,-0.4955280697756115,0.0,0.0,0.0,122,0.7395554333973148,0,1735643777088310956,map,1.0016111541342203,0.2019933127408065,0.140740212625382,-0.4834153299110759,0.5039656435230617,-0.4850421923341467,0.5263670968165054,0.0,0.0,0.0,124,0.11621847968890196,0,1735643777088322877,map,1.0030381425432904,-0.0294561930051238,0.2386234269105355,-0.5266752903302429,0.4997921288035187,-0.4720226460821009,0.5000155878842708,0.0,0.0,0.0,125,0.0004367597541458885,0,1735643777088343858,map,1.0044902112012402,-0.023941160205775,0.1407550489316683,0.4731128975606186,-0.4965672654279902,0.5376038388236312,-0.4904765535163315,0.0,0.0,0.0,126,5.225469556478787e-05,0,1735644242188269615,map,0.964925652320441,0.3263710587377915,0.026925329199318,-0.4835784737598549,0.4976337698244493,-0.4955830233556088,0.5224078462352093,0.0,0.0,0.0,0,0.14370756851497574,0.9204450188273005,0.5410135307953103,0.2830903496896642,1.0,5.235793954496975e-05,0.0001228416513237,-0.0008110853077302,0.0,0.0,0.0,0.0001228416513237,0.0173344104884954,-0.0055121083564329,0.0,0.0,0.0,-0.0008110853077302,-0.0055121083564329,0.0133288094288075,0.0,0.0,0.0,0.0,0.0,0.0,0.0,0.0,0.0,0.0,0.0,0.0,0.0,0.0,0.0,0.0,0.0,0.0,0.0,0.0,0.0,0,0,0,1,4,,122
0.400942979,0,1735643777088230371,map,0.9887853950119032,-0.2231544879607696,0.0166902970085516,-0.4974785555359152,0.5219994519820281,-0.4861181704407716,0.4936808516437299,0.0,0.0,0.0,1,1.9482586059343194e-11,0,1735643777088253974,map,0.9861178080119528,-0.2507506978374408,0.1456814943125094,-0.4891946170317856,0.4838385699981122,-0.5044232623515068,0.5216761804491072,0.0,0.0,0.0,16,2.2213109875908097e-10,0,1735643777088270664,map,0.989096663731474,0.0561205048616662,0.0226530105519656,0.6800573464486185,-0.6079593978036769,0.2708734338233036,-0.3074653785586702,0.0,0.0,0.0,17,5.2443316041945414e-05,0,1735643777088284730,map,1.013179182829718,-0.2614309726124086,0.2333248116700887,-0.2760526180935342,0.6574246706123729,-0.6470656637521865,0.2699884836559893,0.0,0.0,0.0,121,8.462498340832971e-10,0,1735643777088297367,map,1.0049173480032352,0.2038357631992801,0.2380645775679554,-0.5044544568380452,0.4961500707340256,-0.4945143084599334,0.5047934300436643,0.0,0.0,0.0,122,0.5661244266030512,0,1735643777088310956,map,0.997590668515418,0.2008785613500196,0.1417035703798341,-0.4729588669008304,0.5062503390935706,-0.4988610572372613,0.5207284800734919,0.0,0.0,0.0,124,0.14238293124364404,0,1735643777088322877,map,0.98971937435926,-0.0285015835161087,0.2391806657340996,-0.4299907179568401,0.5669795412431488,-0.5611789286910959,0.4227533468534383,0.0,0.0,0.0,125,0.00019162025319735673,0,1735643777088343858,map,1.0043848418150427,-0.0246085592578412,0.1414252233876174,0.5138495942046463,-0.5087076172360524,0.4868310823966721,-0.4900720884872172,0.0,0.0,0.0,126,3.633907690941202e-05,0,1735644242188269615,map,0.9723324222159556,0.330616536129669,0.0243322935093915,-0.4942005819997651,0.4945858533047162,-0.4895103108639219,0.5210856685995551,0.0,0.0,0.0,0,0.29121223841929256,0.9220585720946518,0.5323964375426684,0.2607205471960595,1.0,5.230056822229656e-05,4.265676516753862e-05,-0.0007932477177984,0.0,0.0,0.0,4.265676516753862e-05,0.0141645455752952,-0.0036386359886241,0.0,0.0,0.0,-0.0007932477177984,-0.0036386359886241,0.0126646797974575,0.0,0.0,0.0,0.0,0.0,0.0,0.0,0.0,0.0,0.0,0.0,0.0,0.0,0.0,0.0,0.0,0.0,0.0,0.0,0.0,0.0,0,0,0,1,5,,122
0.500374024,0,1735643777088230371,map,0.9841239670612224,-0.2215759725458974,0.0179333371500696,-0.4905705818976987,0.5040945252156589,-0.5025354121808787,0.5026801899103912,0.0,0.0,0.0,1,6.509137660013419e-09,0,1735643777088253974,map,0.977885565764696,-0.2474982122087313,0.1470742173420843,-0.5004054835135849,0.4838523528279524,-0.4902280920847292,0.5245547354312571,0.0,0.0,0.0,16,3.343211423665017e-08,0,1735643777088270664,map,0.9775374705749226,0.0543731401731255,0.0261881532333301,0.4730499708308862,-0.5130647727748886,0.5200215588632753,-0.4925097383319019,0.0,0.0,0.0,17,0.0005476149533230212,0,1735643777088284730,map,1.0074579342673886,-0.2599943552493725,0.2330941203270835,-0.494017562366688,0.4847290173307789,-0.4984643677722201,0.522032280507876,0.0,0.0,0.0,121,5.2295992101727854e-08,0,1735643777088297367,map,1.0079065765635185,0.203825703811431,0.2376806058668341,-0.507679176517252,0.4959435412017641,-0.4920116311877905,0.5042086992971743,0.0,0.0,0.0,122,0.5308687420026572,0,1735643777088310956,map,1.0042117703849789,0.2022576150612544,0.1400950135626032,-0.4856199710505396,0.5022620785340859,-0.484493310777896,0.526471537687429,0.0,0.0,0.0,124,0.2161450559683487,0,1735643777088322877,map,0.993982362405908,-0.0294301167473484,0.2387518925542435,-0.5585145262096222,0.4652751245774031,-0.4335998512098548,0.5325145551936725,0.0,0.0,0.0,125,0.0009423826306389823,0,1735643777088343858,map,0.994186184425054,-0.0244405383359392,0.1425505760607028,0.4660508495669457,-0.4941122149482862,0.5444648336990074,-0.4921460855497472,0.0,0.0,0.0,126,0.00039646328843656267,0,1735644242188269615,map,0.9718113584645176,0.3296857899765454,0.0243349537083265,-0.4882117932547645,0.4977159038152233,-0.4941642615905033,0.5193551834564423,0.0,0.0,0.0,0,0.2510996489193515,0.923128717702636,0.5045232239632976,0.2505758704970607,1.0,4.930986496335333e-05,-0.0001135946811555,-0.0007153211709012,0.0,0.0,0.0,-0.0001135946811555,0.0156883681556188,-0.0016183729555624,0.0,0.0,0.0,-0.0007153211709012,-0.0016183729555624,0.0110684721578506,0.0,0.0,0.0,0.0,0.0,0.0,0.0,0.0,0.0,0.0,0.0,0.0,0.0,0.0,0.0,0.0,0.0,0.0,0.0,0.0,0.0,0,0,0,1,6,,122
0.600192291,0,1735643777088230371,map,0.976261461050164,-0.2199342687732533,0.0216590971715033,-0.4993292755370144,0.4973775436782426,-0.490181554473041,0.5128429557775671,0.0,0.0,0.0,1,3.279937165299956e-08,0,1735643777088253974,map,0.9853774867298316,-0.2503895126509372,0.1465079563735932,-0.505202602547789,0.4943558436368716,-0.4876454578076552,0.5124300320244517,0.0,0.0,0.0,16,2.9107417803311633e-07,0,1735643777088270664,map,0.9867155218605794,0.0552934109735811,0.0238031923026506,-0.4881799933253126,0.4996082977072025,-0.5057070746841134,0.5062926007690078,0.0,0.0,0.0,17,0.000543150908563078,0,1735643777088284730,map,1.0100888993782182,-0.2612105666929317,0.233807276375867,-0.5073073253172878,0.5121367467835852,-0.4685880868144756,0.5106666575848627,0.0,0.0,0.0,121,7.978596141100851e-07,0,1735643777088297367,map,1.0006381855104207,0.2014223381974914,0.2386921657714392,-0.4916862128384067,0.5107156321205419,-0.5076685657572068,0.4895782251636207,0.0,0.0,0.0,122,0.6578253838674927,0,1735643777088310956,map,0.9979408098740234,0.1998713409030105,0.1420639743823111,-0.4637685796733701,0.5021817956515247,-0.503001047292464,0.5288876015247852,0.0,0.0,0.0,124,0.21750911747823706,0,1735643777088322877,map,1.012996884441162,-0.0306645023094199,0.2387112891681372,-0.5176462275943496,0.4971876460853882,-0.4806380189930004,0.5038193350159303,0.0,0.0,0.0,125,0.0033433508334264114,0,1735643777088343858,map,0.9968485691419258,-0.0248660765520374,0.1428349760236112,-0.4783490321202924,0.4816984570786483,-0.5241319036538552,0.5142319977304168,0.0,0.0,0.0,126,0.001033455571624579,0,1735644242188269615,map,0.9703693562649828,0.3284119711449638,0.0252961400856959,-0.4856479447418804,0.4988262282893685,-0.4871157182168521,0.5272918971543853,0.0,0.0,0.0,0,0.11974441960749257,0.9231493774383092,0.4767946811077865,0.2561369834279421,1.0,4.226815948808562e-05,-0.0001008040557578,-0.0006124430854619,0.0,0.0,0.0,-0.0001008040557578,0.0180604052381556,-0.0023123861684232,0.0,0.0,0.0,-0.0006124430854619,-0.0023123861684232,0.0096728177117664,0.0,0.0,0.0,0.0,0.0,0.0,0.0,0.0,0.0,0.0,0.0,0.0,0.0,0.0,0.0,0.0,0.0,0.0,0.0,0.0,0.0,0,0,0,1,7,,122
0.699619417,0,1735643777088230371,map,0.981343843235315,-0.2213892529675132,0.0209779005288957,-0.4970824707043145,0.4988115744984704,-0.4947829205302756,0.5092012293940209,0.0,0.0,0.0,1,1.0572858785843038e-08,0,1735643777088253974,map,0.9825247252289234,-0.250021268090226,0.1476265875544266,-0.5101358981185863,0.4887471383725579,-0.4926523609982187,0.5081153918021575,0.0,0.0,0.0,16,3.564882240770499e-07,0,1735643777088270664,map,0.986279280069866,0.0548513839282462,0.024477812165408,-0.4937141462009308,0.4991396671304994,-0.4914668020827313,0.5153312691740274,0.0,0.0,0.0,17,0.00021339121613411186,0,1735643777088284730,map,1.010908423993604,-0.2629318708910514,0.2343603534947503,-0.494524649265303,0.4904331818650188,-0.4897656980687545,0.5244523108825134,0.0,0.0,0.0,121,1.8293203131102912e-06,0,1735643777088297367,map,1.004024631440817,0.2023688952815414,0.2395818055045222,-0.4925624964823196,0.4912626080957267,-0.5126273980717008,0.5032458521362374,0.0,0.0,0.0,122,0.763987091087656,0,1735643777088310956,map,1.0081241712105191,0.2028268238250456,0.1408296458326113,-0.4966333344445234,0.503199854674346,-0.4712440041448912,0.5273275319303186,0.0,0.0,0.0,124,0.16826879437584838,0,1735643777088322877,map,0.998700545368265,-0.0301665080670113,0.2400356304432536,-0.471817150485053,0.5974667174436004,-0.5055756237227217,0.4059746134337899,0.0,0.0,0.0,125,0.005704472621851207,0,1735643777088343858,map,1.0011500952095769,-0.0246404275918321,0.1437412327832467,-0.4963790750723781,0.4725827173310219,-0.5054251225948192,0.5242316611578607,0.0,0.0,0.0,126,0.0009333190155765643,0,1735644242188269615,map,0.9681453174822038,0.3277934016478565,0.0275812081935613,-0.4841324938108854,0.495792305228576,-0.4872309719363509,0.5314242170794877,0.0,0.0,0.0,0,0.06089073530153787,0.9227063060021918,0.4530942908983428,0.2677986007503303,1.0,3.835882563459587e-05,-1.4696787301683307e-05,-0.0005720562065205,0.0,0.0,0.0,-1.4696787301683307e-05,0.0197348140559454,-0.0039580320644669,0.0,0.0,0.0,-0.0005720562065205,-0.0039580320644669,0.0094156687278123,0.0,0.0,0.0,0.0,0.0,0.0,0.0,0.0,0.0,0.0,0.0,0.0,0.0,0.0,0.0,0.0,0.0,0.0,0.0,0.0,0.0,0,0,0,1,8,,122
0.800838036,0,1735643777088230371,map,0.9884637144522888,-0.2229949567273426,0.0185095911351633,-0.4935897711522882,0.5186120038218537,-0.4914328280445758,0.4958875909173608,0.0,0.0,0.0,1,8.878259125193654e-10,0,1735643777088253974,map,0.982596918206078,-0.2490024384745613,0.1480573494542083,-0.5028022430975241,0.476725708727505,-0.4973376796066422,0.5220897771627379,0.0,0.0,0.0,16,7.805481164473367e-08,0,1735643777088270664,map,0.990142752146449,0.0559266359784419,0.0235763525819141,-0.5095413793732563,0.4855956989355567,-0.4670782778624301,0.5351656586803323,0.0,0.0,0.0,17,7.023465556333191e-05,0,1735643777088284730,map,1.0105054298845777,-0.262091234699114,0.2349275159371885,-0.5004882152228354,0.4939998862526764,-0.4833640598984147,0.5213778326740839,0.0,0.0,0.0,121,6.037593880794628e-07,0,1735643777088297367,map,1.0046487926245853,0.2028501452878964,0.2399025498751432,-0.4900149351165772,0.4764710494492628,-0.5066020695438969,0.5255616477001108,0.0,0.0,0.0,122,0.8201342182364678,0,1735643777088310956,map,1.0022050395681323,0.2016535138517405,0.1424380965388254,-0.4859203157407825,0.5065908720458182,-0.4854218906048065,0.5211647755095224,0.0,0.0,0.0,124,0.13720740476168886,0,1735643777088322877,map,0.998890037606952,-0.0296995832786182,0.2405236965895801,-0.5623060021869175,0.495958002335551,-0.4274936089821993,0.5050612181738668,0.0,0.0,0.0,125,0.003995836358751661,0,1735643777088343858,map,1.006885772129639,-0.0257668706409033,0.1416451792350093,-0.5024724740348157,0.5044474717353765,-0.5002330670668135,0.4927687487148984,0.0,0.0,0.0,126,0.0003831961741334618,0,1735644242188269615,map,0.9807471604992736,0.3353044253136228,0.0230821533657977,-0.4999511995392366,0.4924718054748087,-0.4831307851731536,0.5235503445798052,0.0,0.0,0.0,0,0.0382084271113693,0.9222207433303984,0.442408254185428,0.2773418532598773,1.0,3.5982902763332624e-05,2.8446113362822447e-05,-0.0005455651832851,0.0,0.0,0.0,2.8446113362822447e-05,0.0184555879836562,-0.0043340870973917,0.0,0.0,0.0,-0.0005455651832851,-0.0043340870973917,0.0090980726612987,0.0,0.0,0.0,0.0,0.0,0.0,0.0,0.0,0.0,0.0,0.0,0.0,0.0,0.0,0.0,0.0,0.0,0.0,0.0,0.0,0.0,0,0,0,1,9,,122
0.90082938,0,1735643777088230371,map,0.9923220679096748,-0.2235845389488477,0.0169280801952735,-0.4935702643354332,0.5111527173326884,-0.4936511951206204,0.5014177811797683,0.0,0.0,0.0,1,1.7156653008842683e-10,0,1735643777088253974,map,0.9759997158906092,-0.2447052561812596,0.149901768850463,-0.5127122463800969,0.4815352328520367,-0.4781247628948937,0.525972131429709,0.0,0.0,0.0,16,2.4062151526427766e-08,0,1735643777088270664,map,0.9894345368112394,0.0570144164610235,0.0240351539214987,-0.4907576116261486,0.5129364077196421,-0.50343415123673,0.4925517877697943,0.0,0.0,0.0,17,4.161301981025643e-05,0,1735643777088284730,map,1.0127501933975969,-0.2626806065446078,0.2347256877824153,-0.5063097381791928,0.490452044501133,-0.4829794302432642,0.5194594411804134,0.0,0.0,0.0,121,1.354823377456765e-07,0,1735643777088297367,map,1.0103085234547429,0.2060614374290931,0.2396503000061174,0.5149166165274527,-0.5132395679754697,0.4919611443970235,-0.4789783463705268,0.0,0.0,0.0,122,0.8372014618354074,0,1735643777088310956,map,0.996727986115969,0.2011358218866654,0.1436997584094027,-0.4691436163825868,0.5024289495420096,-0.4999269328243582,0.5268230060527068,0.0,0.0,0.0,124,0.12337114021683662,0,1735643777088322877,map,0.9990949217573796,-0.0287608177144199,0.2406987244228706,-0.4462184250321347,0.6150279550119968,-0.5244951115072706,0.3841023427689264,0.0,0.0,0.0,125,0.0023190617507836656,0,1735643777088343858,map,1.006775736373854,-0.0248158527335633,0.1422265632297699,-0.565711576387633,0.5847466421663644,-0.4191569038383696,0.4029258824905798,0.0,0.0,0.0,126,0.00020598693415489145,0,1735644242188269615,map,0.9759089694172738,0.334172341993218,0.0253066758646603,-0.5045942213380089,0.4912597022436273,-0.4774772468143596,0.525417981723475,0.0,0.0,0.0,0,0.03686057652695142,0.9216058557519996,0.4430639363623202,0.2864229031792205,1.0,3.578739309362227e-05,2.1972964593003426e-05,-0.0005412630881046,0.0,0.0,0.0,2.1972964593003426e-05,0.0166138984573445,-0.0038470898444363,0.0,0.0,0.0,-0.0005412630881046,-0.0038470898444363,0.0089304546039073,0.0,0.0,0.0,0.0,0.0,0.0,0.0,0.0,0.0,0.0,0.0,0.0,0.0,0.0,0.0,0.0,0.0,0.0,0.0,0.0,0.0,0,0,0,1,10,,122
1.000297846,0,1735643777088230371,map,0.9900265340537746,-0.2253241589713057,0.0159236216866265,-0.5004454111071953,0.5131568899179374,-0.4875203962288776,0.4985461464020538,0.0,0.0,0.0,1,8.267562463479059e-10,0,1735643777088253974,map,0.9759997158906092,-0.2447052561812596,0.149901768850463,-0.5127122463800969,0.4815352328520367,-0.4781247628948937,0.525972131429709,0.0,0.0,0.0,16,5.352114093327953e-08,0,1735643777088270664,map,0.9913928245387404,0.0560359129277653,0.0209442511066685,-0.5068208536009003,0.495907835594314,-0.4797626208603415,0.5167551340592892,0.0,0.0,0.0,17,8.503353047481206e-05,0,1735643777088284730,map,1.0127501933975969,-0.2626806065446078,0.2347256877824153,-0.5063097381791928,0.490452044501133,-0.4829794302432642,0.5194594411804134,0.0,0.0,0.0,121,1.8157850915534704e-07,0,1735643777088297367,map,1.0005119794873405,0.2023251098424666,0.2388259854376316,-0.5162373743650372,0.5192087820551635,-0.4918037421944879,0.4712221271427983,0.0,0.0,0.0,122,0.8047087119438617,0,1735643777088310956,map,0.999575328147204,0.2013815733835708,0.1413400325258657,-0.4802280031417116,0.5088320645339485,-0.4897651622281606,0.5201933111529471,0.0,0.0,0.0,124,0.14375635600007022,0,1735643777088322877,map,1.0009093234945106,-0.0308561257957522,0.2393725161175282,-0.4239321628783093,0.5833419329837456,-0.562980640765445,0.4037901789586201,0.0,0.0,0.0,125,0.0023139046165352806,0,1735643777088343858,map,1.0063157044516076,-0.0265083347288091,0.1399048673913653,0.5122103719410241,-0.5038377464361352,0.4894380449249373,-0.4942048768701592,0.0,0.0,0.0,126,0.0003015471722506774,0,1735644242188269615,map,0.966093907611367,0.329114930898578,0.0277540678154382,-0.4868351386959643,0.4932189783054569,-0.4902612645959426,0.528555086634297,0.0,0.0,0.0,0,0.04883421081040094,0.920850389405156,0.4529973376165329,0.2956475009165966,1.0,3.8241287733603256e-05,-5.506808121521671e-05,-0.0005617460843599,0.0,0.0,0.0,-5.506808121521671e-05,0.0160902686569033,-0.0025810380966924,0.0,0.0,0.0,-0.0005617460843599,-0.0025810380966924,0.0089695271286252,0.0,0.0,0.0,0.0,0.0,0.0,0.0,0.0,0.0,0.0,0.0,0.0,0.0,0.0,0.0,0.0,0.0,0.0,0.0,0.0,0.0,0,0,0,1,11,,122
1.099750721,0,1735643777088230371,map,0.9800753486858844,-0.2206193685162585,0.0198119295888997,-0.502615837109866,0.4974325712869922,-0.4828071632645169,0.5165611294025434,0.0,0.0,0.0,1,2.4610453686113293e-09,0,1735643777088253974,map,0.9870582243268584,-0.2526145835999048,0.145577193695421,-0.5099468228667877,0.4940537580676471,-0.4798474176230031,0.5153751815792452,0.0,0.0,0.0,16,3.5893803053741074e-08,0,1735643777088270664,map,0.9878644547696236,0.0564287981661006,0.0219640449405403,-0.4954933732156669,0.4978335396074159,-0.4944068994252967,0.5120643531256366,0.0,0.0,0.0,17,0.00012994122812151954,0,1735643777088284730,map,1.0127501933975969,-0.2626806065446078,0.2347256877824153,-0.5063097381791928,0.490452044501133,-0.4829794302432642,0.5194594411804134,0.0,0.0,0.0,121,1.4753545527462766e-07,0,1735643777088297367,map,1.0094382466993503,0.2048395716538305,0.2378621901523281,-0.4994257842572797,0.4972236641823079,-0.5006976352033274,0.5026374358301591,0.0,0.0,0.0,122,0.8007462679433354,0,1735643777088310956,map,0.9978907725991212,0.2009133276845537,0.1410059954488955,-0.4754191111237169,0.5053406881961381,-0.4958440686840464,0.5222510097478416,0.0,0.0,0.0,124,0.15091592320122696,0,1735643777088322877,map,1.0008136976887712,-0.0314253846950615,0.2390069761072117,-0.5497246605044562,0.4874545338433012,-0.4417339472572255,0.514841718307114,0.0,0.0,0.0,125,0.002004536073474115,0,1735643777088343858,map,1.003603300347292,-0.0270299485600078,0.1400686067166908,-0.5193967054667512,0.5204093733508388,-0.482802118624672,0.4757134229033278,0.0,0.0,0.0,126,0.0003406667815404979,0,1735644242188269615,map,0.9757263411693392,0.3350086289341917,0.0228960276464244,-0.507001832877307,0.4910789007211829,-0.47767562467767,0.5230837909114794,0.0,0.0,0.0,0,0.045862478881997806,0.9202081651266244,0.4615755781602531,0.3034610254786471,1.0,3.959148601909524e-05,-0.0001110797722341,-0.0005701322975844,0.0,0.0,0.0,-0.0001110797722341,0.0155588612545798,-0.0016286623635718,0.0,0.0,0.0,-0.0005701322975844,-0.0016286623635718,0.0088936293614725,0.0,0.0,0.0,0.0,0.0,0.0,0.0,0.0,0.0,0.0,0.0,0.0,0.0,0.0,0.0,0.0,0.0,0.0,0.0,0.0,0.0,0,0,0,1,12,,122
1.199952914,0,1735643777088230371,map,0.9919842204836752,-0.2270479934059474,0.0139095938484258,-0.5016633873242234,0.5104121181707382,-0.4923152387125652,0.4954180266948673,0.0,0.0,0.0,1,4.341017902774341e-09,0,1735643777088253974,map,0.976168071455,-0.2473151528730405,0.1482778234239204,-0.5025904021422863,0.4822070550363241,-0.4866637377963437,0.5272927555559072,0.0,0.0,0.0,16,8.06848509272361e-08,0,1735643777088270664,map,0.986584226225008,0.0560996162859734,0.0224845136081665,-0.4887638904817115,0.4884249824403494,-0.4956619837066701,0.526184467461074,0.0,0.0,0.0,17,0.0002446977599016058,0,1735643777088284730,map,1.0127501933975969,-0.2626806065446078,0.2347256877824153,-0.5063097381791928,0.490452044501133,-0.4829794302432642,0.5194594411804134,0.0,0.0,0.0,121,1.5227582523175754e-07,0,1735643777088297367,map,1.0042294073333378,0.2029991148544592,0.2381680896812475,0.5058432425831405,-0.5005171630525869,0.4936102960327949,-0.499954056962418,0.0,0.0,0.0,122,0.7731395789163256,0,1735643777088310956,map,0.9995165612707966,0.2011653239708897,0.1405906841342672,-0.4823404295155304,0.5184268163820877,-0.4921262950630927,0.5063526990331744,0.0,0.0,0.0,124,0.17252317918117904,0,1735643777088322877,map,0.9959146057757172,-0.0315068494972516,0.2391756413762066,-0.5488293587626859,0.4965814641090713,-0.4373141186900414,0.5108322092994746,0.0,0.0,0.0,125,0.0019946002477993162,0,1735643777088343858,map,1.0020808688604488,-0.0271796428944634,0.1406789735109986,-0.5092797973603408,0.6972055164348271,-0.4131807093818191,0.2895172831597327,0.0,0.0,0.0,126,0.0004750970883360901,0,1735644242188269615,map,0.9786093916165146,0.3364111918030225,0.0216119341269319,-0.5002627944144112,0.4934422853642756,-0.4789507701977975,0.5261729822654351,0.0,0.0,0.0,0,0.051622609504764466,0.9195142311027968,0.4706916365448503,0.3119360363142502,1.0,4.232452024765537e-05,-0.0001784464912852,-0.0005968491474546,0.0,0.0,0.0,-0.0001784464912852,0.0153592560191149,-0.0005762763202476,0.0,0.0,0.0,-0.0005968491474546,-0.0005762763202476,0.0090714137299377,0.0,0.0,0.0,0.0,0.0,0.0,0.0,0.0,0.0,0.0,0.0,0.0,0.0,0.0,0.0,0.0,0.0,0.0,0.0,0.0,0.0,0,0,0,1,13,,122
1.300467711,0,1735643777088230371,map,0.9926930470276564,-0.227660923973514,0.0129135955570093,-0.498370024743241,0.5203010925880338,-0.4937655561594677,0.4869390793925366,0.0,0.0,0.0,1,1.4355731380772997e-09,0,1735643777088253974,map,0.9833660285481374,-0.2512869140153464,0.1460032538767806,-0.5046595898503655,0.4994838311400332,-0.4808683708408485,0.5143930508148457,0.0,0.0,0.0,16,2.2454853606617506e-08,0,1735643777088270664,map,0.9873180978158812,0.0562643172620196,0.0214724036145042,0.4830265374401294,-0.5036069182251296,0.5131681576436397,-0.4997238017395406,0.0,0.0,0.0,17,0.00016130049849247288,0,1735643777088284730,map,1.0127501933975969,-0.2626806065446078,0.2347256877824153,-0.5063097381791928,0.490452044501133,-0.4829794302432642,0.5194594411804134,0.0,0.0,0.0,121,5.3175665304762754e-08,0,1735643777088297367,map,1.003209283017272,0.2027711702157272,0.2377563098417953,0.5094970086064321,-0.5007902051049394,0.4955242714256524,-0.4940421693743624,0.0,0.0,0.0,122,0.7871986488878753,0,1735643777088310956,map,1.000489104296399,0.2010179965121976,0.1399737044664049,0.7232212159024303,-0.4779001617511673,0.2504879024874282,-0.4310664902010678,0.0,0.0,0.0,124,0.16135335480221474,0,1735643777088322877,map,0.9985313772113964,-0.0322214005382005,0.2384545857627612,-0.5436606797986794,0.4933745818996453,-0.4495573850136928,0.5088346929562085,0.0,0.0,0.0,125,0.00129274116271443,0,1735643777088343858,map,1.001019368227105,-0.0278013957133595,0.1400456188608614,0.4973485760306775,-0.5009613384295535,0.5097977695724549,-0.4917198038091185,0.0,0.0,0.0,126,0.0002983209586099764,0,1735644242188269615,map,0.973793011041386,0.334627576471985,0.0234228494419126,-0.5042803531517913,0.492083228290143,-0.4822756483275117,0.5205435821244313,0.0,0.0,0.0,0,0.04969555662400104,0.9191553248607974,0.4735896470983063,0.3167040349314539,1.0,4.097591820706545e-05,-0.0001792217963375,-0.0005764635035458,0.0,0.0,0.0,-0.0001792217963375,0.0143713463506471,-0.0003554834918945,0.0,0.0,0.0,-0.0005764635035458,-0.0003554834918945,0.0087189951469483,0.0,0.0,0.0,0.0,0.0,0.0,0.0,0.0,0.0,0.0,0.0,0.0,0.0,0.0,0.0,0.0,0.0,0.0,0.0,0.0,0.0,0,0,0,1,14,,122
1.399181426,0,1735643777088230371,map,0.996960408296484,-0.2315719980121681,0.0097211501670053,-0.4945149360601508,0.5265998750627683,-0.4882625138807892,0.489639936214474,0.0,0.0,0.0,1,3.3071135421883583e-10,0,1735643777088253974,map,0.9764750551016814,-0.248167506553844,0.1476673203026229,-0.5056480622229248,0.4868985066355174,-0.4809068710463708,0.5253365233702044,0.0,0.0,0.0,16,9.20263135741114e-09,0,1735643777088270664,map,0.9839647054398156,0.0553256081686602,0.022489476644098,-0.4903792005776387,0.4933349009309668,-0.4953060205938432,0.5204045168210597,0.0,0.0,0.0,17,0.00011531200416913425,0,1735643777088284730,map,1.0127501933975969,-0.2626806065446078,0.2347256877824153,-0.5063097381791928,0.490452044501133,-0.4829794302432642,0.5194594411804134,0.0,0.0,0.0,121,1.7532854335238034e-08,0,1735643777088297367,map,0.9971021091167308,0.1999427689877282,0.2375194175864875,-0.4814551133501908,0.4827449008851341,-0.5180030581671586,0.5165570309538225,0.0,0.0,0.0,122,0.791881156145357,0,1735643777088310956,map,0.9935780821972088,0.1985857351501352,0.1405327875817551,-0.4659395047150342,0.5092211573626119,-0.5100127000228395,0.5133042340129326,0.0,0.0,0.0,124,0.1550951767033541,0,1735643777088322877,map,1.0025599740421394,-0.0345907367956722,0.2370642832830446,0.5205789994292972,-0.5080702235112998,0.4741873412738471,-0.4959924583196904,0.0,0.0,0.0,125,0.0007789562780295371,0,1735643777088343858,map,1.005663102454067,-0.0305124291800199,0.1374183779857673,-0.5132242853390235,0.518957111210108,-0.4874804417155584,0.4792151589917751,0.0,0.0,0.0,126,0.0001604679726620308,0,1735644242188269615,map,0.9693009315498476,0.3315423606878679,0.0249013543192239,-0.4865297033549951,0.496478414713237,-0.4942857443203255,0.5219958184112521,0.0,0.0,0.0,0,0.05196890383023106,0.9187529908913804,0.4741813336489913,0.3226115187369814,1.0,4.051040704784986e-05,-0.0001706064549618,-0.0005713075430318,0.0,0.0,0.0,-0.0001706064549618,0.013418157895577,-0.0002828492904091,0.0,0.0,0.0,-0.0005713075430318,-0.0002828492904091,0.0086263059125944,0.0,0.0,0.0,0.0,0.0,0.0,0.0,0.0,0.0,0.0,0.0,0.0,0.0,0.0,0.0,0.0,0.0,0.0,0.0,0.0,0.0,0,0,0,1,15,,122
1.499517094,0,1735643777088230371,map,0.9874612446251558,-0.230514048193408,0.0121758618064355,-0.4956904272185333,0.516097887559567,-0.4933038974597177,0.4945555940149829,0.0,0.0,0.0,1,1.93884770686479e-10,0,1735643777088253974,map,0.978507406125946,-0.2531427447141035,0.1452899000761955,-0.4989793542802251,0.4885985958195941,-0.4898373164794779,0.5218720336915886,0.0,0.0,0.0,16,2.7903014219538725e-09,0,1735643777088270664,map,0.9843752561695972,0.0528479774087,0.0200873129284736,-0.4840286728612408,0.49849898648167,-0.5101664756142682,0.506897594671991,0.0,0.0,0.0,17,8.484791722554563e-05,0,1735643777088284730,map,1.0127501933975969,-0.2626806065446078,0.2347256877824153,-0.5063097381791928,0.490452044501133,-0.4829794302432642,0.5194594411804134,0.0,0.0,0.0,121,6.725529260882232e-09,0,1735643777088297367,map,0.9955911748575824,0.1977956168006561,0.2364476239485802,0.5039300795891941,-0.5005840615205949,0.4956394360919498,-0.4998115861274403,0.0,0.0,0.0,122,0.8005720617252561,0,1735643777088310956,map,0.9943169251916072,0.1965697990098092,0.1383624723173401,-0.4680846795558476,0.5074037331833399,-0.4993456271992642,0.5235380873572455,0.0,0.0,0.0,124,0.1482260191400861,0,1735643777088322877,map,0.9965255571101168,-0.0364741175109607,0.2363062529604437,-0.5333091455810481,0.4918845028024373,-0.4592398460466962,0.5125717071253725,0.0,0.0,0.0,125,0.0005152137761681156,0,1735643777088343858,map,1.0069232680488098,-0.0340608897892828,0.1348312503427935,-0.5070710039176687,0.5100446276666145,-0.493179995220624,0.4893944902515119,0.0,0.0,0.0,126,9.675637767781943e-05,0,1735644242188269615,map,0.971615544493032,0.3316892248950681,0.0216026800205776,-0.5020685111880688,0.4882133304018952,-0.4742284543589026,0.5335563017785961,0.0,0.0,0.0,0,0.05050509135387075,0.9183312592220644,0.4766347935524153,0.3284156710780517,1.0,4.064637062091904e-05,-0.0001754640776368,-0.0005723177444288,0.0,0.0,0.0,-0.0001754640776368,0.012669815009569,-5.156738412590287e-05,0.0,0.0,0.0,-0.0005723177444288,-5.156738412590287e-05,0.0085924845590325,0.0,0.0,0.0,0.0,0.0,0.0,0.0,0.0,0.0,0.0,0.0,0.0,0.0,0.0,0.0,0.0,0.0,0.0,0.0,0.0,0.0,0,0,0,1,16,,122
1.600361122,0,1735643777088230371,map,0.9874612446251558,-0.230514048193408,0.0121758618064355,-0.4956904272185333,0.516097887559567,-0.4933038974597177,0.4945555940149829,0.0,0.0,0.0,1,5.341132789019477e-11,0,1735643777088253974,map,0.9788341511498174,-0.2528616176888867,0.1450669276889102,-0.5000174772952607,0.4912570500960609,-0.490229222232393,0.5180003308875611,0.0,0.0,0.0,16,8.59506265919979e-10,0,1735643777088270664,map,0.9843752561695972,0.0528479774087,0.0200873129284736,-0.4840286728612408,0.49849898648167,-0.5101664756142682,0.506897594671991,0.0,0.0,0.0,17,5.209749982782063e-05,0,1735643777088284730,map,1.0127501933975969,-0.2626806065446078,0.2347256877824153,-0.5063097381791928,0.490452044501133,-0.4829794302432642,0.5194594411804134,0.0,0.0,0.0,121,2.144285826832017e-09,0,1735643777088297367,map,0.9939186268168424,0.1978944972725264,0.2359481301341232,-0.4866451838616378,0.4758839326011498,-0.5097993908185117,0.526132615257229,0.0,0.0,0.0,122,0.8152982180575854,0,1735643777088310956,map,0.9918254013828638,0.1966123919295392,0.1384727904079795,-0.4708048182157152,0.5093599265431125,-0.502439932363355,0.5161873717397292,0.0,0.0,0.0,124,0.1383013788039257,0,1735643777088322877,map,0.9975399589244396,-0.0367896049720158,0.2357095229374803,0.5293141511855451,-0.5140536520160431,0.4576615813482517,-0.4961060865999447,0.0,0.0,0.0,125,0.00032457954786729707,0,1735643777088343858,map,1.0009897749586627,-0.0333127322399292,0.1360039855649004,0.4966373858478224,-0.4953630356619619,0.5097912857163212,-0.498075912774054,0.0,0.0,0.0,126,6.109410014421334e-05,0,1735644242188269615,map,0.971615544493032,0.3316892248950681,0.0216026800205776,-0.5020685111880688,0.4882133304018952,-0.4742284543589026,0.5335563017785961,0.0,0.0,0.0,0,0.04596262893344609,0.918070343378248,0.4767465767503745,0.3323042823800108,1.0,3.934464088408936e-05,-0.0001656093174239,-0.0005548855995425,0.0,0.0,0.0,-0.0001656093174239,0.0119247317014456,-4.157910607783472e-05,0.0,0.0,0.0,-0.0005548855995425,-4.157910607783472e-05,0.0083289850565777,0.0,0.0,0.0,0.0,0.0,0.0,0.0,0.0,0.0,0.0,0.0,0.0,0.0,0.0,0.0,0.0,0.0,0.0,0.0,0.0,0.0,0,0,0,1,17,,122
1.700427991,0,1735643777088230371,map,0.9874612446251558,-0.230514048193408,0.0121758618064355,-0.4956904272185333,0.516097887559567,-0.4933038974597177,0.4945555940149829,0.0,0.0,0.0,1,1.3718118232196028e-11,0,1735643777088253974,map,0.974779996642954,-0.2507633816975062,0.1462989465196966,-0.5014475866574115,0.4993571285728066,-0.4871486520481282,0.5117411130509949,0.0,0.0,0.0,16,3.362508381165178e-10,0,1735643777088270664,map,0.9843752561695972,0.0528479774087,0.0200873129284736,-0.4840286728612408,0.49849898648167,-0.5101664756142682,0.506897594671991,0.0,0.0,0.0,17,3.0245362575764252e-05,0,1735643777088284730,map,0.9989747432947264,-0.2683071349909028,0.2306390302088484,-0.5070981911344898,0.5006861322406876,-0.4707864267728779,0.5201201417907355,0.0,0.0,0.0,121,5.518129048459391e-10,0,1735643777088297367,map,0.9909076395473444,0.1967447805489909,0.2361757961469801,-0.4976025027761638,0.5198265408619195,-0.5037373080356085,0.4779339296801049,0.0,0.0,0.0,122,0.8343674388002884,0,1735643777088310956,map,0.9906671061664752,0.1956189569200715,0.1383122851876221,-0.4835335871474549,0.5090418799359964,-0.4854446124074585,0.5209752036864265,0.0,0.0,0.0,124,0.12331576525159775,0,1735643777088322877,map,0.9945194833139196,-0.0373287462757082,0.2357498088505901,-0.5222357890434849,0.4941014012840763,-0.4702700101541729,0.5118395289940343,0.0,0.0,0.0,125,0.00022439164995850862,0,1735643777088343858,map,1.000449512141801,-0.0342637754848898,0.1353674690905402,-0.5056162030017789,0.5060868184381445,-0.5000576826968476,0.4880273572670688,0.0,0.0,0.0,126,3.419987313387844e-05,0,1735644242188269615,map,0.971615544493032,0.3316892248950681,0.0216026800205776,-0.5020685111880688,0.4882133304018952,-0.4742284543589026,0.5335563017785961,0.0,0.0,0.0,0,0.04202795816066374,0.917804988084773,0.4743892161254723,0.3367822461120584,1.0,3.835585584181808e-05,-0.0001457746517417,-0.000544258895255,0.0,0.0,0.0,-0.0001457746517417,0.0113567181418901,-0.0002187241372285,0.0,0.0,0.0,-0.000544258895255,-0.0002187241372285,0.0082071503706997,0.0,0.0,0.0,0.0,0.0,0.0,0.0,0.0,0.0,0.0,0.0,0.0,0.0,0.0,0.0,0.0,0.0,0.0,0.0,0.0,0.0,0,0,0,1,18,,122
1.800221661,0,1735643777088230371,map,0.9874612446251558,-0.230514048193408,0.0121758618064355,-0.4956904272185333,0.516097887559567,-0.4933038974597177,0.4945555940149829,0.0,0.0,0.0,1,6.965227119998949e-12,0,1735643777088253974,map,0.974779996642954,-0.2507633816975062,0.1462989465196966,-0.5014475866574115,0.4993571285728066,-0.4871486520481282,0.5117411130509949,0.0,0.0,0.0,16,2.641504972876866e-10,0,1735643777088270664,map,0.9843752561695972,0.0528479774087,0.0200873129284736,-0.4840286728612408,0.49849898648167,-0.5101664756142682,0.506897594671991,0.0,0.0,0.0,17,1.981464346295411e-05,0,1735643777088284730,map,0.9989747432947264,-0.2683071349909028,0.2306390302088484,-0.5070981911344898,0.5006861322406876,-0.4707864267728779,0.5201201417907355,0.0,0.0,0.0,121,5.409130616442995e-10,0,1735643777088297367,map,0.9848623739625736,0.1934595165275854,0.2358218971076397,0.4820604213942953,-0.5018176810000088,0.522531827013163,-0.4927040236482889,0.0,0.0,0.0,122,0.860879808295725,0,1735643777088310956,map,0.9893596124199012,0.1933453208963527,0.1372468851584965,-0.4883020423551978,0.5086718450250621,-0.4814674649178048,0.5205796286219467,0.0,0.0,0.0,124,0.10667493308900547,0,1735643777088322877,map,0.9951909646516288,-0.0407843503725696,0.2345283189973047,0.5230205448979086,-0.5152411434366221,0.4666246974455283,-0.4931911043993859,0.0,0.0,0.0,125,0.00020236399081059077,0,1735643777088343858,map,0.9959590766451408,-0.0362783456298988,0.1350810466255621,-0.4998179229255655,0.5131337469213442,-0.5049946123733352,0.4815145305873335,0.0,0.0,0.0,126,2.6792654737193e-05,0,1735644242188269615,map,0.971615544493032,0.3316892248950681,0.0216026800205776,-0.5020685111880688,0.4882133304018952,-0.4742284543589026,0.5335563017785961,0.0,0.0,0.0,0,0.032196286514230066,0.917733989486452,0.4691281549834175,0.3389607391518703,1.0,3.642786100432912e-05,-0.0001313787982482,-0.0005183977493826,0.0,0.0,0.0,-0.0001313787982482,0.0112572138925501,-0.0004135136719721,0.0,0.0,0.0,-0.0005183977493826,-0.0004135136719721,0.0078606200626724,0.0,0.0,0.0,0.0,0.0,0.0,0.0,0.0,0.0,0.0,0.0,0.0,0.0,0.0,0.0,0.0,0.0,0.0,0.0,0.0,0.0,0,0,0,1,19,,122
1.90029411,0,1735643777088230371,map,0.9874612446251558,-0.230514048193408,0.0121758618064355,-0.4956904272185333,0.516097887559567,-0.4933038974597177,0.4945555940149829,0.0,0.0,0.0,1,3.0513378425476025e-12,0,1735643777088253974,map,0.974779996642954,-0.2507633816975062,0.1462989465196966,-0.5014475866574115,0.4993571285728066,-0.4871486520481282,0.5117411130509949,0.0,0.0,0.0,16,1.6668690039685506e-10,0,1735643777088270664,map,0.9843752561695972,0.0528479774087,0.0200873129284736,-0.4840286728612408,0.49849898648167,-0.5101664756142682,0.506897594671991,0.0,0.0,0.0,17,1.2142523702992003e-05,0,1735643777088284730,map,0.9989747432947264,-0.2683071349909028,0.2306390302088484,-0.5070981911344898,0.5006861322406876,-0.4707864267728779,0.5201201417907355,0.0,0.0,0.0,121,4.034743642784555e-10,0,1735643777088297367,map,0.988167915213812,0.1938634424603602,0.2353910879888446,-0.4948003097859512,0.4764660916790256,-0.4988486171548271,0.5284910350030149,0.0,0.0,0.0,122,0.8812483268700563,0,1735643777088310956,map,0.9877061340479958,0.1929835578065395,0.137912837778961,-0.4823845750168039,0.5116479601898838,-0.4896773600271912,0.5154974002807279,0.0,0.0,0.0,124,0.09501588425824121,0,1735643777088322877,map,0.9852208681799004,-0.0380968574277467,0.2360378176984762,-0.5257035539568546,0.4906919294854803,-0.4632508677661922,0.5179342016210349,0.0,0.0,0.0,125,0.0002197521904356342,0,1735643777088343858,map,0.99407281142254,-0.0363205446349762,0.1356319371442781,0.5086949572458676,-0.5060274978045287,0.4896666111757879,-0.4953707922737596,0.0,0.0,0.0,126,2.0721241908016334e-05,0,1735644242188269615,map,0.971615544493032,0.3316892248950681,0.0216026800205776,-0.5020685111880688,0.4882133304018952,-0.4742284543589026,0.5335563017785961,0.0,0.0,0.0,0,0.0234831723424433,0.9176938264306796,0.4647615854912009,0.340487483026308,1.0,3.463711630404344e-05,-0.0001214777376288,-0.0004936429172017,0.0,0.0,0.0,-0.0001214777376288,0.0110566248513993,-0.0005195040196399,0.0,0.0,0.0,-0.0004936429172017,-0.0005195040196399,0.0075118770498433,0.0,0.0,0.0,0.0,0.0,0.0,0.0,0.0,0.0,0.0,0.0,0.0,0.0,0.0,0.0,0.0,0.0,0.0,0.0,0.0,0.0,0,0,0,1,20,,122
2.001712015,0,1735643777088230371,map,0.9874612446251558,-0.230514048193408,0.0121758618064355,-0.4956904272185333,0.516097887559567,-0.4933038974597177,0.4945555940149829,0.0,0.0,0.0,1,3.3329927231680606e-12,0,1735643777088253974,map,0.974779996642954,-0.2507633816975062,0.1462989465196966,-0.5014475866574115,0.4993571285728066,-0.4871486520481282,0.5117411130509949,0.0,0.0,0.0,16,2.0114555376989188e-10,0,1735643777088270664,map,0.9843752561695972,0.0528479774087,0.0200873129284736,-0.4840286728612408,0.49849898648167,-0.5101664756142682,0.506897594671991,0.0,0.0,0.0,17,1.1286395952865573e-05,0,1735643777088284730,map,0.9989747432947264,-0.2683071349909028,0.2306390302088484,-0.5070981911344898,0.5006861322406876,-0.4707864267728779,0.5201201417907355,0.0,0.0,0.0,121,4.890674741539733e-10,0,1735643777088297367,map,0.984001884479055,0.193308505066282,0.2355595297438192,-0.4816125346494902,0.484996269705662,-0.5189728029626769,0.5133178495095889,0.0,0.0,0.0,122,0.8919584741555254,0,1735643777088310956,map,0.9863090263539848,0.192653349141175,0.1372656879712611,-0.4716281581238953,0.5106059104507228,-0.4980002971614466,0.5185018695285113,0.0,0.0,0.0,124,0.08982052590737498,0,1735643777088322877,map,0.9919372496841082,-0.0408949120447514,0.2337984253502767,0.5168734037947614,-0.5054463004534605,0.477721150524469,-0.4991476977299455,0.0,0.0,0.0,125,0.00020567466207241792,0,1735643777088343858,map,0.9940239422707364,-0.0370291198752675,0.1346613926133234,0.5045484050228145,-0.4981545478125798,0.5028358314206818,-0.494397694292813,0.0,0.0,0.0,126,2.1252176389494847e-05,0,1735644242188269615,map,0.971615544493032,0.3316892248950681,0.0216026800205776,-0.5020685111880688,0.4882133304018952,-0.4742284543589026,0.5335563017785961,0.0,0.0,0.0,0,0.017982786009138687,0.9178243496516258,0.4599295950600718,0.3395534294446722,1.0,3.332845603749876e-05,-0.0001283068225491,-0.0004725744252609,0.0,0.0,0.0,-0.0001283068225491,0.0109970815366251,-0.0004044989736179,0.0,0.0,0.0,-0.0004725744252609,-0.0004044989736179,0.0071716177407657,0.0,0.0,0.0,0.0,0.0,0.0,0.0,0.0,0.0,0.0,0.0,0.0,0.0,0.0,0.0,0.0,0.0,0.0,0.0,0.0,0.0,0,0,0,1,21,,122
2.099461838,0,1735643777088230371,map,0.9874612446251558,-0.230514048193408,0.0121758618064355,-0.4956904272185333,0.516097887559567,-0.4933038974597177,0.4945555940149829,0.0,0.0,0.0,1,3.6287916582164814e-11,0,1735643777088253974,map,0.974779996642954,-0.2507633816975062,0.1462989465196966,-0.5014475866574115,0.4993571285728066,-0.4871486520481282,0.5117411130509949,0.0,0.0,0.0,16,1.4607016765810849e-09,0,1735643777088270664,map,0.9843752561695972,0.0528479774087,0.0200873129284736,-0.4840286728612408,0.49849898648167,-0.5101664756142682,0.506897594671991,0.0,0.0,0.0,17,2.8641728178070934e-05,0,1735643777088284730,map,0.9989747432947264,-0.2683071349909028,0.2306390302088484,-0.5070981911344898,0.5006861322406876,-0.4707864267728779,0.5201201417907355,0.0,0.0,0.0,121,2.738952457659031e-09,0,1735643777088297367,map,0.9870426341333698,0.1919294003663812,0.2328760834129979,0.5064263850057931,-0.5037085227573248,0.4930119817929401,-0.4967385896829396,0.0,0.0,0.0,122,0.8765717015472266,0,1735643777088310956,map,0.985138389812662,0.191825528437129,0.1364321564596854,-0.4821672882372507,0.5042288305922785,-0.4879878019314062,0.5245339814727298,0.0,0.0,0.0,124,0.10682895331284185,0,1735643777088322877,map,0.9907137153923424,-0.0417283330014438,0.2331928821073526,0.5204870105563466,-0.5094187713196628,0.471167245917499,-0.4975813638429413,0.0,0.0,0.0,125,0.00042688636788027785,0,1735643777088343858,map,0.9931656924152936,-0.0381379784062588,0.1332939335374891,0.5042224533018184,-0.4972669412747389,0.4987209361172118,-0.499762678258324,0.0,0.0,0.0,126,5.560412017565164e-05,0,1735644242188269615,map,0.971615544493032,0.3316892248950681,0.0216026800205776,-0.5020685111880688,0.4882133304018952,-0.4742284543589026,0.5335563017785961,0.0,0.0,0.0,0,0.01608820868775547,0.918121739417903,0.4528021052053355,0.3366033308583463,1.0,3.3670780352427006e-05,-0.0001669871876343,-0.0004695176812779,0.0,0.0,0.0,-0.0001669871876343,0.011564037538268,5.545009599942434e-05,0.0,0.0,0.0,-0.0004695176812779,5.545009599942434e-05,0.0070283998312354,0.0,0.0,0.0,0.0,0.0,0.0,0.0,0.0,0.0,0.0,0.0,0.0,0.0,0.0,0.0,0.0,0.0,0.0,0.0,0.0,0.0,0,0,0,1,22,,122
2.199295363,0,1735643777088230371,map,0.9874612446251558,-0.230514048193408,0.0121758618064355,-0.4956904272185333,0.516097887559567,-0.4933038974597177,0.4945555940149829,0.0,0.0,0.0,1,2.928135511490711e-10,0,1735643777088253974,map,0.974779996642954,-0.2507633816975062,0.1462989465196966,-0.5014475866574115,0.4993571285728066,-0.4871486520481282,0.5117411130509949,0.0,0.0,0.0,16,1.1540795379099032e-08,0,1735643777088270664,map,0.9843752561695972,0.0528479774087,0.0200873129284736,-0.4840286728612408,0.49849898648167,-0.5101664756142682,0.506897594671991,0.0,0.0,0.0,17,4.924151620416058e-05,0,1735643777088284730,map,0.9989747432947264,-0.2683071349909028,0.2306390302088484,-0.5070981911344898,0.5006861322406876,-0.4707864267728779,0.5201201417907355,0.0,0.0,0.0,121,2.087577514679249e-08,0,1735643777088297367,map,0.9841527072670876,0.1909831968464038,0.2336347951084189,0.505801856464254,-0.5039148872862081,0.493711355956075,-0.4964709108987715,0.0,0.0,0.0,122,0.8790592575379345,0,1735643777088310956,map,0.979763893734862,0.1894887969622167,0.1374514322326109,-0.479101651549236,0.504596489056693,-0.4904110389035648,0.5247294575645425,0.0,0.0,0.0,124,0.10942324495035492,0,1735643777088322877,map,0.9884132654532388,-0.044131474544044,0.2327560042178614,0.5158953483067634,-0.5123542077079903,0.4760850440638187,-0.4946596671026578,0.0,0.0,0.0,125,0.0009081450727563197,0,1735643777088343858,map,0.9866333420063758,-0.0389662554522008,0.1345962869044691,0.5020053570160974,-0.5003702539070004,0.4979204678930011,-0.499695345370956,0.0,0.0,0.0,126,0.00014421584912067286,0,1735644242188269615,map,0.971615544493032,0.3316892248950681,0.0216026800205776,-0.5020685111880688,0.4882133304018952,-0.4742284543589026,0.5335563017785961,0.0,0.0,0.0,0,0.010415862364245427,0.9183445609399647,0.444502692381987,0.335019467275692,1.0,3.329912085584936e-05,-0.0002004112066739,-0.0004568680847214,0.0,0.0,0.0,-0.0002004112066739,0.0125766188681457,0.0003422322522832,0.0,0.0,0.0,-0.0004568680847214,0.0003422322522832,0.0067780069545434,0.0,0.0,0.0,0.0,0.0,0.0,0.0,0.0,0.0,0.0,0.0,0.0,0.0,0.0,0.0,0.0,0.0,0.0,0.0,0.0,0.0,0,0,0,1,23,,122
2.299943691,0,1735643777088230371,map,0.9874612446251558,-0.230514048193408,0.0121758618064355,-0.4956904272185333,0.516097887559567,-0.4933038974597177,0.4945555940149829,0.0,0.0,0.0,1,8.441277965833452e-10,0,1735643777088253974,map,0.974779996642954,-0.2507633816975062,0.1462989465196966,-0.5014475866574115,0.4993571285728066,-0.4871486520481282,0.5117411130509949,0.0,0.0,0.0,16,4.473326928096861e-08,0,1735643777088270664,map,0.9843752561695972,0.0528479774087,0.0200873129284736,-0.4840286728612408,0.49849898648167,-0.5101664756142682,0.506897594671991,0.0,0.0,0.0,17,5.228722000917005e-05,0,1735643777088284730,map,0.9989747432947264,-0.2683071349909028,0.2306390302088484,-0.5070981911344898,0.5006861322406876,-0.4707864267728779,0.5201201417907355,0.0,0.0,0.0,121,9.401019280564113e-08,0,1735643777088297367,map,0.9795422448848864,0.1900576525056252,0.2348041436275332,0.4938653728861189,-0.4994491121683292,0.5074704797843363,-0.4991205164745063,0.0,0.0,0.0,122,0.8897647138575442,0,1735643777088310956,map,0.978737057080626,0.1891028552375481,0.1379754284230963,-0.4704384074704634,0.506616320429081,-0.4987510186379536,0.5227571425233294,0.0,0.0,0.0,124,0.10198560281301969,0,1735643777088322877,map,0.9877626707325564,-0.0449447653303707,0.2330606513102933,-0.5123805481025572,0.5170230071093573,-0.4786349252913532,0.4909806435462207,0.0,0.0,0.0,125,0.0016628907639600708,0,1735643777088343858,map,0.9872591790085812,-0.0397571654429275,0.1344658279875267,0.4995991626654716,-0.4959216246505548,0.5066672647297125,-0.4977456194877313,0.0,0.0,0.0,126,0.00023526417395006307,0,1735644242188269615,map,0.971615544493032,0.3316892248950681,0.0216026800205776,-0.5020685111880688,0.4882133304018952,-0.4742284543589026,0.5335563017785961,0.0,0.0,0.0,0,0.0062991015839270565,0.9184713528679006,0.4365381832695927,0.3348046023957873,1.0,3.228140992561773e-05,-0.0002152869554338,-0.0004384585065692,0.0,0.0,0.0,-0.0002152869554338,0.0135115614062054,0.0003673323208652,0.0,0.0,0.0,-0.0004384585065692,0.0003673323208652,0.0064966518371863,0.0,0.0,0.0,0.0,0.0,0.0,0.0,0.0,0.0,0.0,0.0,0.0,0.0,0.0,0.0,0.0,0.0,0.0,0.0,0.0,0.0,0,0,0,1,24,,122
2.398881332,0,1735643777088230371,map,0.9874612446251558,-0.230514048193408,0.0121758618064355,-0.4956904272185333,0.516097887559567,-0.4933038974597177,0.4945555940149829,0.0,0.0,0.0,1,2.1651734638456214e-09,0,1735643777088253974,map,0.974779996642954,-0.2507633816975062,0.1462989465196966,-0.5014475866574115,0.4993571285728066,-0.4871486520481282,0.5117411130509949,0.0,0.0,0.0,16,1.1070766108244824e-07,0,1735643777088270664,map,0.9843752561695972,0.0528479774087,0.0200873129284736,-0.4840286728612408,0.49849898648167,-0.5101664756142682,0.506897594671991,0.0,0.0,0.0,17,6.632404557440822e-05,0,1735643777088284730,map,0.9989747432947264,-0.2683071349909028,0.2306390302088484,-0.5070981911344898,0.5006861322406876,-0.4707864267728779,0.5201201417907355,0.0,0.0,0.0,121,2.1853446482248993e-07,0,1735643777088297367,map,0.9806337658356976,0.190308293380631,0.2337536247840685,-0.5005695586311072,0.4888786145121805,-0.4973175382960728,0.5129357497266528,0.0,0.0,0.0,122,0.8900697047294023,0,1735643777088310956,map,0.9780797054577894,0.1891954991091356,0.1372630458237626,-0.4743337628193932,0.5035890308213017,-0.4958805717282767,0.5248885863385627,0.0,0.0,0.0,124,0.10230105308855861,0,1735643777088322877,map,0.9868983469522434,-0.0450787816423133,0.2323549986014799,-0.505861424623383,0.510552390617694,-0.4919360564828402,0.4913648256078886,0.0,0.0,0.0,125,0.0023959887211372067,0,1735643777088343858,map,0.983721270281439,-0.0388557098485939,0.1349533482571394,0.5020097177411347,-0.4952565262977833,0.5044863111534926,-0.4981975294114384,0.0,0.0,0.0,126,0.00038250436969828347,0,1735644242188269615,map,0.971615544493032,0.3316892248950681,0.0216026800205776,-0.5020685111880688,0.4882133304018952,-0.4742284543589026,0.5335563017785961,0.0,0.0,0.0,0,0.004784093638329678,0.9186695055984012,0.4300924674569245,0.3331981542361,1.0,3.193250163910855e-05,-0.0002373291457359,-0.0004285598964484,0.0,0.0,0.0,-0.0002373291457359,0.0139682330060615,0.0006011520273537,0.0,0.0,0.0,-0.0004285598964484,0.0006011520273537,0.0062987219802531,0.0,0.0,0.0,0.0,0.0,0.0,0.0,0.0,0.0,0.0,0.0,0.0,0.0,0.0,0.0,0.0,0.0,0.0,0.0,0.0,0.0,0,0,0,1,25,,122
