%time,field.boxes0.header.seq,field.boxes0.header.stamp,field.boxes0.header.frame_id,field.boxes0.pose.position.x,field.boxes0.pose.position.y,field.boxes0.pose.position.z,field.boxes0.pose.orientation.x,field.boxes0.pose.orientation.y,field.boxes0.pose.orientation.z,field.boxes0.pose.orientation.w,field.boxes0.scale.x,field.boxes0.scale.y,field.boxes0.scale.z,field.boxes0.id,field.boxes0.pdf,field.boxes1.header.seq,field.boxes1.header.stamp,field.boxes1.header.frame_id,field.boxes1.pose.position.x,field.boxes1.pose.position.y,field.boxes1.pose.position.z,field.boxes1.pose.orientation.x,field.boxes1.pose.orientation.y,field.boxes1.pose.orientation.z,field.boxes1.pose.orientation.w,field.boxes1.scale.x,field.boxes1.scale.y,field.boxes1.scale.z,field.boxes1.id,field.boxes1.pdf,field.boxes2.header.seq,field.boxes2.header.stamp,field.boxes2.header.frame_id,field.boxes2.pose.position.x,field.boxes2.pose.position.y,field.boxes2.pose.position.z,field.boxes2.pose.orientation.x,field.boxes2.pose.orientation.y,field.boxes2.pose.orientation.z,field.boxes2.pose.orientation.w,field.boxes2.scale.x,field.boxes2.scale.y,field.boxes2.scale.z,field.boxes2.id,field.boxes2.pdf,field.boxes3.header.seq,field.boxes3.header.stamp,field.boxes3.header.frame_id,field.boxes3.pose.position.x,field.boxes3.pose.position.y,field.boxes3.pose.position.z,field.boxes3.pose.orientation.x,field.boxes3.pose.orientation.y,field.boxes3.pose.orientation.z,field.boxes3.pose.orientation.w,field.boxes3.scale.x,field.boxes3.scale.y,field.boxes3.scale.z,field.boxes3.id,field.boxes3.pdf,field.boxes4.header.seq,field.boxes4.header.stamp,field.boxes4.header.frame_id,field.boxes4.pose.position.x,field.boxes4.pose.position.y,field.boxes4.pose.position.z,field.boxes4.pose.orientation.x,field.boxes4.pose.orientation.y,field.boxes4.pose.orientation.z,field.boxes4.pose.orientation.w,field.boxes4.scale.x,field.boxes4.scale.y,field.boxes4.scale.z,field.boxes4.id,field.boxes4.pdf,field.boxes5.header.seq,field.boxes5.header.stamp,field.boxes5.header.frame_id,field.boxes5.pose.position.x,field.boxes5.pose.position.y,field.boxes5.pose.position.z,field.boxes5.pose.orientation.x,field.boxes5.pose.orientation.y,field.boxes5.pose.orientation.z,field.boxes5.pose.orientation.w,field.boxes5.scale.x,field.boxes5.scale.y,field.boxes5.scale.z,field.boxes5.id,field.boxes5.pdf,field.boxes6.header.seq,field.boxes6.header.stamp,field.boxes6.header.frame_id,field.boxes6.pose.position.x,field.boxes6.pose.position.y,field.boxes6.pose.position.z,field.boxes6.pose.orientation.x,field.boxes6.pose.orientation.y,field.boxes6.pose.orientation.z,field.boxes6.pose.orientation.w,field.boxes6.scale.x,field.boxes6.scale.y,field.boxes6.scale.z,field.boxes6.id,field.boxes6.pdf,field.boxes7.header.seq,field.boxes7.header.stamp,field.boxes7.header.frame_id,field.boxes7.pose.position.x,field.boxes7.pose.position.y,field.boxes7.pose.position.z,field.boxes7.pose.orientation.x,field.boxes7.pose.orientation.y,field.boxes7.pose.orientation.z,field.boxes7.pose.orientation.w,field.boxes7.scale.x,field.boxes7.scale.y,field.boxes7.scale.z,field.boxes7.id,field.boxes7.pdf,field.boxes8.header.seq,field.boxes8.header.stamp,field.boxes8.header.frame_id,field.boxes8.pose.position.x,field.boxes8.pose.position.y,field.boxes8.pose.position.z,field.boxes8.pose.orientation.x,field.boxes8.pose.orientation.y,field.boxes8.pose.orientation.z,field.boxes8.pose.orientation.w,field.boxes8.scale.x,field.boxes8.scale.y,field.boxes8.scale.z,field.boxes8.id,field.boxes8.pdf,field.pose.pose.position.x,field.pose.pose.position.y,field.pose.pose.position.z,field.pose.pose.orientation.w,field.pose.covariance0,field.pose.covariance1,field.pose.covariance2,field.pose.covariance3,field.pose.covariance4,field.pose.covariance5,field.pose.covariance6,field.pose.covariance7,field.pose.covariance8,field.pose.covariance9,field.pose.covariance10,field.pose.covariance11,field.pose.covariance12,field.pose.covariance13,field.pose.covariance14,field.pose.covariance15,field.pose.covariance16,field.pose.covariance17,field.pose.covariance18,field.pose.covariance19,field.pose.covariance20,field.pose.covariance21,field.pose.covariance22,field.pose.covariance23,field.pose.covariance24,field.pose.covariance25,field.pose.covariance26,field.pose.covariance27,field.pose.covariance28,field.pose.covariance29,field.pose.covariance30,field.pose.covariance31,field.pose.covariance32,field.pose.covariance33,field.pose.covariance34,field.pose.covariance35,field.buttons0,field.buttons1,field.buttons2,field.buttons3,intersection_length,vacuum,desired_box
0.0,0,1735643777088230371,map,0.9749550911054856,-0.2203753102038332,0.0230463778215304,-0.4897350492145348,0.4904739430502478,-0.5010848562816613,0.5181784051509348,0.0,0.0,0.0,1,0.1111111111111111,0,1735643777088253974,map,0.9886417048681392,-0.2533739652138405,0.1470803912280081,-0.4891964722182005,0.4958495109268691,-0.5099241889249052,0.5047745988380656,0.0,0.0,0.0,16,0.1111111111111111,0,1735643777088270664,map,0.9919799885794096,0.0548352943851231,0.0236897969499732,-0.5118586411767507,0.5039351206776707,-0.4823401680427631,0.5013961386895108,0.0,0.0,0.0,17,0.1111111111111111,0,1735643777088284730,map,1.0057588423305144,-0.260438829661217,0.2364731393546846,-0.4913351576321398,0.4996104426542831,-0.4932384014698571,0.5154561550518647,0.0,0.0,0.0,121,0.1111111111111111,0,1735643777088297367,map,1.0235023267998964,0.2023141772533427,0.2439223377665922,-0.5135011609728244,0.4946092132652869,-0.4875450778894613,0.503962380399981,0.0,0.0,0.0,122,0.1111111111111111,0,1735643777088310956,map,1.0150914541705194,0.2022423952148287,0.1464744211397987,-0.4854547574056703,0.504858322095131,-0.4828251440317969,0.5256725534153038,0.0,0.0,0.0,124,0.1111111111111111,0,1735643777088322877,map,0.996071071058248,-0.0309726743326596,0.2424848049090139,-0.5553865383752528,0.4889698867785433,-0.4382766388353367,0.5102625115237575,0.0,0.0,0.0,125,0.1111111111111111,0,1735643777088343858,map,1.000173286659545,-0.0250735032656305,0.1449962663856442,-0.4867200323444528,0.4626148507881353,-0.5119639122520392,0.5357089344937909,0.0,0.0,0.0,126,0.1111111111111111,0,1735644242188269615,map,0.975160176010353,0.3289299456339576,0.0279390707739521,-0.4937301735722252,0.50453830873029,-0.4841386142887747,0.5169926623100797,0.0,0.0,0.0,0,0.1111111111111111,0.9125921977116314,0.5623611023448611,0.3963188944519374,1.0,0.0,0.0,0.0,0.0,0.0,0.0,0.0,0.0,0.0,0.0,0.0,0.0,0.0,0.0,0.0,0.0,0.0,0.0,0.0,0.0,0.0,0.0,0.0,0.0,0.0,0.0,0.0,0.0,0.0,0.0,0.0,0.0,0.0,0.0,0.0,0.0,0,0,0,1,1,,124
0.099004082,0,1735643777088230371,map,0.9792819123786378,-0.2205480916025753,0.0222056314589627,-0.4914650744853533,0.4976147965928283,-0.4963695455694337,0.5142556455734616,0.0,0.0,0.0,1,,0,1735643777088253974,map,0.9728098032415686,-0.2464829882960036,0.1496589854602723,-0.49799950984272,0.4762628525104613,-0.4931877020847637,0.5309765286972289,0.0,0.0,0.0,16,,0,1735643777088270664,map,0.9902172198688322,0.0555537974504644,0.0247278291007532,-0.5124118951336236,0.4868486366674548,-0.470905663846336,0.5278828567571123,0.0,0.0,0.0,17,,0,1735643777088284730,map,1.0115298700202275,-0.2615671484622655,0.2369799261312408,-0.4991418821019255,0.5071846280264254,-0.4850095784060956,0.5083176600117147,0.0,0.0,0.0,121,,0,1735643777088297367,map,1.0257910649258437,0.2036003949031476,0.2445537735583786,-0.5118431660862284,0.494486720286996,-0.4890900842553981,0.5042720954739445,0.0,0.0,0.0,122,,0,1735643777088310956,map,1.019123733167866,0.2044287691902506,0.1463032153767317,-0.5077212462273811,0.5066706466327199,-0.4640942515061059,0.5197311975329972,0.0,0.0,0.0,124,,0,1735643777088322877,map,1.0039158741539698,-0.0304554340049706,0.2430419293908945,0.4791972939657923,-0.5112594675891011,0.5194123955581258,-0.4890751206071924,0.0,0.0,0.0,125,,0,1735643777088343858,map,1.0027194102781167,-0.0245833359382306,0.1453289179263772,-0.5049886243511778,0.5083587494940947,-0.4960319605617011,0.4904183573134474,0.0,0.0,0.0,126,,0,1735644242188269615,map,0.9684398444769636,0.3258402421475244,0.0308474160704657,-0.4868311898209182,0.4973071178397579,-0.4934577409415659,0.5217091920488925,0.0,0.0,0.0,0,,0.912575919206696,0.5697628145545641,0.3949958354178995,1.0,2.649897229302791e-10,-1.2048880873570508e-07,2.153742301534797e-08,0.0,0.0,0.0,-1.2048880873570508e-07,5.47853436352662e-05,-9.79290220639615e-06,0.0,0.0,0.0,2.153742301534797e-08,-9.79290220639615e-06,1.750485207549298e-06,0.0,0.0,0.0,0.0,0.0,0.0,0.0,0.0,0.0,0.0,0.0,0.0,0.0,0.0,0.0,0.0,0.0,0.0,0.0,0.0,0.0,0,0,0,1,2,,124
0.197739618,0,1735643777088230371,map,0.98595206211932,-0.2232214895370275,0.0192261537950234,-0.4895962823913937,0.517000518703635,-0.4995427869311829,0.4934196469068955,0.0,0.0,0.0,1,0.0,0,1735643777088253974,map,0.9804917530277928,-0.2497701944653816,0.1478344954339954,-0.508681086925817,0.4905843250225196,-0.4856803832388524,0.514475594351306,0.0,0.0,0.0,16,0.0,0,1735643777088270664,map,0.9758949515760352,0.0535726081634519,0.0282379779606896,-0.4664932896473374,0.5029162171737784,-0.5243088155616303,0.5045389530472177,0.0,0.0,0.0,17,0.0,0,1735643777088284730,map,1.005948220704032,-0.2601791681556629,0.235857201448325,-0.4858531827255408,0.4796024818441696,-0.5067390908555395,0.5264443351801562,0.0,0.0,0.0,121,0.0,0,1735643777088297367,map,1.0146182172291571,0.1990708645024416,0.2432969922282626,0.4951565520341009,-0.5013084998566348,0.5081813076537888,-0.4952388671141189,0.0,0.0,0.0,122,0.0,0,1735643777088310956,map,1.011711983757301,0.2013327934083693,0.1462390147861743,-0.4856955084175906,0.5049364086335939,-0.4866914497808666,0.5217954858461165,0.0,0.0,0.0,124,0.0,0,1735643777088322877,map,0.9935941879559398,-0.0286891498003399,0.2424460867466122,-0.5430276829849805,0.4452968684450205,-0.4452090039532542,0.5555362969815498,0.0,0.0,0.0,125,0.0,0,1735643777088343858,map,0.9947111388014744,-0.0235093168602061,0.1459910956104951,0.4554933487154738,-0.4945001337581437,0.5555431287908871,-0.4892517338164202,0.0,0.0,0.0,126,0.0,0,1735644242188269615,map,0.9764766711067848,0.3303398696752642,0.027174716637465,-0.4965848808821208,0.4943189707539916,-0.4875365290583846,0.5209225893217795,0.0,0.0,0.0,0,1.0,0.915734608719752,0.5453788837464834,0.3527959003089362,1.0,1.995481553959492e-05,-0.0001541228589336,-0.0002665786266786,0.0,0.0,0.0,-0.0001541228589336,0.00122567572573,0.0020514719941339,0.0,0.0,0.0,-0.0002665786266786,0.0020514719941339,0.0035628360365397,0.0,0.0,0.0,0.0,0.0,0.0,0.0,0.0,0.0,0.0,0.0,0.0,0.0,0.0,0.0,0.0,0.0,0.0,0.0,0.0,0.0,0,0,0,1,3,,124
0.298037709,0,1735643777088230371,map,0.9770470295275584,-0.2191969625498707,0.0225843880182516,-0.5013471236504248,0.4928931670556792,-0.4842635401458624,0.520765024903424,0.0,0.0,0.0,1,0.0,0,1735643777088253974,map,0.9854128700441132,-0.2507000300509381,0.1476127523260605,-0.5093757646431066,0.4902817964602232,-0.4846341571286098,0.5150629322696675,0.0,0.0,0.0,16,0.0,0,1735643777088270664,map,0.985474666016902,0.0551018639388068,0.0255204436157695,-0.4857013428236938,0.499108378563213,-0.5065425577670788,0.5083302757047292,0.0,0.0,0.0,17,0.0,0,1735643777088284730,map,1.008686481320619,-0.2605879363105718,0.2359688847636128,-0.5017324102409816,0.5019732198068905,-0.4723162921063343,0.5226899609916017,0.0,0.0,0.0,121,0.0,0,1735643777088297367,map,1.0298064884144589,0.2043916701431884,0.2437918923088254,-0.5488077908399009,0.4807139381662991,-0.4568255105213379,0.5089543901991548,0.0,0.0,0.0,122,0.0,0,1735643777088310956,map,1.0212208742174642,0.2048722364758121,0.1450714067017647,-0.4952231122627486,0.5038256276940978,-0.4723067186027892,0.5271054633772172,0.0,0.0,0.0,124,0.0,0,1735643777088322877,map,1.0048355627910075,-0.0303038927030916,0.2422060054094291,0.4164579469278249,-0.5278525285705571,0.5777534102767627,-0.4627477535719658,0.0,0.0,0.0,125,0.0,0,1735643777088343858,map,0.9991812430149716,-0.0246454660533796,0.1448501239932742,-0.5699365464863066,0.4834995774966759,-0.4232682759908432,0.5120980941963527,0.0,0.0,0.0,126,0.0,0,1735644242188269615,map,0.9748901050178544,0.3297288271305255,0.0281989350623999,-0.498718816641298,0.4973600950372279,-0.484236102858817,0.519064422283562,0.0,0.0,0.0,0,1.0,0.9189169717354496,0.5210189041353736,0.3102359238936091,1.0,4.53484147457355e-05,-0.0003481590387328,-0.0006062578546882,0.0,0.0,0.0,-0.0003481590387328,0.0026994826142585,0.0046488844687805,0.0,0.0,0.0,-0.0006062578546882,0.0046488844687805,0.0081061818048244,0.0,0.0,0.0,0.0,0.0,0.0,0.0,0.0,0.0,0.0,0.0,0.0,0.0,0.0,0.0,0.0,0.0,0.0,0.0,0.0,0.0,0,0,0,1,4,,124
0.400605114,0,1735643777088230371,map,0.9800080017924256,-0.2187731525364633,0.0214361981770944,-0.4975902554396177,0.491712382432238,-0.4869517775870005,0.5229730747937312,0.0,0.0,0.0,1,0.0,0,1735643777088253974,map,0.9862160941856796,-0.2498068917983378,0.1472215332844291,-0.511058261317292,0.4968028688066898,-0.4747701180363231,0.5163329333913977,0.0,0.0,0.0,16,0.0,0,1735643777088270664,map,0.9940727226773608,0.0569605065709588,0.022845010832285,0.510939595310866,-0.5074661517654346,0.4853807128408649,-0.4958068155623149,0.0,0.0,0.0,17,0.0,0,1735643777088284730,map,1.0086589488360451,-0.2593664113029822,0.2357944759299292,-0.2485042693528171,0.672301509578849,-0.6503721625731019,0.2515399739234504,0.0,0.0,0.0,121,0.0,0,1735643777088297367,map,1.021926260203992,0.2020608911180125,0.2436694183343424,-0.5087257098112735,0.4972722517689867,-0.4919651435322352,0.5018852033552342,0.0,0.0,0.0,122,0.0,0,1735643777088310956,map,1.0136947855238183,0.2028368011233417,0.1460517039224066,-0.4808945549172865,0.5094669982942022,-0.4891770459754058,0.5195090205095352,0.0,0.0,0.0,124,0.0,0,1735643777088322877,map,0.9921862184439736,-0.0288742902482501,0.2419313968367671,0.389019628739188,-0.5656288900777937,0.5968026513089769,-0.415396536523312,0.0,0.0,0.0,125,0.0,0,1735643777088343858,map,1.0075952733640252,-0.0243951145399673,0.1433059757098917,0.5723747344710736,-0.5254670875690273,0.4277125199077483,-0.4618803996004339,0.0,0.0,0.0,126,0.0,0,1735644242188269615,map,0.9792450346473506,0.3326487499157157,0.0267811186302473,-0.4986275203922384,0.5026534193091285,-0.480485261836248,0.517536519602706,0.0,0.0,0.0,0,1.0,0.9214474091277044,0.5016403314315366,0.2763964863597833,1.0,6.189118538107917e-05,-0.0004746722908995,-0.0008275205960245,0.0,0.0,0.0,-0.0004746722908995,0.0036617024115584,0.0063421475770491,0.0,0.0,0.0,-0.0008275205960245,0.0063421475770491,0.0110653755742823,0.0,0.0,0.0,0.0,0.0,0.0,0.0,0.0,0.0,0.0,0.0,0.0,0.0,0.0,0.0,0.0,0.0,0.0,0.0,0.0,0.0,0,0,0,1,5,,124
0.498347034,0,1735643777088230371,map,0.9874148936629544,-0.221054010630628,0.0188055694555344,-0.49918475229121,0.5055573614439347,-0.4798390549958131,0.514762876158076,0.0,0.0,0.0,1,0.0,0,1735643777088253974,map,0.9828148812543228,-0.2476252678017929,0.1472088520029921,-0.5135034732659074,0.4871628142929111,-0.4726559936853556,0.5249598907986864,0.0,0.0,0.0,16,0.0,0,1735643777088270664,map,0.9876805898508908,0.0568724193908159,0.0248206157599997,-0.4934896830771946,0.4904665000310355,-0.5003891306980555,0.515287553627021,0.0,0.0,0.0,17,0.0,0,1735643777088284730,map,1.008548212954781,-0.2596708765812393,0.2354806304071703,-0.5068180697379292,0.468293896019771,-0.4856153183723294,0.5366693895685537,0.0,0.0,0.0,121,0.0,0,1735643777088297367,map,1.0211440329294337,0.2016988630720292,0.2431694086974861,-0.6114054993890671,0.3399139451088862,-0.3499192132496091,0.6230556712173424,0.0,0.0,0.0,122,0.0,0,1735643777088310956,map,1.0152856660284575,0.203280381972093,0.1456370154473134,-0.4895358447626705,0.5124157471138452,-0.4819447186113049,0.515280551743347,0.0,0.0,0.0,124,0.0,0,1735643777088322877,map,0.9948275222114916,-0.0295806927464644,0.2416201173852883,-0.550389987452792,0.4418736165692516,-0.4422779342906012,0.5533613625212402,0.0,0.0,0.0,125,0.0,0,1735643777088343858,map,1.0036680211818425,-0.0241261320057877,0.1436772773365167,0.4643076810397809,-0.5171908565206151,0.5470141111068538,-0.466591424598558,0.0,0.0,0.0,126,0.0,0,1735644242188269615,map,0.9788101486938589,0.3323717199551365,0.0270538399962032,-0.5102458195000935,0.5009446009554853,-0.4849752755860341,0.5034905088742757,0.0,0.0,0.0,0,1.0,0.923758049492483,0.4789714287315867,0.2465494285037253,1.0,7.827128229428485e-05,-0.000657458650435,-0.0010344295799475,0.0,0.0,0.0,-0.000657458650435,0.0056208144243976,0.008668123232968,0.0,0.0,0.0,-0.0010344295799475,0.008668123232968,0.0136753806252163,0.0,0.0,0.0,0.0,0.0,0.0,0.0,0.0,0.0,0.0,0.0,0.0,0.0,0.0,0.0,0.0,0.0,0.0,0.0,0.0,0.0,0,0,0,1,6,,124
0.599099034,0,1735643777088230371,map,0.9831220765949242,-0.2222596128174246,0.0194535700646688,-0.5022605272543474,0.4929784094737716,-0.4835682701700591,0.5204501692185648,0.0,0.0,0.0,1,0.0,0,1735643777088253974,map,0.9766237454762048,-0.2478581167412455,0.1478153823269407,-0.5124924849280512,0.4794348356389332,-0.4759766642836591,0.5300376461399148,0.0,0.0,0.0,16,0.0,0,1735643777088270664,map,0.987704171020204,0.0549021352540884,0.023488802939842,-0.4802560435166038,0.512264264199369,-0.5068845909356612,0.5000074677062785,0.0,0.0,0.0,17,0.0,0,1735643777088284730,map,1.008548212954781,-0.2596708765812393,0.2354806304071703,-0.5068180697379292,0.468293896019771,-0.4856153183723294,0.5366693895685537,0.0,0.0,0.0,121,0.0,0,1735643777088297367,map,1.0205482756826854,0.2000057889900359,0.2430700915505737,0.5198522481975214,-0.5050383558149953,0.4861662532774396,-0.488192864935412,0.0,0.0,0.0,122,0.0,0,1735643777088310956,map,1.014443329142224,0.2011512387632553,0.1448552401189582,-0.4924892158399738,0.505469475757263,-0.4756361382348848,0.5250954630960084,0.0,0.0,0.0,124,1.0129232076617968e-27,0,1735643777088322877,map,0.9927219853227386,-0.0318461275213838,0.2409496635538744,-0.560090519266478,0.4782249282100131,-0.4311038711903075,0.5212954829183403,0.0,0.0,0.0,125,0.0,0,1735643777088343858,map,1.002296534737105,-0.0268188403508012,0.1428963629557054,-0.4781287499466385,0.599334737903021,-0.512635763213229,0.3865169397218859,0.0,0.0,0.0,126,0.0,0,1735644242188269615,map,0.9780410500591104,0.3309906038068357,0.0262736988757105,-0.5036319475436475,0.4924034370165304,-0.4829318297809096,0.5202600930420893,0.0,0.0,0.0,0,1.0,0.9258633494501284,0.4553415506003099,0.2199847935633082,1.0,9.36833980079256e-05,-0.0008620238746607,-0.0012222130745588,0.0,0.0,0.0,-0.0008620238746607,0.0081680677781919,0.0111961344314361,0.0,0.0,0.0,-0.0012222130745588,0.0111961344314361,0.0159558337987197,0.0,0.0,0.0,0.0,0.0,0.0,0.0,0.0,0.0,0.0,0.0,0.0,0.0,0.0,0.0,0.0,0.0,0.0,0.0,0.0,0.0,0,0,0,1,7,,124
0.698488262,0,1735643777088230371,map,0.9990802616069456,-0.2294282419373314,0.0118343184725436,-0.5021878114870555,0.5235402035790386,-0.4822704039141454,0.4910481796511907,0.0,0.0,0.0,1,0.0,0,1735643777088253974,map,0.9766237454762048,-0.2478581167412455,0.1478153823269407,-0.5124924849280512,0.4794348356389332,-0.4759766642836591,0.5300376461399148,0.0,0.0,0.0,16,0.0,0,1735643777088270664,map,0.9902693253239068,0.0547242995497146,0.0213048909647299,-0.4915258289460292,0.514520480509525,-0.5038541329175203,0.4896958723096407,0.0,0.0,0.0,17,3.291749559057e-20,0,1735643777088284730,map,1.008548212954781,-0.2596708765812393,0.2354806304071703,-0.5068180697379292,0.468293896019771,-0.4856153183723294,0.5366693895685537,0.0,0.0,0.0,121,0.0,0,1735643777088297367,map,1.0179800958462235,0.1988064660147913,0.2413601322375349,0.5366210285722932,-0.5148924650264353,0.476007409629098,-0.4694044813710362,0.0,0.0,0.0,122,6.353879372473237e-24,0,1735643777088310956,map,1.0138839378528877,0.2007213021948857,0.1433458483032838,-0.4923935786469413,0.5136100805146526,-0.4807789980962672,0.5124498062157308,0.0,0.0,0.0,124,4.5420078953946715e-12,0,1735643777088322877,map,0.9916801928020396,-0.0319445181586263,0.2396218911342643,-0.5675097919678807,0.4656864228452256,-0.4202581236817603,0.5333403238811754,0.0,0.0,0.0,125,0.0,0,1735643777088343858,map,1.0099379036018017,-0.0284426361088328,0.1404739834088306,0.5298889178448857,-0.5032508640790873,0.4704910543370815,-0.4945649303555697,0.0,0.0,0.0,126,0.0,0,1735644242188269615,map,0.9681611708383112,0.3254782114631568,0.0282045038066289,-0.4837755926247019,0.4962008605115844,-0.4948805465754549,0.5242510149054183,0.0,0.0,0.0,0,0.9999999999954581,0.9275992234717888,0.4325308941412348,0.1987860304869753,1.0,0.0001030657835904,-0.0010314458720784,-0.0013270251150477,0.0,0.0,0.0,-0.0010314458720784,0.0107893416425755,0.0131815215407475,0.0,0.0,0.0,-0.0013270251150477,0.0131815215407475,0.0171070674656452,0.0,0.0,0.0,0.0,0.0,0.0,0.0,0.0,0.0,0.0,0.0,0.0,0.0,0.0,0.0,0.0,0.0,0.0,0.0,0.0,0.0,0,0,0,1,8,,124
0.79844434,0,1735643777088230371,map,0.985002046705016,-0.2228116326384279,0.0179458113048792,-0.4999157872860675,0.5052499727744674,-0.4840822260068781,0.5103636635750792,0.0,0.0,0.0,1,1.312563077555784e-35,0,1735643777088253974,map,0.977865509951678,-0.2476178234453812,0.1469369792889993,-0.507423711008984,0.4846309570284287,-0.4766779213470424,0.5295584691947086,0.0,0.0,0.0,16,0.0,0,1735643777088270664,map,0.9900209066871796,0.0548820994639411,0.0221899866808544,-0.5007376283289847,0.5090944151132452,-0.4933718650019449,0.4966577361729797,0.0,0.0,0.0,17,2.696730398530986e-07,0,1735643777088284730,map,1.008548212954781,-0.2596708765812393,0.2354806304071703,-0.5068180697379292,0.468293896019771,-0.4856153183723294,0.5366693895685537,0.0,0.0,0.0,121,0.0,0,1735643777088297367,map,1.0220735139318755,0.2003644557556737,0.2423639488741161,-0.5134949825149084,0.4864406066225912,-0.4945361236894097,0.5051063863454037,0.0,0.0,0.0,122,2.1960168850260757e-09,0,1735643777088310956,map,1.01028954616909,0.1998074072801783,0.1448946159317956,-0.4907231150234931,0.5094975721672749,-0.4809108574912856,0.5180036635819177,0.0,0.0,0.0,124,0.00019580597640743677,0,1735643777088322877,map,0.9969268120782376,-0.0326694594512823,0.2408370294189444,-0.5508880716488087,0.4923585013518572,-0.4366535717228634,0.5132631848898542,0.0,0.0,0.0,125,2.1506742197334073e-34,0,1735643777088343858,map,0.999764216791292,-0.0276230705258848,0.1427055290857857,-0.54818128878426,0.4923469991759526,-0.4451795285924901,0.5088289440975526,0.0,0.0,0.0,126,2.8538433933978367e-23,0,1735644242188269615,map,0.9731726501285344,0.3286127921663379,0.0273330441736571,-0.4965652124663844,0.4941538571117846,-0.4873353924441648,0.5212860736112681,0.0,0.0,0.0,0,0.9998039221545358,0.9286168281986646,0.4128247370421358,0.1876999832681286,1.0,9.989818489947092e-05,-0.0010772654040817,-0.0012698275924606,0.0,0.0,0.0,-0.0010772654040817,0.0126971869254266,0.013464615141041,0.0,0.0,0.0,-0.0012698275924606,0.013464615141041,0.0161894857351926,0.0,0.0,0.0,0.0,0.0,0.0,0.0,0.0,0.0,0.0,0.0,0.0,0.0,0.0,0.0,0.0,0.0,0.0,0.0,0.0,0.0,0,0,0,1,9,,124
0.896797574,0,1735643777088230371,map,0.9929197545912728,-0.2319777648369292,0.0140501674047997,-0.5001442392618646,0.5148251972516753,-0.4862041390986034,0.498413775222285,0.0,0.0,0.0,1,2.180880425183865e-15,0,1735643777088253974,map,0.977865509951678,-0.2476178234453812,0.1469369792889993,-0.507423711008984,0.4846309570284287,-0.4766779213470424,0.5295584691947086,0.0,0.0,0.0,16,3.860303509802629e-24,0,1735643777088270664,map,0.9860821950286236,0.0521645901448554,0.0228968389625123,-0.4933357601298468,0.4908276658614401,-0.500419664629573,0.5150613453309644,0.0,0.0,0.0,17,0.004073084450785922,0,1735643777088284730,map,1.008548212954781,-0.2596708765812393,0.2354806304071703,-0.5068180697379292,0.468293896019771,-0.4856153183723294,0.5366693895685537,0.0,0.0,0.0,121,1.8189069005078754e-31,0,1735643777088297367,map,1.0103659915050534,0.1951364560967876,0.2432541068767667,-0.5086752726504837,0.4976464813909013,-0.492334600156764,0.501202641694645,0.0,0.0,0.0,122,0.0004736184206789714,0,1735643777088310956,map,1.0057936873980724,0.1969321506503175,0.1458307484269823,-0.487541846882944,0.512784994535321,-0.4877476504991743,0.5113283938428557,0.0,0.0,0.0,124,0.08764405595128309,0,1735643777088322877,map,0.9920665257786524,-0.0353704743911625,0.2418032940253047,0.3619043698926402,-0.5792755628589514,0.6194522195877905,-0.3869676950015546,0.0,0.0,0.0,125,7.247032407719403e-15,0,1735643777088343858,map,0.9963991758348882,-0.0306963937101075,0.1438500906589568,0.5529086856260822,-0.5171616957539552,0.4423725120705045,-0.4807726347958702,0.0,0.0,0.0,126,7.100419816319654e-10,0,1735644242188269615,map,0.9753210623585248,0.3293262228580289,0.0260941628345734,-0.5081926551432985,0.4896663846579884,-0.4796838707558604,0.5214119687263177,0.0,0.0,0.0,0,0.9078092404672007,0.9290547988650874,0.3954797456906457,0.1848052826281448,1.0,9.163473115134378e-05,-0.0010379082404652,-0.00115425497893,0.0,0.0,0.0,-0.0010379082404652,0.0141351067577333,0.0125700306450279,0.0,0.0,0.0,-0.00115425497893,0.0125700306450279,0.0146459507878295,0.0,0.0,0.0,0.0,0.0,0.0,0.0,0.0,0.0,0.0,0.0,0.0,0.0,0.0,0.0,0.0,0.0,0.0,0.0,0.0,0.0,0,0,0,1,10,,124
0.996908805,0,1735643777088230371,map,0.9843532914129064,-0.2278323884310553,0.0181850916674131,-0.496909131759876,0.5116585144250614,-0.4847056097471255,0.5063075658822936,0.0,0.0,0.0,1,2.869782639682921e-08,0,1735643777088253974,map,0.9782762564105428,-0.2528141965579797,0.1483212684174298,-0.512693785698749,0.4994568680431171,-0.4740500766424276,0.5128005888313256,0.0,0.0,0.0,16,1.1695548718646094e-12,0,1735643777088270664,map,0.9787498546411864,0.0522789192773124,0.0266115489533721,-0.4881748941269456,0.5004735017766183,-0.4996317779448015,0.5114485636222978,0.0,0.0,0.0,17,0.046256456773633214,0,1735643777088284730,map,1.008548212954781,-0.2596708765812393,0.2354806304071703,-0.5068180697379292,0.468293896019771,-0.4856153183723294,0.5366693895685537,0.0,0.0,0.0,121,4.75110598172297e-16,0,1735643777088297367,map,1.010165434324282,0.1951405355358236,0.2444377429237672,-0.4914681229668649,0.4524460374210081,-0.5067874998437988,0.5449019153311231,0.0,0.0,0.0,122,0.034500011418948796,0,1735643777088310956,map,1.003564024900673,0.1964381242171457,0.1471715295448159,-0.4957669723024088,0.5077819209878951,-0.4763448950267871,0.5191032372022597,0.0,0.0,0.0,124,0.3937364863831102,0,1735643777088322877,map,0.9860416263257644,-0.0351291804682813,0.2427225404454425,-0.5473809402801207,0.4737107547891829,-0.443576294037677,0.528405429933223,0.0,0.0,0.0,125,1.341992237925102e-07,0,1735643777088343858,map,0.9932355581047364,-0.0309704234499892,0.1451250298694297,0.5180562053501596,-0.5114324998048287,0.4807590607740696,-0.4887998483277298,0.0,0.0,0.0,126,3.636074952864269e-05,0,1735644242188269615,map,0.9716883554910628,0.3277386922156955,0.0283075665145328,-0.5040072577808835,0.5016539332178481,-0.4778407806030791,0.5157404422613155,0.0,0.0,0.0,0,0.525470521776559,0.9291380220433592,0.3791863917221908,0.1870071504181702,1.0,8.337356202069282e-05,-0.0009571127928971,-0.001047490243762,0.0,0.0,0.0,-0.0009571127928971,0.0155048308878985,0.0110685424734428,0.0,0.0,0.0,-0.001047490243762,0.0110685424734428,0.0133629829338561,0.0,0.0,0.0,0.0,0.0,0.0,0.0,0.0,0.0,0.0,0.0,0.0,0.0,0.0,0.0,0.0,0.0,0.0,0.0,0.0,0.0,0,0,0,1,11,,124
1.098898711,0,1735643777088230371,map,0.9916204919444768,-0.2341820914006821,0.0151784492219051,-0.4971278335032252,0.5122128490800737,-0.4914121608045845,0.4990150324459498,0.0,0.0,0.0,1,2.815018763354765e-06,0,1735643777088253974,map,0.9782762564105428,-0.2528141965579797,0.1483212684174298,-0.512693785698749,0.4994568680431171,-0.4740500766424276,0.5128005888313256,0.0,0.0,0.0,16,8.85074149448791e-09,0,1735643777088270664,map,0.9811947987946088,0.0513423775994545,0.0265847184025162,-0.6349500262592755,0.6918326155358395,-0.246932414048538,0.2392289261906807,0.0,0.0,0.0,17,0.06982158937961856,0,1735643777088284730,map,1.008548212954781,-0.2596708765812393,0.2354806304071703,-0.5068180697379292,0.468293896019771,-0.4856153183723294,0.5366693895685537,0.0,0.0,0.0,121,6.523360550432142e-11,0,1735643777088297367,map,1.0103302082179977,0.1945504627954832,0.2449967205944479,-0.514059776651489,0.4919284219519347,-0.4864653453634622,0.5070507286902449,0.0,0.0,0.0,122,0.12195619990227921,0,1735643777088310956,map,1.0046892170543948,0.1960589347152595,0.1471156634408522,-0.4726610368833512,0.4849361917302718,-0.4924489856693799,0.5467379908838379,0.0,0.0,0.0,124,0.5079045206340365,0,1735643777088322877,map,0.992692848159268,-0.0373855467819264,0.2436579359408839,0.3466752741677519,-0.5848094067652996,0.6319770199800544,-0.3720473871117259,0.0,0.0,0.0,125,2.989514795499035e-05,0,1735643777088343858,map,1.0062494567676308,-0.0348270889209334,0.1433526157826979,-0.4950082001646502,0.6401440425254733,-0.4666496776611024,0.3569601727471678,0.0,0.0,0.0,126,0.0009833881122992018,0,1735644242188269615,map,0.9776922707922038,0.3310294827118646,0.0261198918727353,-0.4969878093334518,0.485373509651316,-0.479712545967562,0.5359958458272045,0.0,0.0,0.0,0,0.29930158288907316,0.9290417315043334,0.3654828767127014,0.1913523803248584,1.0,7.652775573259951e-05,-0.0008628386861741,-0.0009648018399441,0.0,0.0,0.0,-0.0008628386861741,0.0162784112070086,0.0094911697782834,0.0,0.0,0.0,-0.0009648018399441,0.0094911697782834,0.0124570922750632,0.0,0.0,0.0,0.0,0.0,0.0,0.0,0.0,0.0,0.0,0.0,0.0,0.0,0.0,0.0,0.0,0.0,0.0,0.0,0.0,0.0,0,0,0,1,12,,124
1.195852086,0,1735643777088230371,map,0.980268400416345,-0.2285965553171403,0.0191766003573726,-0.4938086610674998,0.5165588579056086,-0.4904362849453617,0.4987907406748529,0.0,0.0,0.0,1,2.671344415166835e-05,0,1735643777088253974,map,0.9715253098999724,-0.2511894164081811,0.1496766619956759,-0.5062631568698812,0.4901130045783589,-0.4867748338095457,0.5162723311480143,0.0,0.0,0.0,16,3.4796324719330316e-07,0,1735643777088270664,map,0.9745085370933736,0.0511889875893976,0.0280045475967139,-0.4860142527130728,0.4980492641268466,-0.5037576397017747,0.5118254752399076,0.0,0.0,0.0,17,0.07931295358729576,0,1735643777088284730,map,0.9945380464592726,-0.2675446206653559,0.2370589996570962,-0.4974408783605684,0.4946443371253871,-0.4843262561266456,0.5227883222796772,0.0,0.0,0.0,121,3.980272531107066e-09,0,1735643777088297367,map,1.0007334853320218,0.192200264142743,0.2447861296313107,-0.4985380321759162,0.4851876391241181,-0.5060798913564863,0.5098391205860303,0.0,0.0,0.0,122,0.17524609953150033,0,1735643777088310956,map,0.9968690680443546,0.1940315185904197,0.1480691769393082,-0.480350345934093,0.4992181981641211,-0.4862980629380434,0.5325025162057663,0.0,0.0,0.0,124,0.5075641987691494,0,1735643777088322877,map,0.9891161534948862,-0.0381972551069944,0.2432943075906423,-0.51433499512189,0.4981850562973108,-0.479770118255877,0.5070422034739838,0.0,0.0,0.0,125,0.0002519846535758012,0,1735643777088343858,map,0.9902164823729918,-0.0329847743096076,0.1452594101279821,-0.5059952065724087,0.5077049338611006,-0.4937320701505301,0.4923750541647221,0.0,0.0,0.0,126,0.0039082389573043075,0,1735644242188269615,map,0.9653521134213398,0.3250067182056385,0.0308047895785648,-0.4970082923623519,0.4986949565313316,-0.483837300851174,0.5197956944399625,0.0,0.0,0.0,0,0.23368945911350297,0.9291488304605716,0.3518502578241602,0.1926328943021857,1.0,7.077864752875758e-05,-0.0008139869505904,-0.0008889406132695,0.0,0.0,0.0,-0.0008139869505904,0.0172564053026689,0.0085515986869263,0.0,0.0,0.0,-0.0008889406132695,0.0085515986869263,0.0115185310003042,0.0,0.0,0.0,0.0,0.0,0.0,0.0,0.0,0.0,0.0,0.0,0.0,0.0,0.0,0.0,0.0,0.0,0.0,0.0,0.0,0.0,0,0,0,1,13,,124
1.299156942,0,1735643777088230371,map,0.980268400416345,-0.2285965553171403,0.0191766003573726,-0.4938086610674998,0.5165588579056086,-0.4904362849453617,0.4987907406748529,0.0,0.0,0.0,1,7.582064100487891e-05,0,1735643777088253974,map,0.9721189655404394,-0.2553967733711211,0.1478318676037391,-0.4956625483798669,0.5010252778885805,-0.49174510555883,0.5113502324329011,0.0,0.0,0.0,16,1.2921863172000464e-06,0,1735643777088270664,map,0.972011512438941,0.0498563024220701,0.0267483597391521,-0.4870743579208251,0.4892658444955419,-0.4967852562962972,0.5259105555060691,0.0,0.0,0.0,17,0.09099206424319557,0,1735643777088284730,map,0.9890963795695612,-0.2680644790568942,0.2357704436062692,-0.5041879045420959,0.4917440484728542,-0.4773107074362484,0.5255062666340771,0.0,0.0,0.0,121,2.1675048637947747e-08,0,1735643777088297367,map,1.0042435528055471,0.1924612645859143,0.2436007285821455,-0.5103347146471738,0.4908842771585854,-0.4898592157070318,0.5085558516538498,0.0,0.0,0.0,122,0.20766712677122337,0,1735643777088310956,map,0.993874820015584,0.1926639158011104,0.146751322559998,-0.4779072000353844,0.5025350772649994,-0.4882228077571229,0.5298128860818236,0.0,0.0,0.0,124,0.5335572346657207,0,1735643777088322877,map,0.9796504983021594,-0.0386677294417942,0.2420766714511718,-0.5199917734159308,0.4676015307565884,-0.4744254706738763,0.5346754499598063,0.0,0.0,0.0,125,0.0005410060219446213,0,1735643777088343858,map,0.9858954390531992,-0.034656882490942,0.1437670586940669,-0.5015502534704535,0.4860527061933052,-0.504154261282254,0.507965147305239,0.0,0.0,0.0,126,0.007046824465692466,0,1735644242188269615,map,0.9685069279104476,0.3270578887820101,0.0270332614741415,-0.5035505324670061,0.4926293715901683,-0.4748441208125298,0.5275189327679586,0.0,0.0,0.0,0,0.16011860932985256,0.9294729476723432,0.3392967386703231,0.1904308727722796,1.0,6.708870541869811e-05,-0.000808739576687,-0.0008347231251998,0.0,0.0,0.0,-0.000808739576687,0.0180724858848017,0.0083001307621756,0.0,0.0,0.0,-0.0008347231251998,0.0083001307621756,0.010758814470633,0.0,0.0,0.0,0.0,0.0,0.0,0.0,0.0,0.0,0.0,0.0,0.0,0.0,0.0,0.0,0.0,0.0,0.0,0.0,0.0,0.0,0,0,0,1,14,,124
1.397235389,0,1735643777088230371,map,0.9719577022409808,-0.2279648173882796,0.0184445456025341,-0.493167125783323,0.5044786427522905,-0.4949543643405875,0.5072550268589053,0.0,0.0,0.0,1,7.747300626049366e-05,0,1735643777088253974,map,0.9721189655404394,-0.2553967733711211,0.1478318676037391,-0.4956625483798669,0.5010252778885805,-0.49174510555883,0.5113502324329011,0.0,0.0,0.0,16,1.1497576703967737e-06,0,1735643777088270664,map,0.969791900563604,0.0499691071914727,0.0257982107692645,-0.4877252092508295,0.4900814319777226,-0.4963335713178349,0.5249736148367682,0.0,0.0,0.0,17,0.09173586878897515,0,1735643777088284730,map,0.9890963795695612,-0.2680644790568942,0.2357704436062692,-0.5041879045420959,0.4917440484728542,-0.4773107074362484,0.5255062666340771,0.0,0.0,0.0,121,1.6254395619128593e-08,0,1735643777088297367,map,0.9987782593009966,0.191348278146321,0.2421624883505106,-0.5814904567700718,0.3821527917563049,-0.3951260100811764,0.5997528896099843,0.0,0.0,0.0,122,0.20806897824594167,0,1735643777088310956,map,0.9925636171501936,0.1927757036760927,0.1452584166341397,-0.4889997781246424,0.5001181630861766,-0.4805100096513586,0.5290285158384291,0.0,0.0,0.0,124,0.5521052229905817,0,1735643777088322877,map,0.9789884116954256,-0.0391311618768009,0.2407562398333419,-0.5345656087913806,0.5009200205892602,-0.4546326991636757,0.5065844961321926,0.0,0.0,0.0,125,0.0005109583677589492,0,1735643777088343858,map,0.98545203799588,-0.0350926615431844,0.1424066977342988,-0.5097830722448086,0.4986191952418343,-0.4913438477072453,0.5000813340940351,0.0,0.0,0.0,126,0.0072998487830235334,0,1735644242188269615,map,0.9632729767234348,0.3252182817569466,0.0274127969627719,-0.503332780558725,0.4892549222810324,-0.4774046387629985,0.5285551474788368,0.0,0.0,0.0,0,0.14020048380539243,0.9297050319107564,0.3321921890413018,0.1884551349043375,1.0,6.337020836952916e-05,-0.0007779075607668,-0.0007854944435105,0.0,0.0,0.0,-0.0007779075607668,0.0175742982485187,0.0079433028996781,0.0,0.0,0.0,-0.0007854944435105,0.0079433028996781,0.0100962097343103,0.0,0.0,0.0,0.0,0.0,0.0,0.0,0.0,0.0,0.0,0.0,0.0,0.0,0.0,0.0,0.0,0.0,0.0,0.0,0.0,0.0,0,0,0,1,15,,124
1.501155375,0,1735643777088230371,map,0.9719577022409808,-0.2279648173882796,0.0184445456025341,-0.493167125783323,0.5044786427522905,-0.4949543643405875,0.5072550268589053,0.0,0.0,0.0,1,4.8777795072774244e-05,0,1735643777088253974,map,0.9721189655404394,-0.2553967733711211,0.1478318676037391,-0.4956625483798669,0.5010252778885805,-0.49174510555883,0.5113502324329011,0.0,0.0,0.0,16,5.287206846886153e-07,0,1735643777088270664,map,0.9699904620952922,0.0511882223133019,0.0251019412229816,-0.4954826972435515,0.5011860524948106,-0.4872689477331661,0.5156339884956546,0.0,0.0,0.0,17,0.08818154000354696,0,1735643777088284730,map,0.9890963795695612,-0.2680644790568942,0.2357704436062692,-0.5041879045420959,0.4917440484728542,-0.4773107074362484,0.5255062666340771,0.0,0.0,0.0,121,5.507402931320871e-09,0,1735643777088297367,map,0.9952098087346586,0.1919647977341192,0.2425824405421087,0.5138192226028278,-0.4987029379733425,0.4893950281486554,-0.4977727318405051,0.0,0.0,0.0,122,0.1948634844640313,0,1735643777088310956,map,0.989903717032938,0.1936869212341926,0.1456681244056975,-0.4985762555979749,0.5081381019437406,-0.4752758559774818,0.5170398895943981,0.0,0.0,0.0,124,0.5658268639626974,0,1735643777088322877,map,0.97780092662661,-0.0377328446520997,0.2407750392744049,0.3087337079458548,-0.6164573491894605,0.6502520337887852,-0.3191177318198656,0.0,0.0,0.0,125,0.00034850467596428647,0,1735643777088343858,map,0.9813597987135484,-0.0336695968072488,0.1426882518970186,-0.5103462219086223,0.4905011406236503,-0.4924603710093517,0.5063972233492449,0.0,0.0,0.0,126,0.0059785145446692835,0,1735644242188269615,map,0.9565696248831174,0.3233658658225637,0.0302147273381336,-0.4957019246853404,0.4943960818685946,-0.4871923995443358,0.5220111894609762,0.0,0.0,0.0,0,0.14475178032593047,0.929889249932707,0.329361771757452,0.1862921715531165,1.0,5.9918614540605264e-05,-0.0007371095463187,-0.0007423778932428,0.0,0.0,0.0,-0.0007371095463187,0.016596073537997,0.0075386778012526,0.0,0.0,0.0,-0.0007423778932428,0.0075386778012526,0.0095353727827967,0.0,0.0,0.0,0.0,0.0,0.0,0.0,0.0,0.0,0.0,0.0,0.0,0.0,0.0,0.0,0.0,0.0,0.0,0.0,0.0,0.0,0,0,0,1,16,,124
1.598280594,0,1735643777088230371,map,0.9719577022409808,-0.2279648173882796,0.0184445456025341,-0.493167125783323,0.5044786427522905,-0.4949543643405875,0.5072550268589053,0.0,0.0,0.0,1,2.841563877510417e-05,0,1735643777088253974,map,0.9721189655404394,-0.2553967733711211,0.1478318676037391,-0.4956625483798669,0.5010252778885805,-0.49174510555883,0.5113502324329011,0.0,0.0,0.0,16,2.339735531541287e-07,0,1735643777088270664,map,0.9732066018749552,0.0508027031579785,0.0235271385747717,-0.4940569046505769,0.4966805943792498,-0.4982184533254495,0.5108762422545822,0.0,0.0,0.0,17,0.08076823691950612,0,1735643777088284730,map,0.9890963795695612,-0.2680644790568942,0.2357704436062692,-0.5041879045420959,0.4917440484728542,-0.4773107074362484,0.5255062666340771,0.0,0.0,0.0,121,1.8436255827372775e-09,0,1735643777088297367,map,0.9947161799399116,0.1922524563857502,0.2432349736604946,-0.5072549431109897,0.4981275011490525,-0.4930071972306852,0.5015030595791129,0.0,0.0,0.0,122,0.1924099982731869,0,1735643777088310956,map,0.9906621166683724,0.1941271037978958,0.1458060534985317,-0.4870688492885529,0.5144713107575783,-0.4855336325109443,0.5121916615494937,0.0,0.0,0.0,124,0.600236404654256,0,1735643777088322877,map,0.9791665057942156,-0.0394054362515102,0.2415997317866459,-0.5237489985490809,0.4853456777202365,-0.4685029448203575,0.5202225969061438,0.0,0.0,0.0,125,0.00021169943394505267,0,1735643777088343858,map,0.9830162649515606,-0.0350239521361311,0.1427296715658336,0.5158914576848425,-0.4989410973848608,0.4871120291967968,-0.4976300395273361,0.0,0.0,0.0,126,0.004542552193989333,0,1735644242188269615,map,0.962233561922328,0.3277140459138419,0.0275151327047926,-0.5043068602705076,0.4974380244985821,-0.4729292123715742,0.523992330623887,0.0,0.0,0.0,0,0.12180245706916291,0.9298307249871276,0.3300140929326533,0.1870316042289193,1.0,5.644879286394496e-05,-0.0006943609942216,-0.0006994010095188,0.0,0.0,0.0,-0.0006943609942216,0.0156266422847647,0.0071029437273578,0.0,0.0,0.0,-0.0006994010095188,0.0071029437273578,0.0089832166723685,0.0,0.0,0.0,0.0,0.0,0.0,0.0,0.0,0.0,0.0,0.0,0.0,0.0,0.0,0.0,0.0,0.0,0.0,0.0,0.0,0.0,0,0,0,1,17,,124
1.697349199,0,1735643777088230371,map,0.9719577022409808,-0.2279648173882796,0.0184445456025341,-0.493167125783323,0.5044786427522905,-0.4949543643405875,0.5072550268589053,0.0,0.0,0.0,1,1.6606928861495962e-05,0,1735643777088253974,map,0.9721189655404394,-0.2553967733711211,0.1478318676037391,-0.4956625483798669,0.5010252778885805,-0.49174510555883,0.5113502324329011,0.0,0.0,0.0,16,1.0237066814405322e-07,0,1735643777088270664,map,0.9707208548949686,0.0488504541247515,0.0234623023869365,-0.4751862947632449,0.4803647148828034,-0.5108917266593144,0.5314483696426268,0.0,0.0,0.0,17,0.07266173151558603,0,1735643777088284730,map,0.9890963795695612,-0.2680644790568942,0.2357704436062692,-0.5041879045420959,0.4917440484728542,-0.4773107074362484,0.5255062666340771,0.0,0.0,0.0,121,6.108037415446902e-10,0,1735643777088297367,map,0.9907765374583328,0.1903852031189846,0.2429945378067042,-0.471925223214354,0.484624413255048,-0.528859364919502,0.5125753933893273,0.0,0.0,0.0,122,0.18729483658484525,0,1735643777088310956,map,0.98791766064133,0.1922847810495947,0.1453409525779902,-0.4852303979165841,0.5055813638674818,-0.4857653572071956,0.5224662316216964,0.0,0.0,0.0,124,0.6207078204382632,0,1735643777088322877,map,0.9778502927558618,-0.0398588211390129,0.2419623359243775,-0.5301221022345145,0.4975261581468346,-0.4628066829209318,0.5071964638341181,0.0,0.0,0.0,125,0.00013568426249636255,0,1735643777088343858,map,0.981356653782211,-0.0356863313462775,0.1428759442807949,0.5121783018673676,-0.5054062730910959,0.4875529054449251,-0.4944997983908992,0.0,0.0,0.0,126,0.0034649807660963013,0,1735644242188269615,map,0.962233561922328,0.3277140459138419,0.0275151327047926,-0.5043068602705076,0.4974380244985821,-0.4729292123715742,0.523992330623887,0.0,0.0,0.0,0,0.11571823652237956,0.9295947406976888,0.3329887397466104,0.1899402348169124,1.0,5.425945475860076e-05,-0.0006677188719818,-0.0006722140469621,0.0,0.0,0.0,-0.0006677188719818,0.014908920393519,0.006855422270601,0.0,0.0,0.0,-0.0006722140469621,0.006855422270601,0.0086279713217151,0.0,0.0,0.0,0.0,0.0,0.0,0.0,0.0,0.0,0.0,0.0,0.0,0.0,0.0,0.0,0.0,0.0,0.0,0.0,0.0,0.0,0,0,0,1,18,,124
1.796317134,0,1735643777088230371,map,0.9719577022409808,-0.2279648173882796,0.0184445456025341,-0.493167125783323,0.5044786427522905,-0.4949543643405875,0.5072550268589053,0.0,0.0,0.0,1,9.922192120184508e-06,0,1735643777088253974,map,0.9721189655404394,-0.2553967733711211,0.1478318676037391,-0.4956625483798669,0.5010252778885805,-0.49174510555883,0.5113502324329011,0.0,0.0,0.0,16,4.6650363070701057e-08,0,1735643777088270664,map,0.9707208548949686,0.0488504541247515,0.0234623023869365,-0.4751862947632449,0.4803647148828034,-0.5108917266593144,0.5314483696426268,0.0,0.0,0.0,17,0.06739710617464269,0,1735643777088284730,map,0.9890963795695612,-0.2680644790568942,0.2357704436062692,-0.5041879045420959,0.4917440484728542,-0.4773107074362484,0.5255062666340771,0.0,0.0,0.0,121,2.1106068672057377e-10,0,1735643777088297367,map,0.987869207790881,0.1891106154102596,0.2423167949847686,-0.5166730395070613,0.5254436900826888,-0.4921617587418994,0.4633947583118551,0.0,0.0,0.0,122,0.18038295344657504,0,1735643777088310956,map,0.9867579161108128,0.19159709647508,0.1445072241496413,-0.4878199252702782,0.5098565842552183,-0.4863827434395447,0.5152764412285165,0.0,0.0,0.0,124,0.6416162280440492,0,1735643777088322877,map,0.975056538046422,-0.0424368181032889,0.2406621631516136,-0.5225806483801266,0.4878520925436539,-0.4684553354456143,0.5190947894478638,0.0,0.0,0.0,125,8.452262271178773e-05,0,1735643777088343858,map,0.9802213041108248,-0.0391950355420905,0.140973661316078,-0.5109192056003041,0.4974220943803715,-0.4896985957365389,0.5017251346152208,0.0,0.0,0.0,126,0.002524413195940386,0,1735644242188269615,map,0.962233561922328,0.3277140459138419,0.0275151327047926,-0.5043068602705076,0.4974380244985821,-0.4729292123715742,0.523992330623887,0.0,0.0,0.0,0,0.10798480746253701,0.929611068117406,0.3322989564484134,0.1898414608614776,1.0,5.140849250525555e-05,-0.0006327784963221,-0.0006368633893088,0.0,0.0,0.0,-0.0006327784963221,0.01413280479078,0.0064958369593939,0.0,0.0,0.0,-0.0006368633893088,0.0064958369593939,0.0081740431812375,0.0,0.0,0.0,0.0,0.0,0.0,0.0,0.0,0.0,0.0,0.0,0.0,0.0,0.0,0.0,0.0,0.0,0.0,0.0,0.0,0.0,0,0,0,1,19,,124
1.896524587,0,1735643777088230371,map,0.9719577022409808,-0.2279648173882796,0.0184445456025341,-0.493167125783323,0.5044786427522905,-0.4949543643405875,0.5072550268589053,0.0,0.0,0.0,1,7.230851396615037e-06,0,1735643777088253974,map,0.9721189655404394,-0.2553967733711211,0.1478318676037391,-0.4956625483798669,0.5010252778885805,-0.49174510555883,0.5113502324329011,0.0,0.0,0.0,16,2.5045009623877392e-08,0,1735643777088270664,map,0.9707208548949686,0.0488504541247515,0.0234623023869365,-0.4751862947632449,0.4803647148828034,-0.5108917266593144,0.5314483696426268,0.0,0.0,0.0,17,0.06703909178462375,0,1735643777088284730,map,0.9890963795695612,-0.2680644790568942,0.2357704436062692,-0.5041879045420959,0.4917440484728542,-0.4773107074362484,0.5255062666340771,0.0,0.0,0.0,121,8.372103704766347e-11,0,1735643777088297367,map,0.9881731390437664,0.1888356908378415,0.2414136911464674,-0.5065094386588574,0.5254697679924142,-0.49827535711844,0.4680292511841312,0.0,0.0,0.0,122,0.17537815664633735,0,1735643777088310956,map,0.9837427652399026,0.1903254013091821,0.144460924240079,-0.4870792248744575,0.5145892306495801,-0.4856467616639616,0.5119560286591796,0.0,0.0,0.0,124,0.6555554615801087,0,1735643777088322877,map,0.970721498874754,-0.0414609753568814,0.2397875867638779,-0.5246853157219257,0.4831101690704296,-0.4691928239139851,0.5207379168009033,0.0,0.0,0.0,125,6.334225607273224e-05,0,1735643777088343858,map,0.9751085324746204,-0.0380043407459676,0.1413455100123301,0.5097107902694399,-0.5013328966266004,0.4891058797262334,-0.4996355426309391,0.0,0.0,0.0,126,0.0022092276557197604,0,1735644242188269615,map,0.962233561922328,0.3277140459138419,0.0275151327047926,-0.5043068602705076,0.4974380244985821,-0.4729292123715742,0.523992330623887,0.0,0.0,0.0,0,0.09974746409701045,0.929786630851288,0.3290922097534746,0.1878879577031019,1.0,4.942369107702565e-05,-0.0006118362906219,-0.0006115365045909,0.0,0.0,0.0,-0.0006118362906219,0.0136215458141855,0.006290068517561,0.0,0.0,0.0,-0.0006115365045909,0.006290068517561,0.0078378483393815,0.0,0.0,0.0,0.0,0.0,0.0,0.0,0.0,0.0,0.0,0.0,0.0,0.0,0.0,0.0,0.0,0.0,0.0,0.0,0.0,0.0,0,0,0,1,20,,124
1.996171313,0,1735643777088230371,map,0.9719577022409808,-0.2279648173882796,0.0184445456025341,-0.493167125783323,0.5044786427522905,-0.4949543643405875,0.5072550268589053,0.0,0.0,0.0,1,5.7615545125393425e-06,0,1735643777088253974,map,0.9721189655404394,-0.2553967733711211,0.1478318676037391,-0.4956625483798669,0.5010252778885805,-0.49174510555883,0.5113502324329011,0.0,0.0,0.0,16,1.3234798445223098e-08,0,1735643777088270664,map,0.9707208548949686,0.0488504541247515,0.0234623023869365,-0.4751862947632449,0.4803647148828034,-0.5108917266593144,0.5314483696426268,0.0,0.0,0.0,17,0.0713862322000529,0,1735643777088284730,map,0.9890963795695612,-0.2680644790568942,0.2357704436062692,-0.5041879045420959,0.4917440484728542,-0.4773107074362484,0.5255062666340771,0.0,0.0,0.0,121,3.090128865803516e-11,0,1735643777088297367,map,0.989766461126654,0.1878792605843792,0.2409100178398361,-0.5872298946457416,0.4302882551669766,-0.4126533801833732,0.5474762607848369,0.0,0.0,0.0,122,0.16141389886919327,0,1735643777088310956,map,0.9819068752736833,0.1894248225212464,0.1446072971790599,-0.4873329129114116,0.5155426883145469,-0.4873892048624191,0.5090914765562943,0.0,0.0,0.0,124,0.6692496361536833,0,1735643777088322877,map,0.9685898470422092,-0.0413262584417328,0.2392948517303632,-0.5278710591016292,0.4829555333180169,-0.4684040743978549,0.5183663963722223,0.0,0.0,0.0,125,4.2974118230868474e-05,0,1735643777088343858,map,0.9729073722513232,-0.0378620400839675,0.1416770456255778,-0.5191052788826184,0.5005703712938315,-0.4744025810257596,0.5048774147603089,0.0,0.0,0.0,126,0.0018568408628413166,0,1735644242188269615,map,0.962233561922328,0.3277140459138419,0.0275151327047926,-0.5043068602705076,0.4974380244985821,-0.4729292123715742,0.523992330623887,0.0,0.0,0.0,0,0.09604464297578617,0.9300720958162272,0.3249550146432002,0.1844835370071715,1.0,4.869998690227243e-05,-0.0006063217143058,-0.00060185257535,0.0,0.0,0.0,-0.0006063217143058,0.0133152284430243,0.0062722364984266,0.0,0.0,0.0,-0.00060185257535,0.0062722364984266,0.0076964190715752,0.0,0.0,0.0,0.0,0.0,0.0,0.0,0.0,0.0,0.0,0.0,0.0,0.0,0.0,0.0,0.0,0.0,0.0,0.0,0.0,0.0,0,0,0,1,21,,124
2.097396747,0,1735643777088230371,map,0.9719577022409808,-0.2279648173882796,0.0184445456025341,-0.493167125783323,0.5044786427522905,-0.4949543643405875,0.5072550268589053,0.0,0.0,0.0,1,5.0863936494947005e-06,0,1735643777088253974,map,0.9721189655404394,-0.2553967733711211,0.1478318676037391,-0.4956625483798669,0.5010252778885805,-0.49174510555883,0.5113502324329011,0.0,0.0,0.0,16,6.820903679312253e-09,0,1735643777088270664,map,0.9707208548949686,0.0488504541247515,0.0234623023869365,-0.4751862947632449,0.4803647148828034,-0.5108917266593144,0.5314483696426268,0.0,0.0,0.0,17,0.0834344137559266,0,1735643777088284730,map,0.9890963795695612,-0.2680644790568942,0.2357704436062692,-0.5041879045420959,0.4917440484728542,-0.4773107074362484,0.5255062666340771,0.0,0.0,0.0,121,1.0602760599612847e-11,0,1735643777088297367,map,0.9814564683422942,0.1854684107362317,0.2410600614818548,-0.5019117092661505,0.5021513290313152,-0.4983668383188044,0.4975531864210436,0.0,0.0,0.0,122,0.1355930349805666,0,1735643777088310956,map,0.9809065560501148,0.1877297702764798,0.1437201427704973,-0.4993884998493929,0.5111375322028989,-0.4737208205835249,0.5147214135213101,0.0,0.0,0.0,124,0.6797826661706513,0,1735643777088322877,map,0.9682346661370458,-0.0448676392839902,0.2390784306408264,-0.528450389889557,0.492160285728807,-0.4665482181267248,0.5107359383670709,0.0,0.0,0.0,125,2.2797599787915534e-05,0,1735643777088343858,map,0.9705319136088276,-0.040642107028549,0.1411019306792699,0.5227576290422296,-0.5079439690092933,0.4692949859940845,-0.4984772830792241,0.0,0.0,0.0,126,0.0014073887956337205,0,1735644242188269615,map,0.962233561922328,0.3277140459138419,0.0275151327047926,-0.5043068602705076,0.4974380244985821,-0.4729292123715742,0.523992330623887,0.0,0.0,0.0,0,0.0997546054722779,0.930476677493988,0.3197661755183127,0.1795156934997815,1.0,4.9923764147566685e-05,-0.0006228471303971,-0.0006167035077894,0.0,0.0,0.0,-0.0006228471303971,0.0132753958672664,0.006528458995314,0.0,0.0,0.0,-0.0006167035077894,0.006528458995314,0.0078648506924413,0.0,0.0,0.0,0.0,0.0,0.0,0.0,0.0,0.0,0.0,0.0,0.0,0.0,0.0,0.0,0.0,0.0,0.0,0.0,0.0,0.0,0,0,0,1,22,,124
2.199080818,0,1735643777088230371,map,0.9719577022409808,-0.2279648173882796,0.0184445456025341,-0.493167125783323,0.5044786427522905,-0.4949543643405875,0.5072550268589053,0.0,0.0,0.0,1,4.890275952039101e-06,0,1735643777088253974,map,0.9721189655404394,-0.2553967733711211,0.1478318676037391,-0.4956625483798669,0.5010252778885805,-0.49174510555883,0.5113502324329011,0.0,0.0,0.0,16,3.635643170719605e-09,0,1735643777088270664,map,0.9707208548949686,0.0488504541247515,0.0234623023869365,-0.4751862947632449,0.4803647148828034,-0.5108917266593144,0.5314483696426268,0.0,0.0,0.0,17,0.09984863336596089,0,1735643777088284730,map,0.9890963795695612,-0.2680644790568942,0.2357704436062692,-0.5041879045420959,0.4917440484728542,-0.4773107074362484,0.5255062666340771,0.0,0.0,0.0,121,3.662495713052234e-12,0,1735643777088297367,map,0.97977136560266,0.1843315565963285,0.2394178272619122,-0.5085046019345487,0.4938209949646442,-0.4928916061147823,0.5046005939008644,0.0,0.0,0.0,122,0.12036637968388314,0,1735643777088310956,map,0.9767679478546752,0.1863168292296267,0.1430158584423898,-0.4929121556518936,0.5094371337993442,-0.4798961785920676,0.5169246282482994,0.0,0.0,0.0,124,0.6768309843169307,0,1735643777088322877,map,0.9626139626056348,-0.0436682815565123,0.2379189355788903,-0.5237173463960174,0.486327522839919,-0.4720429687845016,0.5161212233898314,0.0,0.0,0.0,125,1.5720954883765898e-05,0,1735643777088343858,map,0.9665112801840804,-0.0406464013914623,0.1403661621330273,-0.511706525590777,0.4951459956273382,-0.4910456568225589,0.5018575869683842,0.0,0.0,0.0,126,0.0012003979079348733,0,1735644242188269615,map,0.962233561922328,0.3277140459138419,0.0275151327047926,-0.5043068602705076,0.4974380244985821,-0.4729292123715742,0.523992330623887,0.0,0.0,0.0,0,0.10173298985514902,0.9309295428989276,0.3138357721480383,0.1739808735407767,1.0,5.226508135617265e-05,-0.000654851659902,-0.0006450339384026,0.0,0.0,0.0,-0.000654851659902,0.0134719377935542,0.0069667346806918,0.0,0.0,0.0,-0.0006450339384026,0.0069667346806918,0.0081968537658643,0.0,0.0,0.0,0.0,0.0,0.0,0.0,0.0,0.0,0.0,0.0,0.0,0.0,0.0,0.0,0.0,0.0,0.0,0.0,0.0,0.0,0,0,0,1,23,,124
2.296921116,0,1735643777088230371,map,0.9719577022409808,-0.2279648173882796,0.0184445456025341,-0.493167125783323,0.5044786427522905,-0.4949543643405875,0.5072550268589053,0.0,0.0,0.0,1,5.692906843978918e-06,0,1735643777088253974,map,0.9721189655404394,-0.2553967733711211,0.1478318676037391,-0.4956625483798669,0.5010252778885805,-0.49174510555883,0.5113502324329011,0.0,0.0,0.0,16,2.9522318136178504e-09,0,1735643777088270664,map,0.9707208548949686,0.0488504541247515,0.0234623023869365,-0.4751862947632449,0.4803647148828034,-0.5108917266593144,0.5314483696426268,0.0,0.0,0.0,17,0.11341299761036074,0,1735643777088284730,map,0.9890963795695612,-0.2680644790568942,0.2357704436062692,-0.5041879045420959,0.4917440484728542,-0.4773107074362484,0.5255062666340771,0.0,0.0,0.0,121,2.114399652062008e-12,0,1735643777088297367,map,0.9814927786056976,0.1839179363751992,0.2401921931286601,0.5518326987462782,-0.5016212233859846,0.4511329395419787,-0.490240646727055,0.0,0.0,0.0,122,0.1087008321558845,0,1735643777088310956,map,0.9753738812545216,0.1855758030969356,0.1436275888091121,-0.4961225329616904,0.5083815656679139,-0.4758993009196022,0.5185850666582592,0.0,0.0,0.0,124,0.6857691835781392,0,1735643777088322877,map,0.9669800844315652,-0.0474837820493178,0.2383622494345815,-0.5177191581398028,0.4961722842121461,-0.4782457871385405,0.5070117402575144,0.0,0.0,0.0,125,9.839022526262274e-06,0,1735643777088343858,map,0.964559166085971,-0.0407552882858626,0.1410004775959732,-0.5112289747783815,0.4934094400560278,-0.4891533586725879,0.5058864017840061,0.0,0.0,0.0,126,0.0011556615995342598,0,1735644242188269615,map,0.962233561922328,0.3277140459138419,0.0275151327047926,-0.5043068602705076,0.4974380244985821,-0.4729292123715742,0.523992330623887,0.0,0.0,0.0,0,0.09094579017236504,0.9312421715611042,0.3082627715905521,0.1704731486739081,1.0,5.233531328252832e-05,-0.0006676386073705,-0.000643379676948,0.0,0.0,0.0,-0.0006676386073705,0.0136249487620722,0.0071260707796833,0.0,0.0,0.0,-0.000643379676948,0.0071260707796833,0.0081383132683445,0.0,0.0,0.0,0.0,0.0,0.0,0.0,0.0,0.0,0.0,0.0,0.0,0.0,0.0,0.0,0.0,0.0,0.0,0.0,0.0,0.0,0,0,0,1,24,,124
2.398407292,0,1735643777088230371,map,0.9719577022409808,-0.2279648173882796,0.0184445456025341,-0.493167125783323,0.5044786427522905,-0.4949543643405875,0.5072550268589053,0.0,0.0,0.0,1,7.614813956564757e-06,0,1735643777088253974,map,0.9721189655404394,-0.2553967733711211,0.1478318676037391,-0.4956625483798669,0.5010252778885805,-0.49174510555883,0.5113502324329011,0.0,0.0,0.0,16,3.627280648506419e-09,0,1735643777088270664,map,0.9707208548949686,0.0488504541247515,0.0234623023869365,-0.4751862947632449,0.4803647148828034,-0.5108917266593144,0.5314483696426268,0.0,0.0,0.0,17,0.1235765192438557,0,1735643777088284730,map,0.9890963795695612,-0.2680644790568942,0.2357704436062692,-0.5041879045420959,0.4917440484728542,-0.4773107074362484,0.5255062666340771,0.0,0.0,0.0,121,2.2329186229683747e-12,0,1735643777088297367,map,0.9776763284418184,0.1834334986021293,0.2420775793389792,0.5379326692787014,-0.5056414222838359,0.4650582627987102,-0.4885447856605541,0.0,0.0,0.0,122,0.1010062849716976,0,1735643777088310956,map,0.9719085264519072,0.1849447780721295,0.1455495620761868,-0.5003094902891471,0.5084949522303492,-0.4706784963307666,0.5192158034716174,0.0,0.0,0.0,124,0.6957718854601093,0,1735643777088322877,map,0.9607957714171208,-0.0469077525299148,0.2402312571371949,-0.5170482057371665,0.5029503842559125,-0.4723078413109005,0.5065840176683861,0.0,0.0,0.0,125,9.267844807587073e-06,0,1735643777088343858,map,0.96052259990542,-0.0413986882586357,0.143031102224003,-0.509089955359712,0.4956197968683993,-0.4865485928321393,0.5083885336207323,0.0,0.0,0.0,126,0.0011953564977284876,0,1735644242188269615,map,0.962233561922328,0.3277140459138419,0.0275151327047926,-0.5043068602705076,0.4974380244985821,-0.4729292123715742,0.523992330623887,0.0,0.0,0.0,0,0.07843306753833117,0.9314436559513182,0.3031791985833401,0.1685283412336593,1.0,5.121620377922352e-05,-0.0006655153176548,-0.0006270488500584,0.0,0.0,0.0,-0.0006655153176548,0.013700175960061,0.0070783056430754,0.0,0.0,0.0,-0.0006270488500584,0.0070783056430754,0.0079035553611223,0.0,0.0,0.0,0.0,0.0,0.0,0.0,0.0,0.0,0.0,0.0,0.0,0.0,0.0,0.0,0.0,0.0,0.0,0.0,0.0,0.0,0,0,0,1,25,,124
2.498463511,0,1735643777088230371,map,0.9719577022409808,-0.2279648173882796,0.0184445456025341,-0.493167125783323,0.5044786427522905,-0.4949543643405875,0.5072550268589053,0.0,0.0,0.0,1,1.2034039257324432e-05,0,1735643777088253974,map,0.9721189655404394,-0.2553967733711211,0.1478318676037391,-0.4956625483798669,0.5010252778885805,-0.49174510555883,0.5113502324329011,0.0,0.0,0.0,16,7.86007850944439e-09,0,1735643777088270664,map,0.9707208548949686,0.0488504541247515,0.0234623023869365,-0.4751862947632449,0.4803647148828034,-0.5108917266593144,0.5314483696426268,0.0,0.0,0.0,17,0.1260938231669715,0,1735643777088284730,map,0.9890963795695612,-0.2680644790568942,0.2357704436062692,-0.5041879045420959,0.4917440484728542,-0.4773107074362484,0.5255062666340771,0.0,0.0,0.0,121,5.740011361071836e-12,0,1735643777088297367,map,0.9728633657413646,0.1825337514649085,0.2430148470833722,-0.4796684426121975,0.4546025367816904,-0.5143593030982073,0.5465246801654678,0.0,0.0,0.0,122,0.10373040849507906,0,1735643777088310956,map,0.9701931271273744,0.1845947629622334,0.1468601118977046,-0.4886018404661445,0.505468790539153,-0.4816530877368676,0.5232397599165446,0.0,0.0,0.0,124,0.7018042200686132,0,1735643777088322877,map,0.9588055528114972,-0.046972129960592,0.2414277477083294,-0.5170130045628799,0.4945091968842018,-0.4794698278562419,0.5081996571086117,0.0,0.0,0.0,125,1.3284747237846882e-05,0,1735643777088343858,map,0.9616897294917036,-0.04353714876903,0.1435299547640714,-0.5110081673854561,0.4997322181620263,-0.4868098833153002,0.5021498785250896,0.0,0.0,0.0,126,0.0014831165205819936,0,1735644242188269615,map,0.962233561922328,0.3277140459138419,0.0275151327047926,-0.5043068602705076,0.4974380244985821,-0.4729292123715742,0.523992330623887,0.0,0.0,0.0,0,0.06686310509644049,0.9315447135786852,0.2983727957043682,0.1680306892261302,1.0,4.950166588894156e-05,-0.0006520616664461,-0.000604188874873,0.0,0.0,0.0,-0.0006520616664461,0.013750783831318,0.0068658610193846,0.0,0.0,0.0,-0.000604188874873,0.0068658610193846,0.0076057639006325,0.0,0.0,0.0,0.0,0.0,0.0,0.0,0.0,0.0,0.0,0.0,0.0,0.0,0.0,0.0,0.0,0.0,0.0,0.0,0.0,0.0,0,0,0,1,26,,124
