%time,field.boxes0.header.seq,field.boxes0.header.stamp,field.boxes0.header.frame_id,field.boxes0.pose.position.x,field.boxes0.pose.position.y,field.boxes0.pose.position.z,field.boxes0.pose.orientation.x,field.boxes0.pose.orientation.y,field.boxes0.pose.orientation.z,field.boxes0.pose.orientation.w,field.boxes0.scale.x,field.boxes0.scale.y,field.boxes0.scale.z,field.boxes0.id,field.boxes0.pdf,field.boxes1.header.seq,field.boxes1.header.stamp,field.boxes1.header.frame_id,field.boxes1.pose.position.x,field.boxes1.pose.position.y,field.boxes1.pose.position.z,field.boxes1.pose.orientation.x,field.boxes1.pose.orientation.y,field.boxes1.pose.orientation.z,field.boxes1.pose.orientation.w,field.boxes1.scale.x,field.boxes1.scale.y,field.boxes1.scale.z,field.boxes1.id,field.boxes1.pdf,field.boxes2.header.seq,field.boxes2.header.stamp,field.boxes2.header.frame_id,field.boxes2.pose.position.x,field.boxes2.pose.position.y,field.boxes2.pose.position.z,field.boxes2.pose.orientation.x,field.boxes2.pose.orientation.y,field.boxes2.pose.orientation.z,field.boxes2.pose.orientation.w,field.boxes2.scale.x,field.boxes2.scale.y,field.boxes2.scale.z,field.boxes2.id,field.boxes2.pdf,field.boxes3.header.seq,field.boxes3.header.stamp,field.boxes3.header.frame_id,field.boxes3.pose.position.x,field.boxes3.pose.position.y,field.boxes3.pose.position.z,field.boxes3.pose.orientation.x,field.boxes3.pose.orientation.y,field.boxes3.pose.orientation.z,field.boxes3.pose.orientation.w,field.boxes3.scale.x,field.boxes3.scale.y,field.boxes3.scale.z,field.boxes3.id,field.boxes3.pdf,field.boxes4.header.seq,field.boxes4.header.stamp,field.boxes4.header.frame_id,field.boxes4.pose.position.x,field.boxes4.pose.position.y,field.boxes4.pose.position.z,field.boxes4.pose.orientation.x,field.boxes4.pose.orientation.y,field.boxes4.pose.orientation.z,field.boxes4.pose.orientation.w,field.boxes4.scale.x,field.boxes4.scale.y,field.boxes4.scale.z,field.boxes4.id,field.boxes4.pdf,field.boxes5.header.seq,field.boxes5.header.stamp,field.boxes5.header.frame_id,field.boxes5.pose.position.x,field.boxes5.pose.position.y,field.boxes5.pose.position.z,field.boxes5.pose.orientation.x,field.boxes5.pose.orientation.y,field.boxes5.pose.orientation.z,field.boxes5.pose.orientation.w,field.boxes5.scale.x,field.boxes5.scale.y,field.boxes5.scale.z,field.boxes5.id,field.boxes5.pdf,field.boxes6.header.seq,field.boxes6.header.stamp,field.boxes6.header.frame_id,field.boxes6.pose.position.x,field.boxes6.pose.position.y,field.boxes6.pose.position.z,field.boxes6.pose.orientation.x,field.boxes6.pose.orientation.y,field.boxes6.pose.orientation.z,field.boxes6.pose.orientation.w,field.boxes6.scale.x,field.boxes6.scale.y,field.boxes6.scale.z,field.boxes6.id,field.boxes6.pdf,field.boxes7.header.seq,field.boxes7.header.stamp,field.boxes7.header.frame_id,field.boxes7.pose.position.x,field.boxes7.pose.position.y,field.boxes7.pose.position.z,field.boxes7.pose.orientation.x,field.boxes7.pose.orientation.y,field.boxes7.pose.orientation.z,field.boxes7.pose.orientation.w,field.boxes7.scale.x,field.boxes7.scale.y,field.boxes7.scale.z,field.boxes7.id,field.boxes7.pdf,field.boxes8.header.seq,field.boxes8.header.stamp,field.boxes8.header.frame_id,field.boxes8.pose.position.x,field.boxes8.pose.position.y,field.boxes8.pose.position.z,field.boxes8.pose.orientation.x,field.boxes8.pose.orientation.y,field.boxes8.pose.orientation.z,field.boxes8.pose.orientation.w,field.boxes8.scale.x,field.boxes8.scale.y,field.boxes8.scale.z,field.boxes8.id,field.boxes8.pdf,field.pose.pose.position.x,field.pose.pose.position.y,field.pose.pose.position.z,field.pose.pose.orientation.w,field.pose.covariance0,field.pose.covariance1,field.pose.covariance2,field.pose.covariance3,field.pose.covariance4,field.pose.covariance5,field.pose.covariance6,field.pose.covariance7,field.pose.covariance8,field.pose.covariance9,field.pose.covariance10,field.pose.covariance11,field.pose.covariance12,field.pose.covariance13,field.pose.covariance14,field.pose.covariance15,field.pose.covariance16,field.pose.covariance17,field.pose.covariance18,field.pose.covariance19,field.pose.covariance20,field.pose.covariance21,field.pose.covariance22,field.pose.covariance23,field.pose.covariance24,field.pose.covariance25,field.pose.covariance26,field.pose.covariance27,field.pose.covariance28,field.pose.covariance29,field.pose.covariance30,field.pose.covariance31,field.pose.covariance32,field.pose.covariance33,field.pose.covariance34,field.pose.covariance35,field.buttons0,field.buttons1,field.buttons2,field.buttons3,intersection_length,vacuum,desired_box
0.0,0,1735643777088230371,map,0.984625389881012,-0.2222705925929062,0.020380101794404,0.479561382782063,-0.5166176374216803,0.5197000858915742,-0.4827410460829773,0.0,0.0,0.0,1,0.1111111111111111,0,1735643777088253974,map,0.979478649206501,-0.2498924731623571,0.1483288280617361,-0.4978140125125426,0.4833064781580065,-0.4960074136066738,0.5220849574196567,0.0,0.0,0.0,16,0.1111111111111111,0,1735643777088270664,map,0.9750142800628804,0.0526391805331282,0.0287748615837173,-0.4830786734267586,0.5024165698360701,-0.5072259302770695,0.5068870103770289,0.0,0.0,0.0,17,0.1111111111111111,0,1735643777088284730,map,1.0143898253657289,-0.2588250914684577,0.2375368746397672,-0.368730475159532,0.5933814131235167,-0.592994498120936,0.4003671570527026,0.0,0.0,0.0,121,0.1111111111111111,0,1735643777088297367,map,1.0232707533943772,0.2121909008869676,0.2432496881520762,-0.5313033234888789,0.4791884234544866,-0.4710965934537477,0.5159101015808373,0.0,0.0,0.0,122,0.1111111111111111,0,1735643777088310956,map,1.0072738332247624,0.2084697401711829,0.1447344021580463,-0.491121618441257,0.5028118209681618,-0.4790960840805132,0.5257820563817669,0.0,0.0,0.0,124,0.1111111111111111,0,1735643777088322877,map,1.0039554167683176,-0.0274283278564381,0.2427392586075659,-0.5536787832395899,0.4304473689816143,-0.4323707379950159,0.5667542787247205,0.0,0.0,0.0,125,0.1111111111111111,0,1735643777088343858,map,1.0058407109495056,-0.0207142058643082,0.1446272025342873,0.5098752774991602,-0.50283452413322,0.4916702567206907,-0.4954240621841884,0.0,0.0,0.0,126,0.1111111111111111,0,1735644242188269615,map,0.9739808052641856,0.3306862856594073,0.0260214959377263,-0.4998067502889128,0.4987280414832311,-0.4807983103354116,0.5199005075805853,0.0,0.0,0.0,0,0.1111111111111111,0.9680889670764848,-0.4087228377617573,-0.2302172438057131,1.0,0.0,0.0,0.0,0.0,0.0,0.0,0.0,0.0,0.0,0.0,0.0,0.0,0.0,0.0,0.0,0.0,0.0,0.0,0.0,0.0,0.0,0.0,0.0,0.0,0.0,0.0,0.0,0.0,0.0,0.0,0.0,0.0,0.0,0.0,0.0,0.0,0,0,0,1,1,,1
0.10003276,0,1735643777088230371,map,0.9799376484004512,-0.2216877800187971,0.0216894821238167,-0.488742820659672,0.4994437062502015,-0.493745033929589,0.5175927752688967,0.0,0.0,0.0,1,,0,1735643777088253974,map,0.977504615559812,-0.2494189559941184,0.148715969993292,-0.4984703570211472,0.4712633404309877,-0.4911046972269756,0.5368932328672407,0.0,0.0,0.0,16,,0,1735643777088270664,map,0.9876325950210888,0.0554582921714178,0.0248110684117239,-0.5004178688496784,0.4827251829367455,-0.488097439585489,0.5275597063505899,0.0,0.0,0.0,17,,0,1735643777088284730,map,1.0057114356353367,-0.2568862859365494,0.2370967117403342,0.3345296774811917,-0.5513526706392399,0.6509718734844345,-0.4004194643064605,0.0,0.0,0.0,121,,0,1735643777088297367,map,1.0248978281878556,0.2124433870294456,0.2433472259258315,-0.5299721556163438,0.4784775345263402,-0.4745457734613703,0.5147767206419792,0.0,0.0,0.0,122,,0,1735643777088310956,map,1.0075908992887634,0.2081587780191099,0.1445653452223386,-0.4792320818467798,0.4915558247375916,-0.4889957231536006,0.5381381473495759,0.0,0.0,0.0,124,,0,1735643777088322877,map,1.0087054367664694,-0.0264108871288963,0.2430884454919809,0.5035030433882104,-0.5027995043008048,0.4952195623693336,-0.4984324716753515,0.0,0.0,0.0,125,,0,1735643777088343858,map,1.0069534198789505,-0.020297158104696,0.144925624282586,0.5051780689448174,-0.5007760881030318,0.49551074546264,-0.4984852348590357,0.0,0.0,0.0,126,,0,1735644242188269615,map,0.9772152175336069,0.3314540252042406,0.0253486473113561,0.8530845661541128,-0.1861852143455932,0.0944681107342782,-0.4781815188848591,0.0,0.0,0.0,0,,0.9648065178964634,-0.371514101580399,-0.1888769688740394,1.0,1.077447261942248e-05,-0.0001221357855681,-0.0001356973515513,0.0,0.0,0.0,-0.0001221357855681,0.0013844900482139,0.0015382193835974,0.0,0.0,0.0,-0.0001356973515513,0.0015382193835974,0.0017090183314263,0.0,0.0,0.0,0.0,0.0,0.0,0.0,0.0,0.0,0.0,0.0,0.0,0.0,0.0,0.0,0.0,0.0,0.0,0.0,0.0,0.0,0,0,0,1,2,,1
0.200078876,0,1735643777088230371,map,0.9838413289926032,-0.2226209492318468,0.020472603643963,-0.4787783608755779,0.5178461048962913,-0.5148960101281713,0.4873282174829653,0.0,0.0,0.0,1,0.04700108028128816,0,1735643777088253974,map,0.9862088424366632,-0.2517719994599041,0.1479128697645326,-0.5035024588014517,0.506782643370067,-0.4948189350185852,0.4947836374687555,0.0,0.0,0.0,16,0.6426518793869719,0,1735643777088270664,map,0.9907100056264933,0.0557446557334449,0.0240489474748624,-0.5027015689815248,0.5134955996595932,-0.4846876541309939,0.4986895623599331,0.0,0.0,0.0,17,3.0415944568908984e-37,0,1735643777088284730,map,1.0070397314687458,-0.2579502594099101,0.2373682716279542,-0.50116621519425,0.5081122238714803,-0.4733391738989462,0.5163375050806519,0.0,0.0,0.0,121,0.31034704033174,0,1735643777088297367,map,1.0104116957043738,0.205476664384346,0.2430298215673641,-0.5109976016440653,0.4940523176825792,-0.4897958380283622,0.5048700778978482,0.0,0.0,0.0,122,0.0,0,1735643777088310956,map,1.0117336938594432,0.2096101819121072,0.1443910710650632,-0.5104796066387308,0.5054179820118565,-0.4619189527158515,0.5201866163089166,0.0,0.0,0.0,124,0.0,0,1735643777088322877,map,0.993759275620922,-0.028602818541898,0.2426922112255235,0.4601545749054921,-0.5281353132025738,0.5346480009152629,-0.4727392233137398,0.0,0.0,0.0,125,1.0163504308484749e-24,0,1735643777088343858,map,1.009486009162455,-0.0204475565688093,0.1447484765226313,0.5069087568538996,-0.5006962772392759,0.4939633120287059,-0.4983442550618951,0.0,0.0,0.0,126,4.80732365690208e-25,0,1735644242188269615,map,0.9718059139783546,0.3279682557515365,0.0266452211697291,-0.4912951502441822,0.4885867500928111,-0.4858004717393777,0.5328320229097434,0.0,0.0,0.0,0,0.0,0.9587681307752138,-0.3785300215099073,-0.0968494599932058,1.0,8.010721979842593e-05,3.3058240467021585e-06,-0.0012018603498876,0.0,0.0,0.0,3.3058240467021585e-06,0.0010214396303904,-0.000265835678175,0.0,0.0,0.0,-0.0012018603498876,-0.000265835678175,0.018077470335908,0.0,0.0,0.0,0.0,0.0,0.0,0.0,0.0,0.0,0.0,0.0,0.0,0.0,0.0,0.0,0.0,0.0,0.0,0.0,0.0,0.0,0,0,0,1,3,,1
0.299661134,0,1735643777088230371,map,0.973842417680669,-0.2219698308657982,0.0249386934490715,-0.4871905697944738,0.4882059190160341,-0.5037516520168749,0.5201294093120628,0.0,0.0,0.0,1,0.7134377689611592,0,1735643777088253974,map,0.9781260231155344,-0.2513147932282994,0.1496696833468384,-0.4839468046570127,0.4681635207763153,-0.5028422124336971,0.5420037983920191,0.0,0.0,0.0,16,0.25066212844975133,0,1735643777088270664,map,0.988754129717029,0.0544298398629617,0.0256508748114537,-0.4926291380408544,0.486776219437401,-0.4912075556165503,0.528280779366967,0.0,0.0,0.0,17,4.972575542668786e-14,0,1735643777088284730,map,1.0120379626562626,-0.2599386274977813,0.2384026952159374,0.3469261033526263,-0.5667477972192563,0.6362596883164423,-0.3919347167362794,0.0,0.0,0.0,121,0.03590010257235498,0,1735643777088297367,map,1.0143471230555752,0.2063846090701301,0.2437289834593924,-0.5086977218461491,0.4939334182366314,-0.4912558921629482,0.5058893698752731,0.0,0.0,0.0,122,8.028412773703359e-32,0,1735643777088310956,map,1.0125092002225171,0.2088193144300785,0.1453197437713553,-0.5063916066769893,0.5093772504643197,-0.4657204866507173,0.5169204829665064,0.0,0.0,0.0,124,4.4370008403881023e-29,0,1735643777088322877,map,1.00986198846459,-0.0278758841567315,0.2444963699439314,-0.5557721563870126,0.4201400584233526,-0.4286337798737549,0.5752153720512775,0.0,0.0,0.0,125,2.7360102194766946e-13,0,1735643777088343858,map,1.0024185409722792,-0.0227459793462359,0.1466550675977787,0.6516651482478333,-0.4806351364311313,0.3552656737659768,-0.4670210929182574,0.0,0.0,0.0,126,1.6411326319992113e-11,0,1735644242188269615,map,0.9802113830437624,0.3321930887356784,0.0255839891234994,-0.5079545202306971,0.5017836119027818,-0.4818032749541615,0.5079970634230534,0.0,0.0,0.0,0,9.039677377600686e-38,0.9557543100982362,-0.4155006383509877,-0.043831306015162,1.0,8.732976006775367e-05,0.0003367477964638,-0.0013807568885583,0.0,0.0,0.0,0.0003367477964638,0.0048665592516228,-0.0060797183276623,0.0,0.0,0.0,-0.0013807568885583,-0.0060797183276623,0.0219908767056497,0.0,0.0,0.0,0.0,0.0,0.0,0.0,0.0,0.0,0.0,0.0,0.0,0.0,0.0,0.0,0.0,0.0,0.0,0.0,0.0,0.0,0,0,0,1,4,,1
0.399433963,0,1735643777088230371,map,0.9828004763881744,-0.2248034525425197,0.022418258033958,-0.4865472244009982,0.5177021327949238,-0.5007858854524894,0.494438870901993,0.0,0.0,0.0,1,0.8957997744997067,0,1735643777088253974,map,0.9740650669950334,-0.2512506529146867,0.1502270421295673,-0.4979767618196536,0.4757770570862036,-0.4981615734483625,0.5267735598693756,0.0,0.0,0.0,16,0.09652949242678859,0,1735643777088270664,map,0.986647107007246,0.0521603950991701,0.0267636189061085,-0.4840362318963989,0.5028374292665152,-0.500718348041415,0.5120005682368467,0.0,0.0,0.0,17,1.7291552790006935e-11,0,1735643777088284730,map,1.008813433419085,-0.260472740965287,0.2387404509874714,-0.5094037437371153,0.4992842022261636,-0.4758751146292188,0.5145541628931034,0.0,0.0,0.0,121,0.007670732864605653,0,1735643777088297367,map,1.0110812045322386,0.2038984730898612,0.2438978001649455,-0.5099868008920825,0.4822831966515798,-0.5014089961096543,0.5058709319220677,0.0,0.0,0.0,122,4.592463458372958e-28,0,1735643777088310956,map,1.0076195956967569,0.2056028653977069,0.1460212742198992,-0.4901535961133128,0.5055736543874235,-0.4862746143632708,0.5173796784107253,0.0,0.0,0.0,124,1.2900288829047573e-24,0,1735643777088322877,map,0.9986834581446556,-0.0299494753290134,0.2444602316696059,-0.4955032206905586,0.5270939045292964,-0.5002291606691883,0.4758354346930708,0.0,0.0,0.0,125,1.0764579253121299e-12,0,1735643777088343858,map,0.996978206042786,-0.0240372039468109,0.1471706452268543,0.4764780669921025,-0.4978506798963171,0.5286331202434174,-0.4956413788052333,0.0,0.0,0.0,126,1.9053094386764026e-10,0,1735644242188269615,map,0.9802113830437624,0.3321930887356784,0.0255839891234994,-0.5079545202306971,0.5017836119027818,-0.4818032749541615,0.5079970634230534,0.0,0.0,0.0,0,3.0392533935171692e-30,0.9534607466290316,-0.4514208713092415,-0.0018353782769648,1.0,9.09055416032857e-05,0.0005989395736445,-0.0014898868137094,0.0,0.0,0.0,0.0005989395736445,0.0090542999443991,-0.0108977886927459,0.0,0.0,0.0,-0.0014898868137094,-0.0108977886927459,0.0246473331508873,0.0,0.0,0.0,0.0,0.0,0.0,0.0,0.0,0.0,0.0,0.0,0.0,0.0,0.0,0.0,0.0,0.0,0.0,0.0,0.0,0.0,0,0,0,1,5,,1
0.499599185,0,1735643777088230371,map,0.9789586196118608,-0.2240979973849249,0.0231517416833827,-0.4979306657129334,0.730940486059838,-0.3795031586807681,0.2716034067028667,0.0,0.0,0.0,1,0.9319523142004756,0,1735643777088253974,map,0.97735888827262,-0.2525094613489543,0.14942234264509,-0.5014970411471397,0.4747315764875784,-0.491231674286667,0.5308691836825723,0.0,0.0,0.0,16,0.06548082719094411,0,1735643777088270664,map,0.9866796800916638,0.0531008012830954,0.0259584640151128,-0.4838535426186288,0.5088410901659057,-0.507450314855196,0.4994603810188933,0.0,0.0,0.0,17,9.199347564095923e-12,0,1735643777088284730,map,1.006963970799056,-0.2601031800501372,0.2383135863921367,-0.5012052305854452,0.5142803390790295,-0.4729245906507614,0.5105402836489588,0.0,0.0,0.0,121,0.002566858562567269,0,1735643777088297367,map,1.0143820733507396,0.2068144037132995,0.2439910569712739,0.5107480098720502,-0.4902640321148164,0.499068668085987,-0.4997080285137925,0.0,0.0,0.0,122,4.3792296011139015e-30,0,1735643777088310956,map,1.003416675989529,0.2048973242735256,0.1459711525700762,-0.4772414801984795,0.5094322798728222,-0.4962994555654594,0.5161454951919775,0.0,0.0,0.0,124,1.0876673756160498e-25,0,1735643777088322877,map,0.9943871635669544,-0.0299599570016056,0.2439388949727274,0.4497329905648705,-0.5096082311167534,0.5410788146851467,-0.4952508498473762,0.0,0.0,0.0,125,7.452958196160297e-14,0,1735643777088343858,map,1.0035968364254892,-0.0224692892903245,0.1459530947856245,-0.503663998460175,0.5066659394495574,-0.498752391120149,0.4907731194846967,0.0,0.0,0.0,126,3.673908136533704e-11,0,1735644242188269615,map,0.9802113830437624,0.3321930887356784,0.0255839891234994,-0.5079545202306971,0.5017836119027818,-0.4818032749541615,0.5079970634230534,0.0,0.0,0.0,0,1.0280906277248541e-30,0.9516488590416426,-0.4797644435283316,0.0313339172922644,1.0,9.216930114940606e-05,0.0007558931448006,-0.0015420675193794,0.0,0.0,0.0,0.0007558931448006,0.0115620403843598,-0.0137821721994022,0.0,0.0,0.0,-0.0015420675193794,-0.0137821721994022,0.0260404551352005,0.0,0.0,0.0,0.0,0.0,0.0,0.0,0.0,0.0,0.0,0.0,0.0,0.0,0.0,0.0,0.0,0.0,0.0,0.0,0.0,0.0,0,0,0,1,6,,1
0.598794343,0,1735643777088230371,map,0.9841510148246608,-0.2265157993887442,0.0219611581004928,-0.5132495040246869,0.7280928147180725,-0.3620996021173728,0.274480742349564,0.0,0.0,0.0,1,0.9671914341306174,0,1735643777088253974,map,0.9752524328884602,-0.2533541820498247,0.1504468642934712,-0.51585020293589,0.470314098041992,-0.4762048590930708,0.5347262378919678,0.0,0.0,0.0,16,0.032051893139573476,0,1735643777088270664,map,0.9896651130875412,0.0528003731178151,0.0254940035338356,-0.4979338489309439,0.4893742413108313,-0.4912239391655628,0.5208394912263588,0.0,0.0,0.0,17,4.984195174456417e-13,0,1735643777088284730,map,1.0083628890174845,-0.2613198086518892,0.2390156529894472,0.3521808432892357,-0.5730591078312367,0.6265805646418824,-0.3936606515322682,0.0,0.0,0.0,121,0.0007566727277674389,0,1735643777088297367,map,1.0106307744191447,0.2043120439524649,0.2443433378141682,0.4914471405057345,-0.5029331087625799,0.5077897353097202,-0.4976822087569821,0.0,0.0,0.0,122,8.745958948865428e-34,0,1735643777088310956,map,1.0059628159125718,0.2053390859321786,0.1461568451903787,-0.4792610956445306,0.5029018682548024,-0.4922496859975735,0.5244890463515176,0.0,0.0,0.0,124,7.614905540016023e-29,0,1735643777088322877,map,1.0090263398741888,-0.0285643591760754,0.2451065211483699,-0.4927646725689285,0.5182709906881293,-0.5034856809736675,0.4848508293626649,0.0,0.0,0.0,125,6.846820014462506e-16,0,1735643777088343858,map,0.9883046115868924,-0.0260239884602999,0.1481636740290633,0.4586547094019606,-0.5117121018592992,0.5530539602364144,-0.4710816271316048,0.0,0.0,0.0,126,1.5426421006691463e-12,0,1735644242188269615,map,0.9802113830437624,0.3321930887356784,0.0255839891234994,-0.5079545202306971,0.5017836119027818,-0.4818032749541615,0.5079970634230534,0.0,0.0,0.0,0,5.109245208203918e-34,0.9501846688176976,-0.5005170905427943,0.0576824892132641,1.0,9.186537619944151e-05,0.0008302233471064,-0.0015532480879979,0.0,0.0,0.0,0.0008302233471064,0.0124943544780925,-0.0150941061311006,0.0,0.0,0.0,-0.0015532480879979,-0.0150941061311006,0.0264858735695427,0.0,0.0,0.0,0.0,0.0,0.0,0.0,0.0,0.0,0.0,0.0,0.0,0.0,0.0,0.0,0.0,0.0,0.0,0.0,0.0,0.0,0,0,0,1,7,,1
0.699464487,0,1735643777088230371,map,0.9802978272340308,-0.2268209895478748,0.0244359719365313,-0.4897081348363926,0.4928924102765351,-0.5058422644387638,0.5112402743077991,0.0,0.0,0.0,1,0.9783290204572234,0,1735643777088253974,map,0.974150768115948,-0.2543852128337446,0.1516837318679767,-0.5094566355575845,0.4589449324203891,-0.4742386041686529,0.5521967328843582,0.0,0.0,0.0,16,0.02141788975321336,0,1735643777088270664,map,0.9928081861543055,0.0525621497680508,0.0256853289888638,0.507165213333027,-0.5052832779410628,0.4896429340767979,-0.4977168397057351,0.0,0.0,0.0,17,1.8364504838681056e-14,0,1735643777088284730,map,1.0027554627262607,-0.2610269414148783,0.2400376997482448,-0.5356049348219888,0.4979753219046787,-0.4427001278763773,0.5188106873865498,0.0,0.0,0.0,121,0.000253089789499377,0,1735643777088297367,map,1.0106307744191447,0.2043120439524649,0.2443433378141682,0.4914471405057345,-0.5029331087625799,0.5077897353097202,-0.4976822087569821,0.0,0.0,0.0,122,5.311348975745173e-38,0,1735643777088310956,map,1.0019189745400472,0.2026866856264519,0.1479312988208054,-0.4803238002010289,0.5145978358517822,-0.4943410590189542,0.5100049329811656,0.0,0.0,0.0,124,3.319178699008664e-32,0,1735643777088322877,map,0.9997427280629564,-0.0308807716110255,0.2462809033243132,-0.4833373750106789,0.542592164021099,-0.5085061793845355,0.4619525852167403,0.0,0.0,0.0,125,8.392703809459501e-18,0,1735643777088343858,map,0.9974073113701368,-0.0251239928913332,0.1483513026223575,0.47289402460929,-0.505368510595973,0.5344231058070442,-0.485145188542965,0.0,0.0,0.0,126,4.555616667572034e-14,0,1735644242188269615,map,0.9802113830437624,0.3321930887356784,0.0255839891234994,-0.5079545202306971,0.5017836119027818,-0.4818032749541615,0.5079970634230534,0.0,0.0,0.0,0,5.837561242437726e-38,0.9492346174020522,-0.5139660366496843,0.0747754596557735,1.0,8.670038802109909e-05,0.0008158857607326,-0.0014727664823636,0.0,0.0,0.0,0.0008158857607326,0.0121986792280332,-0.0148165199327289,0.0,0.0,0.0,-0.0014727664823636,-0.0148165199327289,0.0252203268431894,0.0,0.0,0.0,0.0,0.0,0.0,0.0,0.0,0.0,0.0,0.0,0.0,0.0,0.0,0.0,0.0,0.0,0.0,0.0,0.0,0.0,0,0,0,1,8,,1
0.798040144,0,1735643777088230371,map,0.9861007819779906,-0.2259379356079853,0.0215511190275604,-0.5556320766263981,0.6982622662843203,-0.3458646785756881,0.289966251520858,0.0,0.0,0.0,1,0.9865505398169196,0,1735643777088253974,map,0.9811430934013295,-0.2541194011239078,0.1505598487560153,-0.504767333081101,0.469736008056492,-0.4823450392000817,0.5402788958939783,0.0,0.0,0.0,16,0.013386873776895125,0,1735643777088270664,map,0.9894261910926416,0.0549301409021009,0.0255286225648699,-0.4975498414859753,0.4951744741929567,-0.4939187988864051,0.5131185198875802,0.0,0.0,0.0,17,2.5185738683859825e-16,0,1735643777088284730,map,0.9974030528393132,-0.2583303076829518,0.2395382222509773,-0.5381836519425979,0.4969312971458249,-0.4452064822828183,0.5149843015394311,0.0,0.0,0.0,121,6.258640618446112e-05,0,1735643777088297367,map,1.0106307744191447,0.2043120439524649,0.2443433378141682,0.4914471405057345,-0.5029331087625799,0.5077897353097202,-0.4976822087569821,0.0,0.0,0.0,122,0.0,0,1735643777088310956,map,1.0019189745400472,0.2026866856264519,0.1479312988208054,-0.4803238002010289,0.5145978358517822,-0.4943410590189542,0.5100049329811656,0.0,0.0,0.0,124,5.328940971462541e-36,0,1735643777088322877,map,0.9955311968341732,-0.0284576642967461,0.2453211968365798,0.4647334952804753,-0.5209606696661646,0.5284835391725031,-0.4830402755972625,0.0,0.0,0.0,125,4.547397585582495e-20,0,1735643777088343858,map,1.0062263916466467,-0.0201436520432148,0.1468813883640939,-0.5028100884295407,0.5089740415613505,-0.4995098734079254,0.4884847247951369,0.0,0.0,0.0,126,5.593594849791906e-16,0,1735644242188269615,map,0.9802113830437624,0.3321930887356784,0.0255839891234994,-0.5079545202306971,0.5017836119027818,-0.4818032749541615,0.5079970634230534,0.0,0.0,0.0,0,0.0,0.949078168702726,-0.5176656135204242,0.0779046173868377,1.0,7.726282113847702e-05,0.0007298621392338,-0.0013130421833571,0.0,0.0,0.0,0.0007298621392338,0.0109527653770985,-0.0132628524167374,0.0,0.0,0.0,-0.0013130421833571,-0.0132628524167374,0.0224964013299043,0.0,0.0,0.0,0.0,0.0,0.0,0.0,0.0,0.0,0.0,0.0,0.0,0.0,0.0,0.0,0.0,0.0,0.0,0.0,0.0,0.0,0,0,0,1,9,,1
0.899430792,0,1735643777088230371,map,0.9802632391158552,-0.2262579196137107,0.0207421445237701,-0.4946085829204245,0.494108341069486,-0.4910193565715307,0.5197300149684355,0.0,0.0,0.0,1,0.991009974465983,0,1735643777088253974,map,0.9775078910945764,-0.2547064391244093,0.1492381993436345,-0.5081380224320226,0.4755730892530099,-0.4830658676495687,0.5312940376563542,0.0,0.0,0.0,16,0.008960395502375642,0,1735643777088270664,map,0.9926283153963856,0.0556277215628149,0.0224072942778557,0.5099595281599925,-0.5049781607817514,0.4875824401130219,-0.4971938262546597,0.0,0.0,0.0,17,6.672329042428081e-18,0,1735643777088284730,map,1.0033711428397658,-0.2599855589077564,0.2378525724415276,-0.49384373590833,0.479118860316238,-0.4928475457568994,0.5326018952602157,0.0,0.0,0.0,121,2.9630031641284867e-05,0,1735643777088297367,map,1.0106307744191447,0.2043120439524649,0.2443433378141682,0.4914471405057345,-0.5029331087625799,0.5077897353097202,-0.4976822087569821,0.0,0.0,0.0,122,0.0,0,1735643777088310956,map,1.0019189745400472,0.2026866856264519,0.1479312988208054,-0.4803238002010289,0.5145978358517822,-0.4943410590189542,0.5100049329811656,0.0,0.0,0.0,124,7.584439966244502e-40,0,1735643777088322877,map,0.9980840246937248,-0.0280659569178434,0.2436110586690601,-0.500657579016893,0.5385632578373382,-0.4933255982983309,0.4646734982158659,0.0,0.0,0.0,125,4.073703573903177e-22,0,1735643777088343858,map,0.9966836013954896,-0.0222484379566376,0.1461352429470009,0.4864244290965794,-0.5042731596021605,0.5192428349180122,-0.4893738179237082,0.0,0.0,0.0,126,1.779190737969432e-17,0,1735644242188269615,map,0.9802113830437624,0.3321930887356784,0.0255839891234994,-0.5079545202306971,0.5017836119027818,-0.4818032749541615,0.5079970634230534,0.0,0.0,0.0,0,0.0,0.9492679559347328,-0.514870597752167,0.0744670884704562,1.0,6.986071176552457e-05,0.000661650050065,-0.0011876095569032,0.0,0.0,0.0,0.000661650050065,0.0099277978576919,-0.0120230387027897,0.0,0.0,0.0,-0.0011876095569032,-0.0120230387027897,0.0203531106423724,0.0,0.0,0.0,0.0,0.0,0.0,0.0,0.0,0.0,0.0,0.0,0.0,0.0,0.0,0.0,0.0,0.0,0.0,0.0,0.0,0.0,0,0,0,1,10,,1
0.997903784,0,1735643777088230371,map,0.9782505924171436,-0.2262031193159425,0.0220623030444923,-0.4971708267991753,0.4940933321419669,-0.4914016605430139,0.5169307072792655,0.0,0.0,0.0,1,0.9946268370130987,0,1735643777088253974,map,0.9769804878247944,-0.2544299819459995,0.149773397123392,-0.4388839730561497,0.6585699705510133,-0.5080167547129747,0.3399785714038222,0.0,0.0,0.0,16,0.005363379950736929,0,1735643777088270664,map,0.9922313381184976,0.0559603828651591,0.0229469809805071,0.5135662065675466,-0.5129140416544578,0.485873198031209,-0.4869252229864817,0.0,0.0,0.0,17,1.2633270955013841e-19,0,1735643777088284730,map,1.0035295620695637,-0.2598607082526643,0.2385143014399999,-0.4886849201526715,0.4681619537199166,-0.4956017890302088,0.5444173955841092,0.0,0.0,0.0,121,9.78303616435505e-06,0,1735643777088297367,map,1.0106307744191447,0.2043120439524649,0.2443433378141682,0.4914471405057345,-0.5029331087625799,0.5077897353097202,-0.4976822087569821,0.0,0.0,0.0,122,0.0,0,1735643777088310956,map,1.0019189745400472,0.2026866856264519,0.1479312988208054,-0.4803238002010289,0.5145978358517822,-0.4943410590189542,0.5100049329811656,0.0,0.0,0.0,124,0.0,0,1735643777088322877,map,0.9962895153174728,-0.027855331754457,0.2441332992941508,-0.4909598358291902,0.5297556597223986,-0.5041662958897379,0.4734276361636296,0.0,0.0,0.0,125,2.6062208999418054e-24,0,1735643777088343858,map,0.9909927101150716,-0.0230760242820917,0.1471248804770565,0.4753605666754187,-0.5034306247592155,0.5311551915718971,-0.48832786135013,0.0,0.0,0.0,126,3.8966033103826806e-19,0,1735644242188269615,map,0.9802113830437624,0.3321930887356784,0.0255839891234994,-0.5079545202306971,0.5017836119027818,-0.4818032749541615,0.5079970634230534,0.0,0.0,0.0,0,0.0,0.9497453679080404,-0.5098080636278366,0.066236700687268,1.0,6.578895989123445e-05,0.000625669189576,-0.0011189379084568,0.0,0.0,0.0,0.000625669189576,0.00928156329732,-0.0113467013744429,0.0,0.0,0.0,-0.0011189379084568,-0.0113467013744429,0.0191802206873188,0.0,0.0,0.0,0.0,0.0,0.0,0.0,0.0,0.0,0.0,0.0,0.0,0.0,0.0,0.0,0.0,0.0,0.0,0.0,0.0,0.0,0,0,0,1,11,,1
1.099254597,0,1735643777088230371,map,0.9708503505594368,-0.2240540476829547,0.0225994551912732,0.4875356619569493,-0.5026129897891359,0.5108155013654028,-0.4987551346905987,0.0,0.0,0.0,1,0.9962708577283236,0,1735643777088253974,map,0.9690959819645164,-0.2526170022688342,0.1492243999929032,-0.5470596288773769,0.5043684985545661,-0.4325441246668486,0.5091598573479145,0.0,0.0,0.0,16,0.0037253003034790014,0,1735643777088270664,map,0.9805889962643995,0.0552105872128903,0.0247193389920854,-0.5062709050573435,0.5030601614535115,-0.4896938748866548,0.5008194819985325,0.0,0.0,0.0,17,3.7967246449373346e-20,0,1735643777088284730,map,0.9968226995652276,-0.2572692863975516,0.2378457806015771,0.3829149078611167,-0.5667532902239836,0.5891083332947152,-0.4302537077129307,0.0,0.0,0.0,121,3.841968197432373e-06,0,1735643777088297367,map,1.0106307744191447,0.2043120439524649,0.2443433378141682,0.4914471405057345,-0.5029331087625799,0.5077897353097202,-0.4976822087569821,0.0,0.0,0.0,122,0.0,0,1735643777088310956,map,0.9927534221237552,0.2088763610990393,0.1458175607502318,-0.4821146270370513,0.5071014746845774,-0.4895353301683201,0.5203544381348595,0.0,0.0,0.0,124,0.0,0,1735643777088322877,map,0.9880399807158092,-0.0267265951810537,0.2437722180857142,-0.4937943872047612,0.5304206204271932,-0.500889124658238,0.4732136445516017,0.0,0.0,0.0,125,1.9854223305235205e-25,0,1735643777088343858,map,0.9927663789021968,-0.0190371811121182,0.1457450899458652,-0.476898275573609,0.490953817941008,-0.5302392832021696,0.5003785426587705,0.0,0.0,0.0,126,4.84642392074002e-20,0,1735644242188269615,map,0.9802113830437624,0.3321930887356784,0.0255839891234994,-0.5079545202306971,0.5017836119027818,-0.4818032749541615,0.5079970634230534,0.0,0.0,0.0,0,0.0,0.9501461152408838,-0.5019755003570235,0.058569362691567,1.0,6.207312923955604e-05,0.0006080577576858,-0.0010594924005217,0.0,0.0,0.0,0.0006080577576858,0.0091829392105142,-0.0110617469362431,0.0,0.0,0.0,-0.0010594924005217,-0.0110617469362431,0.018228537754719,0.0,0.0,0.0,0.0,0.0,0.0,0.0,0.0,0.0,0.0,0.0,0.0,0.0,0.0,0.0,0.0,0.0,0.0,0.0,0.0,0.0,0,0,0,1,12,,1
1.199221582,0,1735643777088230371,map,0.9685784086857174,-0.2242420503203971,0.0227904408624587,-0.4987581693396912,0.4908333174028695,-0.48949815662026,0.5203023137653546,0.0,0.0,0.0,1,0.9960799652172198,0,1735643777088253974,map,0.9732861202788812,-0.2534316116430566,0.1484687716005046,-0.5224664940646192,0.4750365592273322,-0.4738396875659047,0.5261606032997234,0.0,0.0,0.0,16,0.003916948011929158,0,1735643777088270664,map,0.9741350773268662,0.0529703119032258,0.0263099538974786,-0.4940448957305374,0.5020786660160662,-0.4968386123143881,0.5069398854377544,0.0,0.0,0.0,17,4.438679590438153e-19,0,1735643777088284730,map,0.9975333734161788,-0.2575951958447593,0.2382881163768027,-0.4970357442457656,0.5363612894671835,-0.4783324656031668,0.4862819022471982,0.0,0.0,0.0,121,3.0867708511038264e-06,0,1735643777088297367,map,1.0106307744191447,0.2043120439524649,0.2443433378141682,0.4914471405057345,-0.5029331087625799,0.5077897353097202,-0.4976822087569821,0.0,0.0,0.0,122,0.0,0,1735643777088310956,map,0.9927534221237552,0.2088763610990393,0.1458175607502318,-0.4821146270370513,0.5071014746845774,-0.4895353301683201,0.5203544381348595,0.0,0.0,0.0,124,0.0,0,1735643777088322877,map,0.99339864858554,-0.0246002260896669,0.2442507024684931,-0.595667630969221,0.3172356879081439,-0.3396736621387337,0.6551056365062237,0.0,0.0,0.0,125,4.8801535445166e-25,0,1735643777088343858,map,0.9896813912365818,-0.0190503639894211,0.14611931266552,-0.4780935553779871,0.4839414255429438,-0.5246172852936625,0.5118632170029483,0.0,0.0,0.0,126,2.1060695248058238e-19,0,1735644242188269615,map,0.9802113830437624,0.3321930887356784,0.0255839891234994,-0.5079545202306971,0.5017836119027818,-0.4818032749541615,0.5079970634230534,0.0,0.0,0.0,0,0.0,0.950521443840278,-0.4923524183070686,0.0509040616195831,1.0,5.898873183448479e-05,0.0006046258989097,-0.0010125170656803,0.0,0.0,0.0,0.0006046258989097,0.0095878037689258,-0.0110960091796026,0.0,0.0,0.0,-0.0010125170656803,-0.0110960091796026,0.0175314246291075,0.0,0.0,0.0,0.0,0.0,0.0,0.0,0.0,0.0,0.0,0.0,0.0,0.0,0.0,0.0,0.0,0.0,0.0,0.0,0.0,0.0,0,0,0,1,13,,1
1.297828239,0,1735643777088230371,map,0.9718696364358012,-0.2241918757809076,0.0218565960533428,-0.4848011310597278,0.5191217831985242,-0.5068291250881973,0.4884717755350106,0.0,0.0,0.0,1,0.9928763580890895,0,1735643777088253974,map,0.9677095113319714,-0.2525113793536016,0.1498359129523298,-0.4824597911489736,0.4732146582189787,-0.5130660122052526,0.5292104536864173,0.0,0.0,0.0,16,0.007107456533697502,0,1735643777088270664,map,0.9713022950916714,0.0525969463311241,0.0277646024730195,-0.4827703611769133,0.5060469607274035,-0.5078679849024624,0.5029108885466514,0.0,0.0,0.0,17,1.129672968597961e-14,0,1735643777088284730,map,0.988889937716751,-0.2563480247115335,0.2389508230118365,-0.5287891443365602,0.5119153176193768,-0.4527024851799249,0.5033738256309925,0.0,0.0,0.0,121,1.6185377198981717e-05,0,1735643777088297367,map,1.0106307744191447,0.2043120439524649,0.2443433378141682,0.4914471405057345,-0.5029331087625799,0.5077897353097202,-0.4976822087569821,0.0,0.0,0.0,122,7.829601043475076e-41,0,1735643777088310956,map,0.9927534221237552,0.2088763610990393,0.1458175607502318,-0.4821146270370513,0.5071014746845774,-0.4895353301683201,0.5203544381348595,0.0,0.0,0.0,124,2.7197252950741773e-34,0,1735643777088322877,map,0.987921085732846,-0.0247835027019099,0.2451359362533011,-0.4866333720168908,0.500634834010198,-0.5058817640674454,0.5065928986859778,0.0,0.0,0.0,125,5.093785229414003e-20,0,1735643777088343858,map,0.985066955646838,-0.0193169336720089,0.1474319540841219,-0.4807054662584908,0.4844311944230821,-0.5222021875680091,0.5114230615431992,0.0,0.0,0.0,126,2.6979338600919214e-15,0,1735644242188269615,map,0.9802113830437624,0.3321930887356784,0.0255839891234994,-0.5079545202306971,0.5017836119027818,-0.4818032749541615,0.5079970634230534,0.0,0.0,0.0,0,1.3059774540516428e-38,0.9507379267927468,-0.4800761706886805,0.0450588091831441,1.0,5.538449428238967e-05,0.0005959871129875,-0.0009566445857015,0.0,0.0,0.0,0.0005959871129875,0.0108621419652177,-0.0112362880572675,0.0,0.0,0.0,-0.0009566445857015,-0.0112362880572675,0.0167233507013367,0.0,0.0,0.0,0.0,0.0,0.0,0.0,0.0,0.0,0.0,0.0,0.0,0.0,0.0,0.0,0.0,0.0,0.0,0.0,0.0,0.0,0,0,0,1,14,,1
1.399619503,0,1735643777088230371,map,0.9624112013038308,-0.2231946780904033,0.0249904896560058,-0.4841910931012311,0.488280185325226,-0.504862391174351,0.5217809999970432,0.0,0.0,0.0,1,0.9629845295557147,0,1735643777088253974,map,0.9654086669789756,-0.2519055375252593,0.1502943878492743,-0.5411211572174842,0.501142246644759,-0.44824677377635,0.5050932306401936,0.0,0.0,0.0,16,0.03650238906195897,0,1735643777088270664,map,0.9671953265221814,0.0516410289896179,0.0288811180519319,-0.4889732798134586,0.4961039514933945,-0.4962369212356301,0.5182035497212382,0.0,0.0,0.0,17,7.213169971082834e-09,0,1735643777088284730,map,0.988590431430946,-0.2558928516638699,0.2393160379968956,-0.51450447555891,0.5092994941263158,-0.4657813973675399,0.508868214549574,0.0,0.0,0.0,121,0.000513072915769208,0,1735643777088297367,map,1.0106307744191447,0.2043120439524649,0.2443433378141682,0.4914471405057345,-0.5029331087625799,0.5077897353097202,-0.4976822087569821,0.0,0.0,0.0,122,2.0628853604069269e-25,0,1735643777088310956,map,0.9927534221237552,0.2088763610990393,0.1458175607502318,-0.4821146270370513,0.5071014746845774,-0.4895353301683201,0.5203544381348595,0.0,0.0,0.0,124,5.6918729973625176e-21,0,1735643777088322877,map,0.9839232413559778,-0.0246672003428578,0.2454696251396465,-0.4973150424035222,0.5075579510231091,-0.4907268806301758,0.5042318946470791,0.0,0.0,0.0,125,7.933455610158726e-13,0,1735643777088343858,map,0.9886211816557032,-0.0168999329510391,0.1470532686719426,0.5199359855778989,-0.497315042440493,0.4839394933812421,-0.498143439392166,0.0,0.0,0.0,126,1.2525937865923613e-09,0,1735644242188269615,map,0.9802113830437624,0.3321930887356784,0.0255839891234994,-0.5079545202306971,0.5017836119027818,-0.4818032749541615,0.5079970634230534,0.0,0.0,0.0,0,3.934802484509065e-23,0.9508044615483492,-0.4640728208645237,0.0406728115197574,1.0,5.1754170895406346e-05,0.0005711615443595,-0.0008969537779445,0.0,0.0,0.0,0.0005711615443595,0.0137235000458573,-0.0114698713558745,0.0,0.0,0.0,-0.0008969537779445,-0.0114698713558745,0.0158777783116262,0.0,0.0,0.0,0.0,0.0,0.0,0.0,0.0,0.0,0.0,0.0,0.0,0.0,0.0,0.0,0.0,0.0,0.0,0.0,0.0,0.0,0,0,0,1,15,,1
1.496698603,0,1735643777088230371,map,0.960333086995122,-0.2222622461769791,0.0255892268814047,-0.4892599789830295,0.4923649037960649,-0.5046666542655501,0.5133352145994204,0.0,0.0,0.0,1,0.8914506734029748,0,1735643777088253974,map,0.9628270763150616,-0.2512138800761608,0.150635296930964,-0.5072294319041187,0.4697950017399907,-0.4816699712124026,0.5385211217608742,0.0,0.0,0.0,16,0.10342727372192098,0,1735643777088270664,map,0.9694095632879404,0.0550673085006997,0.0279241367517887,-0.4930148858254272,0.4973696804142379,-0.4952080336156584,0.5141290954630876,0.0,0.0,0.0,17,2.7327416545475217e-05,0,1735643777088284730,map,0.984848808016333,-0.2547868175014155,0.2401707722816684,-0.5082491138523552,0.524640894047078,-0.4735065492773168,0.4921649300318605,0.0,0.0,0.0,121,0.00508813835067347,0,1735643777088297367,map,1.0106307744191447,0.2043120439524649,0.2443433378141682,0.4914471405057345,-0.5029331087625799,0.5077897353097202,-0.4976822087569821,0.0,0.0,0.0,122,3.3682392389326024e-15,0,1735643777088310956,map,0.9927534221237552,0.2088763610990393,0.1458175607502318,-0.4821146270370513,0.5071014746845774,-0.4895353301683201,0.5203544381348595,0.0,0.0,0.0,124,2.7015466829834873e-12,0,1735643777088322877,map,0.9784420288687308,-0.0243921273310525,0.2459495573672043,0.512200219285934,-0.5076094495784246,0.4862815018819699,-0.4934712585242891,0.0,0.0,0.0,125,4.764939218964849e-08,0,1735643777088343858,map,0.9824988940347246,-0.0169161008543985,0.1484612817943044,-0.4941645257739711,0.4801275332525375,-0.5088232296430536,0.516118101072838,0.0,0.0,0.0,126,6.539455481038669e-06,0,1735644242188269615,map,0.9802113830437624,0.3321930887356784,0.0255839891234994,-0.5079545202306971,0.5017836119027818,-0.4818032749541615,0.5079970634230534,0.0,0.0,0.0,0,3.0705188396552507e-13,0.9507273009102544,-0.4449490226715969,0.037780756806663,1.0,4.860884167551169e-05,0.0005133298807665,-0.000837546875017,0.0,0.0,0.0,0.0005133298807665,0.0183515761528481,-0.0115826104565742,0.0,0.0,0.0,-0.000837546875017,-0.0115826104565742,0.0150108768741025,0.0,0.0,0.0,0.0,0.0,0.0,0.0,0.0,0.0,0.0,0.0,0.0,0.0,0.0,0.0,0.0,0.0,0.0,0.0,0.0,0.0,0,0,0,1,16,,1
1.599062258,0,1735643777088230371,map,0.9639101948756524,-0.2222732387032374,0.0245968845877834,-0.4938959233570311,0.5067772053338419,-0.4955698008517369,0.5036409966723284,0.0,0.0,0.0,1,0.8275805423814153,0,1735643777088253974,map,0.9601193559949226,-0.2502911531983777,0.151721921987378,-0.460832813625445,0.6303945861706308,-0.50135869152953,0.3726596919987626,0.0,0.0,0.0,16,0.15623415192484413,0,1735643777088270664,map,0.9607812846711516,0.0510619403454813,0.0311685640560603,-0.4814067020176767,0.4956135028353332,-0.501360963972871,0.5208186122480156,0.0,0.0,0.0,17,0.0011833078481219134,0,1735643777088284730,map,0.9855653866663036,-0.25448182700106,0.2408724304370468,0.3921128144382141,-0.5289950609583798,0.5874598283939777,-0.4704282264685028,0.0,0.0,0.0,121,0.014669908625034199,0,1735643777088297367,map,1.0106307744191447,0.2043120439524649,0.2443433378141682,0.4914471405057345,-0.5029331087625799,0.5077897353097202,-0.4976822087569821,0.0,0.0,0.0,122,1.6070442413907415e-10,0,1735643777088310956,map,0.9927534221237552,0.2088763610990393,0.1458175607502318,-0.4821146270370513,0.5071014746845774,-0.4895353301683201,0.5203544381348595,0.0,0.0,0.0,124,2.338824288457527e-08,0,1735643777088322877,map,0.9822520220352406,-0.0226573214987036,0.2473548679128155,-0.5323610833558554,0.4851450091557064,-0.4691246869854275,0.511026442642956,0.0,0.0,0.0,125,6.8293659064063e-06,0,1735643777088343858,map,0.9787344877163854,-0.0176371490248565,0.149446150621152,-0.4946082059714903,0.4786021538398791,-0.5026917047637729,0.5230714586814924,0.0,0.0,0.0,126,0.0003252280291725057,0,1735644242188269615,map,0.9802113830437624,0.3321930887356784,0.0255839891234994,-0.5079545202306971,0.5017836119027818,-0.4818032749541615,0.5079970634230534,0.0,0.0,0.0,0,8.27655813265507e-09,0.9505682471006692,-0.4254458066413317,0.0360363086316187,1.0,4.61542678770361e-05,0.000433501032487,-0.0007838400337349,0.0,0.0,0.0,0.000433501032487,0.0233580786416399,-0.0114456380235007,0.0,0.0,0.0,-0.0007838400337349,-0.0114456380235007,0.014176573707769,0.0,0.0,0.0,0.0,0.0,0.0,0.0,0.0,0.0,0.0,0.0,0.0,0.0,0.0,0.0,0.0,0.0,0.0,0.0,0.0,0.0,0,0,0,1,17,,1
1.699669264,0,1735643777088230371,map,0.959444266502104,-0.2221322755304731,0.0258358097866598,-0.4951874541877606,0.4816359601114264,-0.4866577147108731,0.5347714052330959,0.0,0.0,0.0,1,0.7704953185481443,0,1735643777088253974,map,0.9636530035954454,-0.2511584526093355,0.1509837160572023,-0.5008858514995862,0.4762354406740758,-0.492022714306041,0.5293645411438318,0.0,0.0,0.0,16,0.19891826536971732,0,1735643777088270664,map,0.9680331399832612,0.0546855449681372,0.028414761133084,-0.5023395874334019,0.4978505401598138,-0.4943923268674196,0.505347410891201,0.0,0.0,0.0,17,0.00496354038711679,0,1735643777088284730,map,0.9843734729481232,-0.2546624698544662,0.2404467436315781,-0.5040449419408369,0.51987284262528,-0.4765101254600521,0.498607084123977,0.0,0.0,0.0,121,0.023863522824548473,0,1735643777088297367,map,1.0106307744191447,0.2043120439524649,0.2443433378141682,0.4914471405057345,-0.5029331087625799,0.5077897353097202,-0.4976822087569821,0.0,0.0,0.0,122,1.3202025246594428e-08,0,1735643777088310956,map,0.9927534221237552,0.2088763610990393,0.1458175607502318,-0.4821146270370513,0.5071014746845774,-0.4895353301683201,0.5203544381348595,0.0,0.0,0.0,124,9.103204275633927e-07,0,1735643777088322877,map,0.9794318507329072,-0.0236048188376783,0.2462568170505768,-0.5100166255443225,0.4967852873541644,-0.4886697377932,0.5042710653031248,0.0,0.0,0.0,125,6.180871276764878e-05,0,1735643777088343858,map,0.97376599320182,-0.0195099292126674,0.1494269952940913,-0.4840571982358941,0.4859809694870412,-0.5177558540009,0.5113120395416592,0.0,0.0,0.0,126,0.001696167975151062,0,1735644242188269615,map,0.9802113830437624,0.3321930887356784,0.0255839891234994,-0.5079545202306971,0.5017836119027818,-0.4818032749541615,0.5079970634230534,0.0,0.0,0.0,0,4.526601014405334e-07,0.9503557410713862,-0.4096571659008258,0.0358798224250961,1.0,4.4357841696055805e-05,0.000352379558817,-0.0007397280427335,0.0,0.0,0.0,0.000352379558817,0.0262981876053502,-0.0108517712208431,0.0,0.0,0.0,-0.0007397280427335,-0.0108517712208431,0.0133894025744178,0.0,0.0,0.0,0.0,0.0,0.0,0.0,0.0,0.0,0.0,0.0,0.0,0.0,0.0,0.0,0.0,0.0,0.0,0.0,0.0,0.0,0,0,0,1,18,,1
1.799082845,0,1735643777088230371,map,0.9621491274871854,-0.2224292139036942,0.0257568816088283,-0.4888239090079418,0.4973665504401401,-0.5075440994935463,0.5060402034964776,0.0,0.0,0.0,1,0.7632909971596578,0,1735643777088253974,map,0.96094587089792,-0.2509496315902722,0.1517028558419851,-0.5427530438870601,0.5055435270524361,-0.4454922454275673,0.5013796314875766,0.0,0.0,0.0,16,0.20062529625581157,0,1735643777088270664,map,0.9682205044236458,0.0539474642720595,0.0291746863227025,-0.493689705777911,0.4992309895698377,-0.4957996714873332,0.5110984046297669,0.0,0.0,0.0,17,0.008252619372789913,0,1735643777088284730,map,0.9855411625533887,-0.2551819978759913,0.2409527808032246,-0.5071380458519563,0.5013726747806785,-0.4779666186841869,0.5128200023949265,0.0,0.0,0.0,121,0.025070751401584497,0,1735643777088297367,map,1.0106307744191447,0.2043120439524649,0.2443433378141682,0.4914471405057345,-0.5029331087625799,0.5077897353097202,-0.4976822087569821,0.0,0.0,0.0,122,4.604895263443032e-08,0,1735643777088310956,map,0.9927534221237552,0.2088763610990393,0.1458175607502318,-0.4821146270370513,0.5071014746845774,-0.4895353301683201,0.5203544381348595,0.0,0.0,0.0,124,2.806538663276891e-06,0,1735643777088322877,map,0.9849408704558762,-0.0229436356228741,0.2474591138565846,-0.5641546829933899,0.3050513382160447,-0.3545875313209216,0.6803975729975548,0.0,0.0,0.0,125,0.00010230881523968591,0,1735643777088343858,map,0.982866145333652,-0.0170872158799881,0.149176613979098,-0.5022405988715032,0.4798929068527683,-0.4970015796169971,0.5200448140841367,0.0,0.0,0.0,126,0.0026534769703981114,0,1735644242188269615,map,0.9802113830437624,0.3321930887356784,0.0255839891234994,-0.5079545202306971,0.5017836119027818,-0.4818032749541615,0.5079970634230534,0.0,0.0,0.0,0,1.6974369025233282e-06,0.9502539791903296,-0.3976850492171513,0.0348708560444647,1.0,4.220961709674616e-05,0.0003119037741964,-0.0006989468501501,0.0,0.0,0.0,0.0003119037741964,0.0274940408702018,-0.0104980557054133,0.0,0.0,0.0,-0.0006989468501501,-0.0104980557054133,0.0127030214125946,0.0,0.0,0.0,0.0,0.0,0.0,0.0,0.0,0.0,0.0,0.0,0.0,0.0,0.0,0.0,0.0,0.0,0.0,0.0,0.0,0.0,0,0,0,1,19,,1
1.89873143,0,1735643777088230371,map,0.9600657152964376,-0.2238428681682313,0.0251177037791962,-0.4839504263537901,0.4986536012038812,-0.4994260167638998,0.5174072135346875,0.0,0.0,0.0,1,0.7689639131556245,0,1735643777088253974,map,0.962820330775216,-0.2527163280893158,0.1510674368552274,-0.504453363887432,0.5072617483566637,-0.4939633315552224,0.4941786614127123,0.0,0.0,0.0,16,0.1965132531252166,0,1735643777088270664,map,0.9643358901491804,0.0522283207307327,0.0291351788019127,-0.4894415063126671,0.4964632582688946,-0.4975179314947101,0.5161851924732486,0.0,0.0,0.0,17,0.009368536609502038,0,1735643777088284730,map,0.9821257130869884,-0.2562586209630536,0.2406096742814137,0.3571283522553612,-0.4863456868482612,0.6318224009778646,-0.4865466745565425,0.0,0.0,0.0,121,0.022259205892985356,0,1735643777088297367,map,1.0106307744191447,0.2043120439524649,0.2443433378141682,0.4914471405057345,-0.5029331087625799,0.5077897353097202,-0.4976822087569821,0.0,0.0,0.0,122,4.1976834785014624e-08,0,1735643777088310956,map,0.9927534221237552,0.2088763610990393,0.1458175607502318,-0.4821146270370513,0.5071014746845774,-0.4895353301683201,0.5203544381348595,0.0,0.0,0.0,124,2.9455772829008337e-06,0,1735643777088322877,map,0.9842362611574428,-0.0226608431284472,0.2477490661672125,-0.5029607735138716,0.4906750396050841,-0.4915349154840961,0.5144530033685476,0.0,0.0,0.0,125,8.851721591559867e-05,0,1735643777088343858,map,0.9715548360692178,-0.0211202538969748,0.1496651343470005,0.4921131350816885,-0.4981910680087852,0.5109711982870844,-0.4985366150619214,0.0,0.0,0.0,126,0.0028015298841456973,0,1735644242188269615,map,0.9802113830437624,0.3321930887356784,0.0255839891234994,-0.5079545202306971,0.5017836119027818,-0.4818032749541615,0.5079970634230534,0.0,0.0,0.0,0,2.0565624925490525e-06,0.9502647878141784,-0.3890521957362701,0.0328809751308021,1.0,4.010135594254946e-05,0.0002980814615409,-0.0006644081572543,0.0,0.0,0.0,0.0002980814615409,0.0275353358519166,-0.0102995415772116,0.0,0.0,0.0,-0.0006644081572543,-0.0102995415772116,0.0121431032369255,0.0,0.0,0.0,0.0,0.0,0.0,0.0,0.0,0.0,0.0,0.0,0.0,0.0,0.0,0.0,0.0,0.0,0.0,0.0,0.0,0.0,0,0,0,1,20,,1
1.998831039,0,1735643777088230371,map,0.9608377608924809,-0.2248053310060026,0.0240352187384691,-0.4841244685872694,0.511541268101796,-0.5053998529717967,0.4985178217074961,0.0,0.0,0.0,1,0.7917337104197671,0,1735643777088253974,map,0.9568082503143138,-0.2530038529896344,0.1507807766040557,-0.4910017211993299,0.4629362707819476,-0.4982503120802949,0.5443840055380834,0.0,0.0,0.0,16,0.17939575987254758,0,1735643777088270664,map,0.961821398997192,0.0502406620913275,0.0293672394196253,-0.4853709222910274,0.4990104608494048,-0.505084187539989,0.5101897600445272,0.0,0.0,0.0,17,0.008293133954288575,0,1735643777088284730,map,0.9823045873778088,-0.2575810232451429,0.2406767562634487,-0.4810720928843158,0.5448564146397322,-0.4991203112478414,0.4717838952038301,0.0,0.0,0.0,121,0.018413824518601966,0,1735643777088297367,map,1.0106307744191447,0.2043120439524649,0.2443433378141682,0.4914471405057345,-0.5029331087625799,0.5077897353097202,-0.4976822087569821,0.0,0.0,0.0,122,1.8192332902099762e-08,0,1735643777088310956,map,0.9927534221237552,0.2088763610990393,0.1458175607502318,-0.4821146270370513,0.5071014746845774,-0.4895353301683201,0.5203544381348595,0.0,0.0,0.0,124,1.6372244017914164e-06,0,1735643777088322877,map,0.978915310877792,-0.0250368590921134,0.247100332048775,0.5196104445204971,-0.5026423308731639,0.4771880082487086,-0.4996471534425418,0.0,0.0,0.0,125,5.9681519604552805e-05,0,1735643777088343858,map,0.977733217090661,-0.0192270935810618,0.1488347164282218,-0.5025933598304563,0.4838047905562246,-0.5011141708545429,0.5120717010907223,0.0,0.0,0.0,126,0.0021010030466847495,0,1735644242188269615,map,0.9802113830437624,0.3321930887356784,0.0255839891234994,-0.5079545202306971,0.5017836119027818,-0.4818032749541615,0.5079970634230534,0.0,0.0,0.0,0,1.2312517707948823e-06,0.9504602993970848,-0.3836854545693177,0.0288131081149446,1.0,3.895626314534288e-05,0.0003048723074414,-0.0006486759759619,0.0,0.0,0.0,0.0003048723074414,0.0268001675978389,-0.0102457110039058,0.0,0.0,0.0,-0.0006486759759619,-0.0102457110039058,0.0118958110668173,0.0,0.0,0.0,0.0,0.0,0.0,0.0,0.0,0.0,0.0,0.0,0.0,0.0,0.0,0.0,0.0,0.0,0.0,0.0,0.0,0.0,0,0,0,1,21,,1
2.100399723,0,1735643777088230371,map,0.957992894038836,-0.2259061738387035,0.024690204632551,-0.4926672631330918,0.492485962111485,-0.4908050830565088,0.5233038461601138,0.0,0.0,0.0,1,0.7949559907658305,0,1735643777088253974,map,0.9576801061601884,-0.2543117897670869,0.1503225378571236,-0.4863997634570767,0.4634708218991507,-0.5034626743044679,0.543263658769128,0.0,0.0,0.0,16,0.17807048358415095,0,1735643777088270664,map,0.9619032563057708,0.0497199132852745,0.0286187384699214,-0.4888394687231076,0.5000332324018819,-0.5026070664245931,0.50831966034406,0.0,0.0,0.0,17,0.006997801320000802,0,1735643777088284730,map,0.9812024289676168,-0.2586632873251824,0.2404645153865965,-0.4972655750132037,0.5370102979326744,-0.4807919468441557,0.4828933543452995,0.0,0.0,0.0,121,0.018039861485965227,0,1735643777088297367,map,1.0106307744191447,0.2043120439524649,0.2443433378141682,0.4914471405057345,-0.5029331087625799,0.5077897353097202,-0.4976822087569821,0.0,0.0,0.0,122,1.2584072955842952e-08,0,1735643777088310956,map,0.9927534221237552,0.2088763610990393,0.1458175607502318,-0.4821146270370513,0.5071014746845774,-0.4895353301683201,0.5203544381348595,0.0,0.0,0.0,124,1.1110135383013811e-06,0,1735643777088322877,map,0.9782145552851678,-0.0258180391980519,0.2469141163132295,-0.5050800840277359,0.4913109467735451,-0.4898597105642961,0.5133664639074922,0.0,0.0,0.0,125,5.238318338545506e-05,0,1735643777088343858,map,0.972473989743444,-0.0218550670729215,0.1488117611381439,0.495985020046793,-0.4984731751108109,0.5065227028594889,-0.498957017259049,0.0,0.0,0.0,126,0.0018816347346193734,0,1735644242188269615,map,0.9802113830437624,0.3321930887356784,0.0255839891234994,-0.5079545202306971,0.5017836119027818,-0.4818032749541615,0.5079970634230534,0.0,0.0,0.0,0,7.213284366533894e-07,0.9508101477944036,-0.3826974125570592,0.023358142555071,1.0,3.97557958347036e-05,0.0002982734384889,-0.0006592673344569,0.0,0.0,0.0,0.0002982734384889,0.0256024789289513,-0.0098931813054848,0.0,0.0,0.0,-0.0006592673344569,-0.0098931813054848,0.0119799820164095,0.0,0.0,0.0,0.0,0.0,0.0,0.0,0.0,0.0,0.0,0.0,0.0,0.0,0.0,0.0,0.0,0.0,0.0,0.0,0.0,0.0,0,0,0,1,22,,1
2.1992827,0,1735643777088230371,map,0.9582848279261752,-0.2264496806176793,0.0242347827420236,-0.4938016838080337,0.5045626933271705,-0.4946094870262633,0.5068903638010878,0.0,0.0,0.0,1,0.8114237322758244,0,1735643777088253974,map,0.956263475820152,-0.2548955389144851,0.1511987420661862,-0.491203543299366,0.4608833166303459,-0.4975678226947512,0.5465637285081812,0.0,0.0,0.0,16,0.16642389889583728,0,1735643777088270664,map,0.9609130095070576,0.050952768689868,0.0289418975577697,-0.4964741244489843,0.50150232949359,-0.4968135727233108,0.5051585208852929,0.0,0.0,0.0,17,0.005469066017433406,0,1735643777088284730,map,0.9796181435458456,-0.259100241705431,0.2421434009451339,-0.4909934704578254,0.5287410047339938,-0.4913988008342535,0.4877351539712152,0.0,0.0,0.0,121,0.01518450867460457,0,1735643777088297367,map,1.0106307744191447,0.2043120439524649,0.2443433378141682,0.4914471405057345,-0.5029331087625799,0.5077897353097202,-0.4976822087569821,0.0,0.0,0.0,122,6.735960063788007e-09,0,1735643777088310956,map,0.9927534221237552,0.2088763610990393,0.1458175607502318,-0.4821146270370513,0.5071014746845774,-0.4895353301683201,0.5203544381348595,0.0,0.0,0.0,124,6.610268540214622e-07,0,1735643777088322877,map,0.979737885734386,-0.0234361073814647,0.2491779259306696,-0.4997176238137518,0.4933407611358438,-0.4938800556256772,0.5128154448795613,0.0,0.0,0.0,125,3.1920818357345525e-05,0,1735643777088343858,map,0.9735497057796574,-0.0216800368024303,0.1493195299417693,-0.4923063968336512,0.4895713127801422,-0.5129349812487921,0.5048287297199887,0.0,0.0,0.0,126,0.0014658065162850289,0,1735644242188269615,map,0.9802113830437624,0.3321930887356784,0.0255839891234994,-0.5079545202306971,0.5017836119027818,-0.4818032749541615,0.5079970634230534,0.0,0.0,0.0,0,3.9903884404224396e-07,0.9510426202809568,-0.3821051794023142,0.0197469630031087,1.0,3.921623902641728e-05,0.0002883339422301,-0.0006490725348829,0.0,0.0,0.0,0.0002883339422301,0.0244970439535815,-0.00951009351354,0.0,0.0,0.0,-0.0006490725348829,-0.00951009351354,0.0117460068237306,0.0,0.0,0.0,0.0,0.0,0.0,0.0,0.0,0.0,0.0,0.0,0.0,0.0,0.0,0.0,0.0,0.0,0.0,0.0,0.0,0.0,0,0,0,1,23,,1
2.298555957,0,1735643777088230371,map,0.9560955469251142,-0.2267763591240168,0.0250639682269076,-0.496943689461835,0.4972057249480842,-0.4918862187077817,0.5136938625565522,0.0,0.0,0.0,1,0.8222926093479708,0,1735643777088253974,map,0.9591401732317236,-0.2555888674224522,0.1512803366385383,-0.5026698497251578,0.4917345879723088,-0.4936222835277934,0.511719804554991,0.0,0.0,0.0,16,0.15939734712598483,0,1735643777088270664,map,0.958036584569302,0.0493656597683419,0.0299784145471473,-0.4912453780205391,0.5016076968900997,-0.504297554819792,0.5027441428767193,0.0,0.0,0.0,17,0.004528176308102895,0,1735643777088284730,map,0.9773215395626936,-0.2590780080064761,0.2424837341710711,-0.495080775461843,0.5207168284184074,-0.4858717052298067,0.4976722781379882,0.0,0.0,0.0,121,0.012726269663803079,0,1735643777088297367,map,1.0106307744191447,0.2043120439524649,0.2443433378141682,0.4914471405057345,-0.5029331087625799,0.5077897353097202,-0.4976822087569821,0.0,0.0,0.0,122,3.2184213137710105e-09,0,1735643777088310956,map,0.9927534221237552,0.2088763610990393,0.1458175607502318,-0.4821146270370513,0.5071014746845774,-0.4895353301683201,0.5203544381348595,0.0,0.0,0.0,124,3.760840277193029e-07,0,1735643777088322877,map,0.9766060346230078,-0.0241928769517536,0.2496592647671252,-0.4968498238752676,0.4947152218102938,-0.4957639007076305,0.5124600048583916,0.0,0.0,0.0,125,2.107525356849634e-05,0,1735643777088343858,map,0.9722206472295062,-0.019845010950285,0.150427555655498,-0.4883480792687494,0.4834291718325584,-0.5120176282635045,0.5154127837405921,0.0,0.0,0.0,126,0.001033922552956552,0,1735644242188269615,map,0.9802113830437624,0.3321930887356784,0.0255839891234994,-0.5079545202306971,0.5017836119027818,-0.4818032749541615,0.5079970634230534,0.0,0.0,0.0,0,2.2044516427221328e-07,0.9511232392419814,-0.3833809988264958,0.0188082553131493,1.0,3.773171565514725e-05,0.0002739543575326,-0.0006237684316189,0.0,0.0,0.0,0.0002739543575326,0.0235137712385207,-0.0090862943225395,0.0,0.0,0.0,-0.0006237684316189,-0.0090862943225395,0.0112768568316672,0.0,0.0,0.0,0.0,0.0,0.0,0.0,0.0,0.0,0.0,0.0,0.0,0.0,0.0,0.0,0.0,0.0,0.0,0.0,0.0,0.0,0,0,0,1,24,,1
2.398168835,0,1735643777088230371,map,0.9562153779719924,-0.2277787272929512,0.0257100389853137,-0.4918455067779754,0.5141421113497752,-0.501736862252754,0.491941061363933,0.0,0.0,0.0,1,0.8347849228110288,0,1735643777088253974,map,0.9595984265865078,-0.2567177536352042,0.1521830897050707,0.51294525342567,-0.5082057717516523,0.4835364027154352,-0.4947793526365054,0.0,0.0,0.0,16,0.1500006693066356,0,1735643777088270664,map,0.9564989735007164,0.0476041424180889,0.0311156371850493,-0.4887757804689056,0.5010826284052468,-0.5000071186563623,0.5099091264435892,0.0,0.0,0.0,17,0.0037323233330489847,0,1735643777088284730,map,0.9771682889315052,-0.2599409267937096,0.2434117088216508,-0.4902309788093542,0.4977268733702065,-0.4929160915517301,0.5186282615034661,0.0,0.0,0.0,121,0.010644819074905696,0,1735643777088297367,map,1.0106307744191447,0.2043120439524649,0.2443433378141682,0.4914471405057345,-0.5029331087625799,0.5077897353097202,-0.4976822087569821,0.0,0.0,0.0,122,1.4381249916360819e-09,0,1735643777088310956,map,0.9927534221237552,0.2088763610990393,0.1458175607502318,-0.4821146270370513,0.5071014746845774,-0.4895353301683201,0.5203544381348595,0.0,0.0,0.0,124,2.048570156011293e-07,0,1735643777088322877,map,0.9727058558314774,-0.026124171520985,0.2500774830634048,-0.5012682957174055,0.5023093906982267,-0.4893581180219973,0.5068964431231621,0.0,0.0,0.0,125,1.4092056062808155e-05,0,1735643777088343858,map,0.965628074510234,-0.0232096913508268,0.1514766635343325,0.4900197695335808,-0.5022562409013097,0.5118376279420724,-0.4956223729459504,0.0,0.0,0.0,126,0.0008228499513588006,0,1735644242188269615,map,0.9802113830437624,0.3321930887356784,0.0255839891234994,-0.5079545202306971,0.5017836119027818,-0.4818032749541615,0.5079970634230534,0.0,0.0,0.0,0,1.1717181874020585e-07,0.9511124053340078,-0.3841310919250223,0.0191295186534261,1.0,3.622526399442893e-05,0.0002631912177817,-0.0005989012272533,0.0,0.0,0.0,0.0002631912177817,0.0225867237407348,-0.0087286260075823,0.0,0.0,0.0,-0.0005989012272533,-0.0087286260075823,0.0108282596016118,0.0,0.0,0.0,0.0,0.0,0.0,0.0,0.0,0.0,0.0,0.0,0.0,0.0,0.0,0.0,0.0,0.0,0.0,0.0,0.0,0.0,0,0,0,1,25,,1
2.499073675,0,1735643777088230371,map,0.9520987403189016,-0.2267002009873592,0.0267191776601974,-0.4948168210855591,0.5033395739586063,-0.4904491555989111,0.5111410887712565,0.0,0.0,0.0,1,0.850038547289233,0,1735643777088253974,map,0.9484754411196108,-0.2550040323830627,0.1528655508387737,-0.5091014144039845,0.4540426213797638,-0.477317772939469,0.5539212863381948,0.0,0.0,0.0,16,0.1373844153949782,0,1735643777088270664,map,0.9561952870938,0.0501779615584292,0.0307456685591846,-0.4950980713067115,0.5010075280245393,-0.4966612329240742,0.5071459122988702,0.0,0.0,0.0,17,0.0030270754261215514,0,1735643777088284730,map,0.9715804697742502,-0.2583449468099299,0.2435520722241697,-0.4926604627472176,0.5084133299273297,-0.4925119520335642,0.5061951515986592,0.0,0.0,0.0,121,0.008917841486335905,0,1735643777088297367,map,1.0106307744191447,0.2043120439524649,0.2443433378141682,0.4914471405057345,-0.5029331087625799,0.5077897353097202,-0.4976822087569821,0.0,0.0,0.0,122,7.192524967152348e-10,0,1735643777088310956,map,0.9927534221237552,0.2088763610990393,0.1458175607502318,-0.4821146270370513,0.5071014746845774,-0.4895353301683201,0.5203544381348595,0.0,0.0,0.0,124,1.2398191775192724e-07,0,1735643777088322877,map,0.9663744873039236,-0.0261543353955751,0.2500750815714889,-0.4929095110378143,0.50397337547103,-0.501829867750932,0.5012163550582532,0.0,0.0,0.0,125,9.602986413653369e-06,0,1735643777088343858,map,0.9623746576039024,-0.0220029277839604,0.1522340495341949,-0.4864195018308029,0.4951697248133368,-0.5153906230672399,0.5025689181807008,0.0,0.0,0.0,126,0.0006223226544381689,0,1735644242188269615,map,0.9802113830437624,0.3321930887356784,0.0255839891234994,-0.5079545202306971,0.5017836119027818,-0.4818032749541615,0.5079970634230534,0.0,0.0,0.0,0,7.006130916707585e-08,0.9511087769616462,-0.3828501552718596,0.0189127145112586,1.0,3.483231373717768e-05,0.0002529522857575,-0.0005758468985127,0.0,0.0,0.0,0.0002529522857575,0.0217590235645958,-0.0083998524319818,0.0,0.0,0.0,-0.0005758468985127,-0.0083998524319818,0.0104129631793744,0.0,0.0,0.0,0.0,0.0,0.0,0.0,0.0,0.0,0.0,0.0,0.0,0.0,0.0,0.0,0.0,0.0,0.0,0.0,0.0,0.0,0,0,0,1,26,,1
