%time,field.boxes0.header.seq,field.boxes0.header.stamp,field.boxes0.header.frame_id,field.boxes0.pose.position.x,field.boxes0.pose.position.y,field.boxes0.pose.position.z,field.boxes0.pose.orientation.x,field.boxes0.pose.orientation.y,field.boxes0.pose.orientation.z,field.boxes0.pose.orientation.w,field.boxes0.scale.x,field.boxes0.scale.y,field.boxes0.scale.z,field.boxes0.id,field.boxes0.pdf,field.boxes1.header.seq,field.boxes1.header.stamp,field.boxes1.header.frame_id,field.boxes1.pose.position.x,field.boxes1.pose.position.y,field.boxes1.pose.position.z,field.boxes1.pose.orientation.x,field.boxes1.pose.orientation.y,field.boxes1.pose.orientation.z,field.boxes1.pose.orientation.w,field.boxes1.scale.x,field.boxes1.scale.y,field.boxes1.scale.z,field.boxes1.id,field.boxes1.pdf,field.boxes2.header.seq,field.boxes2.header.stamp,field.boxes2.header.frame_id,field.boxes2.pose.position.x,field.boxes2.pose.position.y,field.boxes2.pose.position.z,field.boxes2.pose.orientation.x,field.boxes2.pose.orientation.y,field.boxes2.pose.orientation.z,field.boxes2.pose.orientation.w,field.boxes2.scale.x,field.boxes2.scale.y,field.boxes2.scale.z,field.boxes2.id,field.boxes2.pdf,field.boxes3.header.seq,field.boxes3.header.stamp,field.boxes3.header.frame_id,field.boxes3.pose.position.x,field.boxes3.pose.position.y,field.boxes3.pose.position.z,field.boxes3.pose.orientation.x,field.boxes3.pose.orientation.y,field.boxes3.pose.orientation.z,field.boxes3.pose.orientation.w,field.boxes3.scale.x,field.boxes3.scale.y,field.boxes3.scale.z,field.boxes3.id,field.boxes3.pdf,field.boxes4.header.seq,field.boxes4.header.stamp,field.boxes4.header.frame_id,field.boxes4.pose.position.x,field.boxes4.pose.position.y,field.boxes4.pose.position.z,field.boxes4.pose.orientation.x,field.boxes4.pose.orientation.y,field.boxes4.pose.orientation.z,field.boxes4.pose.orientation.w,field.boxes4.scale.x,field.boxes4.scale.y,field.boxes4.scale.z,field.boxes4.id,field.boxes4.pdf,field.boxes5.header.seq,field.boxes5.header.stamp,field.boxes5.header.frame_id,field.boxes5.pose.position.x,field.boxes5.pose.position.y,field.boxes5.pose.position.z,field.boxes5.pose.orientation.x,field.boxes5.pose.orientation.y,field.boxes5.pose.orientation.z,field.boxes5.pose.orientation.w,field.boxes5.scale.x,field.boxes5.scale.y,field.boxes5.scale.z,field.boxes5.id,field.boxes5.pdf,field.boxes6.header.seq,field.boxes6.header.stamp,field.boxes6.header.frame_id,field.boxes6.pose.position.x,field.boxes6.pose.position.y,field.boxes6.pose.position.z,field.boxes6.pose.orientation.x,field.boxes6.pose.orientation.y,field.boxes6.pose.orientation.z,field.boxes6.pose.orientation.w,field.boxes6.scale.x,field.boxes6.scale.y,field.boxes6.scale.z,field.boxes6.id,field.boxes6.pdf,field.boxes7.header.seq,field.boxes7.header.stamp,field.boxes7.header.frame_id,field.boxes7.pose.position.x,field.boxes7.pose.position.y,field.boxes7.pose.position.z,field.boxes7.pose.orientation.x,field.boxes7.pose.orientation.y,field.boxes7.pose.orientation.z,field.boxes7.pose.orientation.w,field.boxes7.scale.x,field.boxes7.scale.y,field.boxes7.scale.z,field.boxes7.id,field.boxes7.pdf,field.boxes8.header.seq,field.boxes8.header.stamp,field.boxes8.header.frame_id,field.boxes8.pose.position.x,field.boxes8.pose.position.y,field.boxes8.pose.position.z,field.boxes8.pose.orientation.x,field.boxes8.pose.orientation.y,field.boxes8.pose.orientation.z,field.boxes8.pose.orientation.w,field.boxes8.scale.x,field.boxes8.scale.y,field.boxes8.scale.z,field.boxes8.id,field.boxes8.pdf,field.pose.pose.position.x,field.pose.pose.position.y,field.pose.pose.position.z,field.pose.pose.orientation.w,field.pose.covariance0,field.pose.covariance1,field.pose.covariance2,field.pose.covariance3,field.pose.covariance4,field.pose.covariance5,field.pose.covariance6,field.pose.covariance7,field.pose.covariance8,field.pose.covariance9,field.pose.covariance10,field.pose.covariance11,field.pose.covariance12,field.pose.covariance13,field.pose.covariance14,field.pose.covariance15,field.pose.covariance16,field.pose.covariance17,field.pose.covariance18,field.pose.covariance19,field.pose.covariance20,field.pose.covariance21,field.pose.covariance22,field.pose.covariance23,field.pose.covariance24,field.pose.covariance25,field.pose.covariance26,field.pose.covariance27,field.pose.covariance28,field.pose.covariance29,field.pose.covariance30,field.pose.covariance31,field.pose.covariance32,field.pose.covariance33,field.pose.covariance34,field.pose.covariance35,field.buttons0,field.buttons1,field.buttons2,field.buttons3,intersection_length,vacuum,desired_box
0.0,0,1735643777088230371,map,0.9854042953941966,-0.2207152024622253,0.0206295477200335,0.4790176633745112,-0.508273333903018,0.5181944371099508,-0.4936342994227972,0.0,0.0,0.0,1,0.1111111111111111,0,1735643777088253974,map,0.9874401167633042,-0.2497872114157829,0.1481599118521136,-0.5046785550313764,0.5096851147259279,-0.4934207635764885,0.4919924694442533,0.0,0.0,0.0,16,0.1111111111111111,0,1735643777088270664,map,0.9893747006894158,0.0571309410715435,0.0249990627200228,-0.4999083845271145,0.4832797235950152,-0.4878655845236149,0.5277494550246811,0.0,0.0,0.0,17,0.1111111111111111,0,1735643777088284730,map,1.003800367179485,-0.2540663609403367,0.2365321354963624,-0.4529881476420557,0.4492338914672066,-0.534589961020002,0.554260067504129,0.0,0.0,0.0,121,0.1111111111111111,0,1735643777088297367,map,1.0143516785227866,0.208880727633355,0.2419607313950791,-0.510124734097353,0.4909473607690725,-0.4889470474220118,0.5095824069110744,0.0,0.0,0.0,122,0.1111111111111111,0,1735643777088310956,map,1.0144889491612876,0.212869464784429,0.1435139549439409,-0.5020284282599142,0.4979838028956699,-0.4702710779328315,0.5280385426579572,0.0,0.0,0.0,124,0.1111111111111111,0,1735643777088322877,map,0.991457800044732,-0.0265950009347599,0.242299441348385,-0.4515403188200192,0.4806046828667592,-0.5353120626739495,0.5277987067454963,0.0,0.0,0.0,125,0.1111111111111111,0,1735643777088343858,map,1.0109337537123415,-0.0177502578177679,0.1441378347124508,0.5152991635429891,-0.5079781665928319,0.4875100288100131,-0.4886296410642124,0.0,0.0,0.0,126,0.1111111111111111,0,1735644242188269615,map,0.9857542509325448,0.3390412827972336,0.0232250040820831,-0.5023196452766442,0.4938717071870578,-0.4780985556171108,0.5245831506311649,0.0,0.0,0.0,0,0.1111111111111111,0.9332641734072415,-0.254456223945531,0.2592974796763282,1.0,0.0,0.0,0.0,0.0,0.0,0.0,0.0,0.0,0.0,0.0,0.0,0.0,0.0,0.0,0.0,0.0,0.0,0.0,0.0,0.0,0.0,0.0,0.0,0.0,0.0,0.0,0.0,0.0,0.0,0.0,0.0,0.0,0.0,0.0,0.0,0.0,0,0,0,1,1,,126
0.100728092,0,1735643777088230371,map,0.9827291256799304,-0.220369188522585,0.0219066505063685,-0.5010724383485936,0.5063211879824718,-0.4938511670725525,0.4986745340485027,0.0,0.0,0.0,1,,0,1735643777088253974,map,0.9823601232237666,-0.2487783690205579,0.1487133134613388,0.5419870169607502,-0.5260269436777656,0.4416410374828107,-0.4842508874355553,0.0,0.0,0.0,16,,0,1735643777088270664,map,0.9800389485977128,0.0544732565995026,0.0287192131794845,0.7738532452378771,-0.4490854717919708,0.2130617208060518,-0.3925278295705328,0.0,0.0,0.0,17,,0,1735643777088284730,map,1.007747167338779,-0.2545984917699475,0.2367753214093544,-0.3964154882464831,0.6220994626854184,-0.5543251211032624,0.3854486727421303,0.0,0.0,0.0,121,,0,1735643777088297367,map,1.0144660049985377,0.2086687313823403,0.2422695476676025,-0.5108400775390449,0.4935265702602637,-0.4892376698636428,0.5060834338460775,0.0,0.0,0.0,122,,0,1735643777088310956,map,1.0155078967563202,0.2127237571070508,0.1434397969918425,-0.5053456560670503,0.5048224989311731,-0.4609471773582284,0.526600144466872,0.0,0.0,0.0,124,,0,1735643777088322877,map,1.0015946407333018,-0.0255700296596517,0.2423246219924305,-0.6076945140161407,0.4148552048324389,-0.3745578029359966,0.5641887883659877,0.0,0.0,0.0,125,,0,1735643777088343858,map,1.0022819178873488,-0.0191843043807754,0.1453240363288176,0.6589376150697203,-0.4892222819562378,0.3533299526797397,-0.4490219625175296,0.0,0.0,0.0,126,,0,1735644242188269615,map,0.981987918725438,0.3355253258494896,0.024898427839918,-0.5161987832839445,0.4995974284037501,-0.4733317927862116,0.5098021573182347,0.0,0.0,0.0,0,,0.9351185535063946,-0.2265749080746625,0.2255889063612419,1.0,3.4387255521349253e-06,5.170255728913892e-05,-6.2508507526338e-05,0.0,0.0,0.0,5.170255728913892e-05,0.0007773677746911,-0.0009398393801542,0.0,0.0,0.0,-6.2508507526338e-05,-0.0009398393801542,0.0011362679149385,0.0,0.0,0.0,0.0,0.0,0.0,0.0,0.0,0.0,0.0,0.0,0.0,0.0,0.0,0.0,0.0,0.0,0.0,0.0,0.0,0.0,0,0,0,1,2,,126
0.199508808,0,1735643777088230371,map,0.9810572984783862,-0.2197280861466665,0.0237677777339632,-0.5250212338809175,0.7272279686159152,-0.3563672487924438,0.2617146721623244,0.0,0.0,0.0,1,3.846019561995706e-07,0,1735643777088253974,map,0.992782869317178,-0.2504633179917037,0.148206322034793,-0.5056685617349213,0.5082667093979409,-0.4915906705388608,0.4942700379649551,0.0,0.0,0.0,16,0.10582292547384904,0,1735643777088270664,map,0.987462245747005,0.0561185629307753,0.0270522227732116,0.7719640575327746,-0.453548655130375,0.2173152746318084,-0.3887662314536401,0.0,0.0,0.0,17,6.13796611478816e-19,0,1735643777088284730,map,1.0092288860480754,-0.255042340868273,0.2371510706434548,-0.5011964666365764,0.53312825666562,-0.4750507293073157,0.4887772175135372,0.0,0.0,0.0,121,0.8913005224400148,0,1735643777088297367,map,1.0159851911084803,0.2094065405092781,0.2429268570375778,-0.512182030491387,0.4960788771028804,-0.4904658864065342,0.5010174943108463,0.0,0.0,0.0,122,5.44181806484993e-16,0,1735643777088310956,map,1.0134036104682995,0.2113910232485032,0.144285236585216,-0.4937701457939378,0.5017253155469167,-0.4780541875237009,0.5252874876227636,0.0,0.0,0.0,124,7.9148948905938515e-22,0,1735643777088322877,map,1.0071497371381817,-0.0250264857609292,0.2427978713319733,0.5753796605039829,-0.504956146296589,0.4275891291777605,-0.4807546912975719,0.0,0.0,0.0,125,0.0028750905417150962,0,1735643777088343858,map,0.998250121208038,-0.0198437570299481,0.1462387885574007,0.496728131347836,-0.4964871419927433,0.5069825040964783,-0.4997303491920711,0.0,0.0,0.0,126,1.0769424642687147e-06,0,1735644242188269615,map,0.9775219253062754,0.3321171411115535,0.0272327401753686,-0.5041073060469293,0.4907271918013494,-0.4826355942763124,0.521656525267748,0.0,0.0,0.0,0,5.1177988778762997e-45,0.9330082754467274,-0.1921339218739848,0.249939176739549,1.0,1.119903067964943e-05,-0.000110891743539,-0.0001444440210035,0.0,0.0,0.0,-0.000110891743539,0.0028906082440779,0.0010507350653945,0.0,0.0,0.0,-0.0001444440210035,0.0010507350653945,0.0019433832782856,0.0,0.0,0.0,0.0,0.0,0.0,0.0,0.0,0.0,0.0,0.0,0.0,0.0,0.0,0.0,0.0,0.0,0.0,0.0,0.0,0.0,0,0,0,1,3,,126
0.30072908,0,1735643777088230371,map,0.9768142352810704,-0.2188062516908587,0.0243667466567569,-0.4857051524466316,0.4913951331135652,-0.5107862942365959,0.5115844892675522,0.0,0.0,0.0,1,5.534005666315356e-08,0,1735643777088253974,map,0.9968258066940636,-0.2511810005128219,0.1474777209499765,-0.5058934379352625,0.5103084172097224,-0.4910941279884728,0.4924263459992675,0.0,0.0,0.0,16,0.027434761305602892,0,1735643777088270664,map,0.9924890457604664,0.0583966224412798,0.0248203597199654,-0.5048595087979201,0.5029980324697371,-0.4903971264580112,0.5016178964805996,0.0,0.0,0.0,17,8.431787411365356e-11,0,1735643777088284730,map,1.0121142851584406,-0.2554516985212984,0.2372034058481607,-0.4858173166449806,0.487453015908895,-0.495361865730514,0.5300827427007765,0.0,0.0,0.0,121,0.6189546980609104,0,1735643777088297367,map,1.0174066497931618,0.2109659297654203,0.2424138338866238,-0.5153217172541027,0.4868611158655245,-0.492986930783303,0.5043547042125393,0.0,0.0,0.0,122,3.280821652572991e-05,0,1735643777088310956,map,1.0120493289436043,0.2119459186197206,0.144309992931637,-0.4943731024391216,0.5025862136330171,-0.4741094330924582,0.5274680833031451,0.0,0.0,0.0,124,9.395487995514356e-08,0,1735643777088322877,map,1.003838850175483,-0.0243690349903391,0.2426023837727325,-0.5084044901361799,0.4998422155288086,-0.4896872969848829,0.501885430308813,0.0,0.0,0.0,125,0.3495197932320765,0,1735643777088343858,map,0.993170046568279,-0.0197887625062495,0.1468011891887783,0.4607005696967232,-0.490174804688765,0.5485304088076987,-0.4965863837669185,0.0,0.0,0.0,126,0.0040577898056300575,0,1735644242188269615,map,0.9775219253062754,0.3321171411115535,0.0272327401753686,-0.5041073060469293,0.4907271918013494,-0.4826355942763124,0.521656525267748,0.0,0.0,0.0,0,1.8882843248276556e-18,0.9326558770769436,-0.1541553550545833,0.2471820772070462,1.0,8.77182684281599e-06,-0.0001233195627559,-0.0001054182236108,0.0,0.0,0.0,-0.0001233195627559,0.0064950707960257,0.0004739192325772,0.0,0.0,0.0,-0.0001054182236108,0.0004739192325772,0.0014803422522106,0.0,0.0,0.0,0.0,0.0,0.0,0.0,0.0,0.0,0.0,0.0,0.0,0.0,0.0,0.0,0.0,0.0,0.0,0.0,0.0,0.0,0,0,0,1,4,,126
0.399094113,0,1735643777088230371,map,0.9860225937030878,-0.2202295896733775,0.0214325389687382,-0.4905363283467046,0.5077557914857964,-0.4983626876798372,0.5031826689317662,0.0,0.0,0.0,1,5.98230110334595e-08,0,1735643777088253974,map,0.9797784437911204,-0.247827416233601,0.1503731176002772,-0.5096168595193322,0.4747735912516639,-0.4795069663536622,0.5338106057038944,0.0,0.0,0.0,16,0.018513195959509437,0,1735643777088270664,map,0.989628526976847,0.0577290525104128,0.0257991749469084,-0.4967404553738526,0.495218876348287,-0.4863747698716762,0.5210055352254821,0.0,0.0,0.0,17,7.40096079933071e-07,0,1735643777088284730,map,1.0015681826929244,-0.2531736077174638,0.2374096284546505,0.5438161999896836,-0.5317424397833427,0.4293248618437337,-0.4870257502072119,0.0,0.0,0.0,121,0.3749861934434402,0,1735643777088297367,map,1.0092434823355405,0.2068677167393346,0.2428092478008748,-0.5106414540725034,0.4931480933603363,-0.4893842153955136,0.5065109605127032,0.0,0.0,0.0,122,0.0007540007387695076,0,1735643777088310956,map,1.0146498161978668,0.2133778044368574,0.143942347035775,-0.4961719319341139,0.5032579136286482,-0.4697739245402987,0.5290154498244019,0.0,0.0,0.0,124,0.00021715152086427373,0,1735643777088322877,map,1.0087407452137689,-0.0234460912598211,0.2426495172570957,0.5086980193093162,-0.5030197989592496,0.4901894207542202,-0.4979073596427517,0.0,0.0,0.0,125,0.5443807795945567,0,1735643777088343858,map,0.9947412860787808,-0.0198259631809642,0.1467466215214858,-0.4618258308045536,0.4508467280627246,-0.5300899051637212,0.5499625643990106,0.0,0.0,0.0,126,0.06114787850596168,0,1735644242188269615,map,0.9775219253062754,0.3321171411115535,0.0272327401753686,-0.5041073060469293,0.4907271918013494,-0.4826355942763124,0.521656525267748,0.0,0.0,0.0,0,3.1780728921961143e-10,0.933007135028312,-0.1276088168055633,0.2362945411804317,1.0,7.510990067851316e-06,-6.135691963966687e-05,-9.963191328933788e-05,0.0,0.0,0.0,-6.135691963966687e-05,0.0080149314088472,-0.0007769701802106,0.0,0.0,0.0,-9.963191328933788e-05,-0.0007769701802106,0.0016584275646918,0.0,0.0,0.0,0.0,0.0,0.0,0.0,0.0,0.0,0.0,0.0,0.0,0.0,0.0,0.0,0.0,0.0,0.0,0.0,0.0,0.0,0,0,0,1,5,,126
0.498557217,0,1735643777088230371,map,0.9756520661472352,-0.2182920152029037,0.0238954281154906,-0.4936637170610395,0.48923764859049,-0.4949221259041497,0.521531156259761,0.0,0.0,0.0,1,4.237939156523036e-06,0,1735643777088253974,map,0.9689924098475442,-0.2453883159014815,0.1505745725675633,-0.5096667317453122,0.4615555500983467,-0.470454862295671,0.5530628529089854,0.0,0.0,0.0,16,0.024362818496557984,0,1735643777088270664,map,0.9859833657426568,0.0571268452676127,0.0260815008785918,-0.487925386092366,0.4983067998784138,-0.4984807139004861,0.5149137099270245,0.0,0.0,0.0,17,0.0008766161533653158,0,1735643777088284730,map,1.007287970316314,-0.2544886407734137,0.2361603072648845,-0.5291795807804743,0.513284693228213,-0.4503684628925903,0.5036626277721887,0.0,0.0,0.0,121,0.23289553020266793,0,1735643777088297367,map,1.0162227896302802,0.2104631309886658,0.241699991782601,-0.5114264849399739,0.4938345016627881,-0.4890112595881888,0.5054091644058125,0.0,0.0,0.0,122,0.0002457086556568057,0,1735643777088310956,map,1.006282595590945,0.2092752251978806,0.1438783716887363,-0.4831093557982727,0.4956097869051483,-0.4807321525499781,0.5383984462911057,0.0,0.0,0.0,124,0.0023261369392958203,0,1735643777088322877,map,1.0065978324940004,-0.0239578509401528,0.2416814366464197,0.5624841413005601,-0.5256777146957154,0.436981000730106,-0.4651044356470669,0.0,0.0,0.0,125,0.454234308551416,0,1735643777088343858,map,1.005935910454984,-0.0178460234845258,0.1437484886676315,-0.4864178653440331,0.4884633161298714,-0.5194477990950541,0.5049507234224621,0.0,0.0,0.0,126,0.2850527126482568,0,1735644242188269615,map,0.9775219253062754,0.3321171411115535,0.0272327401753686,-0.5041073060469293,0.4907271918013494,-0.4826355942763124,0.521656525267748,0.0,0.0,0.0,0,1.9304136267480333e-06,0.9338533223765956,-0.1093410705595013,0.2197386788143281,1.0,9.839323531851278e-06,2.6158912408964848e-05,-0.0001530734007783,0.0,0.0,0.0,2.6158912408964848e-05,0.0083476622719253,-0.002159666613119,0.0,0.0,0.0,-0.0001530734007783,-0.002159666613119,0.0027525058640033,0.0,0.0,0.0,0.0,0.0,0.0,0.0,0.0,0.0,0.0,0.0,0.0,0.0,0.0,0.0,0.0,0.0,0.0,0.0,0.0,0.0,0,0,0,1,6,,126
0.59762205,0,1735643777088230371,map,0.9858499457504748,-0.2198775283318531,0.0203544192466459,0.4850191816387758,-0.5037785787796614,0.5154869073452171,-0.4952138784008993,0.0,0.0,0.0,1,0.0001746289922294209,0,1735643777088253974,map,0.984841029682247,-0.2485796785210403,0.1482357604440808,-0.5070085770472795,0.4867230498183321,-0.4817462199462702,0.5234152798147131,0.0,0.0,0.0,16,0.03181801136537034,0,1735643777088270664,map,0.9899511353668554,0.057450663260962,0.0244748240931645,-0.4909789987569786,0.500411131585824,-0.5029661201292571,0.5055229017232671,0.0,0.0,0.0,17,0.021594770950068322,0,1735643777088284730,map,1.007158005852907,-0.25426502420672,0.23596305406239,-0.386505093452599,0.6548304325695036,-0.5492329870290659,0.3466324325206236,0.0,0.0,0.0,121,0.15318670845975188,0,1735643777088297367,map,1.0124403182200568,0.2080971173306463,0.2410345860121528,-0.5191913634943721,0.4917545637732437,-0.4833968806885181,0.5049210164190557,0.0,0.0,0.0,122,6.402343924179277e-05,0,1735643777088310956,map,1.0053657380693222,0.2085458213086606,0.1437294864348897,-0.4798846566952345,0.4982296726161072,-0.489292741856179,0.5311031183868218,0.0,0.0,0.0,124,0.00111296898024191,0,1735643777088322877,map,0.9924525677466876,-0.026529871283213,0.2413227090660986,-0.4721740780960623,0.5309186031141426,-0.5248563083468856,0.4687247939142328,0.0,0.0,0.0,125,0.3225008756887779,0,1735643777088343858,map,1.007972972345311,-0.0180187079597467,0.1430379273696322,-0.507860125576343,0.4992423878566971,-0.4925724628833898,0.5002074567873976,0.0,0.0,0.0,126,0.46954363813537847,0,1735644242188269615,map,0.9775219253062754,0.3321171411115535,0.0272327401753686,-0.5041073060469293,0.4907271918013494,-0.4826355942763124,0.521656525267748,0.0,0.0,0.0,0,4.373988939883703e-06,0.9350074992176968,-0.1000193794828378,0.200458821409733,1.0,1.6426450967649595e-05,8.697520468547667e-05,-0.0002647199615924,0.0,0.0,0.0,8.697520468547667e-05,0.0076765026373941,-0.0029294680596114,0.0,0.0,0.0,-0.0002647199615924,-0.0029294680596114,0.0045895681498234,0.0,0.0,0.0,0.0,0.0,0.0,0.0,0.0,0.0,0.0,0.0,0.0,0.0,0.0,0.0,0.0,0.0,0.0,0.0,0.0,0.0,0,0,0,1,7,,126
0.699383062,0,1735643777088230371,map,0.9804915144191017,-0.2203459832929236,0.0216639657222488,-0.5115801909050671,0.7553204896575316,-0.3368931953817424,0.2329799156204692,0.0,0.0,0.0,1,0.0023260906795415557,0,1735643777088253974,map,0.9927602888584556,-0.2519209796608659,0.1459846987514376,-0.5055611692153327,0.5075050002077091,-0.4884003281055998,0.4983088384246675,0.0,0.0,0.0,16,0.03925187161455956,0,1735643777088270664,map,0.9898030083127656,0.0575720653635926,0.0233252105848973,-0.5057488701884043,0.5037006618694904,-0.4900106708853611,0.5003931114172819,0.0,0.0,0.0,17,0.06257128624629671,0,1735643777088284730,map,1.0083048392041891,-0.2563173623787112,0.2354841554203343,-0.3690768527824972,0.6429977263073581,-0.5694519466584417,0.3550502515851043,0.0,0.0,0.0,121,0.10898863838072316,0,1735643777088297367,map,1.0141980626615503,0.2103594156657348,0.2407422071283584,0.5134896678282636,-0.4979604798503429,0.4901098293055677,-0.498152664109009,0.0,0.0,0.0,122,2.316303232363423e-05,0,1735643777088310956,map,1.0078567437474264,0.2105177812074528,0.1426226595936054,-0.4970428756328959,0.5039396209395078,-0.4738294186834021,0.5239073584328398,0.0,0.0,0.0,124,0.00034994755475974273,0,1735643777088322877,map,0.9985017610216907,-0.0263754312790609,0.241069746011997,0.5296761167827209,-0.51725085030653,0.4691235704190079,-0.4814746564923969,0.0,0.0,0.0,125,0.26643470787607204,0,1735643777088343858,map,0.9907040236115114,-0.0211886469642835,0.1450847161575215,0.4760844683899664,-0.4926550257629097,0.5308939879500466,-0.4987847011556043,0.0,0.0,0.0,126,0.5200532277182058,0,1735644242188269615,map,0.9775219253062754,0.3321171411115535,0.0272327401753686,-0.5041073060469293,0.4907271918013494,-0.4826355942763124,0.521656525267748,0.0,0.0,0.0,0,1.0668975177160364e-06,0.9362179662365836,-0.0958362859830234,0.1814229081795171,1.0,2.462975742338502e-05,0.0001115477811289,-0.0003929263823703,0.0,0.0,0.0,0.0001115477811289,0.0068394277063172,-0.0031206875864344,0.0,0.0,0.0,-0.0003929263823703,-0.0031206875864344,0.0065524340786536,0.0,0.0,0.0,0.0,0.0,0.0,0.0,0.0,0.0,0.0,0.0,0.0,0.0,0.0,0.0,0.0,0.0,0.0,0.0,0.0,0.0,0,0,0,1,8,,126
0.798152597,0,1735643777088230371,map,0.985010846229516,-0.2219564711203888,0.0195588200027629,-0.4911735314784438,0.5072512577511147,-0.500533819819626,0.50090979098205,0.0,0.0,0.0,1,0.001559099408150641,0,1735643777088253974,map,0.9789213431025768,-0.2495071715805036,0.1483636122236987,-0.5285782489977151,0.4990786623067394,-0.4633297877513475,0.5068047269895143,0.0,0.0,0.0,16,0.039081230268070914,0,1735643777088270664,map,0.9834665987575256,0.055059382277976,0.0258238689740419,-0.4918993767005347,0.502788119042353,-0.4996894080191554,0.5055191451022842,0.0,0.0,0.0,17,0.0701736807748176,0,1735643777088284730,map,1.0047080124792584,-0.2566485454334329,0.2358696939655385,-0.4858455214083625,0.4792572118279979,-0.4951321609633594,0.5376902430005996,0.0,0.0,0.0,121,0.09160221515098611,0,1735643777088297367,map,1.0105859332732534,0.2083115994880691,0.241661448005867,-0.5073895859965898,0.4922129324216705,-0.4923793697201254,0.5077841996882942,0.0,0.0,0.0,122,7.142993602177817e-06,0,1735643777088310956,map,1.0009671646206686,0.2071697432419856,0.1439059429763386,-0.4792576684226067,0.5008718617884668,-0.4919344269261402,0.5267257207803049,0.0,0.0,0.0,124,0.00016850228071387248,0,1735643777088322877,map,0.996702121106281,-0.0268193424855874,0.2418324982890791,-0.5034272325517155,0.4974243792954561,-0.4944003317321522,0.5046764511952079,0.0,0.0,0.0,125,0.241004645724434,0,1735643777088343858,map,1.0000258861093267,-0.0202848932759726,0.1438694537380476,-0.5081372341302143,0.4678391780783744,-0.4864612059021436,0.5350500442927553,0.0,0.0,0.0,126,0.556403241300787,0,1735644242188269615,map,0.9775219253062754,0.3321171411115535,0.0272327401753686,-0.5041073060469293,0.4907271918013494,-0.4826355942763124,0.521656525267748,0.0,0.0,0.0,0,2.4209843762779363e-07,0.9366183716712128,-0.093948031316116,0.1750192700023224,1.0,2.317571380631981e-05,0.0001052021226704,-0.0003697803076607,0.0,0.0,0.0,0.0001052021226704,0.0061080153400009,-0.0028706781186612,0.0,0.0,0.0,-0.0003697803076607,-0.0028706781186612,0.0061524385029275,0.0,0.0,0.0,0.0,0.0,0.0,0.0,0.0,0.0,0.0,0.0,0.0,0.0,0.0,0.0,0.0,0.0,0.0,0.0,0.0,0.0,0,0,0,1,9,,126
0.901148601,0,1735643777088230371,map,0.9780512074345836,-0.2210723335926606,0.0233156480945042,-0.4921394507332163,0.5008916605031253,-0.4991291033305225,0.5077168932376575,0.0,0.0,0.0,1,0.0010582000866724622,0,1735643777088253974,map,0.976582387271967,-0.249613044930689,0.150023724497621,-0.5210152405559503,0.4876865981112305,-0.4758227632952468,0.514098822271746,0.0,0.0,0.0,16,0.029121375673677327,0,1735643777088270664,map,0.9890560492375664,0.0563855481146874,0.0248142191316212,-0.501286031065711,0.4878852515479921,-0.4882262701468332,0.5218384860460669,0.0,0.0,0.0,17,0.06996043783748165,0,1735643777088284730,map,1.0043423581154345,-0.2574687350884872,0.2373339344658891,-0.490127088373367,0.4938051836603622,-0.4881761047260221,0.5268927486759803,0.0,0.0,0.0,121,0.07044626378458338,0,1735643777088297367,map,1.0070674983058507,0.2065190362295033,0.2428826721416734,-0.5046049257222879,0.4896627441218739,-0.4947164548329206,0.5107444520240899,0.0,0.0,0.0,122,2.7648426104671628e-06,0,1735643777088310956,map,0.9981579223881384,0.2056056083766879,0.1456362991351391,-0.4725936066450879,0.5007369085353859,-0.4976491002933325,0.5275065917747848,0.0,0.0,0.0,124,0.00010227552457154892,0,1735643777088322877,map,0.9934429611119348,-0.0278182630550512,0.2430749523753094,-0.5016728290197818,0.5012391106243053,-0.4965638667025956,0.5005077950334152,0.0,0.0,0.0,125,0.22099299652287624,0,1735643777088343858,map,0.9962441535614242,-0.0210559279412446,0.1459119152871302,0.5020974913289884,-0.5061218271367467,0.5120123147481767,-0.4791473623459822,0.0,0.0,0.0,126,0.6083155842745922,0,1735644242188269615,map,0.9775219253062754,0.3321171411115535,0.0272327401753686,-0.5041073060469293,0.4907271918013494,-0.4826355942763124,0.521656525267748,0.0,0.0,0.0,0,1.0145293469211746e-07,0.93683389772335,-0.0895106017222441,0.1708480586116725,1.0,2.127620573803689e-05,0.0001032893455414,-0.0003408933194075,0.0,0.0,0.0,0.0001032893455414,0.005674430838606,-0.0027501954185996,0.0,0.0,0.0,-0.0003408933194075,-0.0027501954185996,0.0056937856928241,0.0,0.0,0.0,0.0,0.0,0.0,0.0,0.0,0.0,0.0,0.0,0.0,0.0,0.0,0.0,0.0,0.0,0.0,0.0,0.0,0.0,0,0,0,1,10,,126
0.997956053,0,1735643777088230371,map,0.9776586998464852,-0.2217627075625756,0.0215483301866048,-0.5007842033076383,0.5086365191960124,-0.4929768194167663,0.4974715354424089,0.0,0.0,0.0,1,0.0004483177740003482,0,1735643777088253974,map,0.9762107560448428,-0.2501066939887818,0.1491853992116709,-0.5296908363154303,0.5114091035713483,-0.4536207338803931,0.5021121154698654,0.0,0.0,0.0,16,0.019647181759139314,0,1735643777088270664,map,0.982492295202728,0.0564055981341505,0.0253011549860507,-0.5016178668526521,0.4895725190251744,-0.4881748307336276,0.5199842294798315,0.0,0.0,0.0,17,0.08071599721208905,0,1735643777088284730,map,0.9995868208989666,-0.2574042696523518,0.2370718416826489,-0.4971555344367382,0.4819353245261898,-0.4897997158388938,0.5297838766109216,0.0,0.0,0.0,121,0.05571483639586837,0,1735643777088297367,map,1.0000503721481055,0.2058820236996585,0.242768560261876,-0.5063628890883548,0.4911728560343608,-0.4930198226143258,0.5091927970410445,0.0,0.0,0.0,122,2.349696523407078e-06,0,1735643777088310956,map,0.9909708380071736,0.2047569509002008,0.1457218141473751,-0.4766807615709684,0.5001895146352934,-0.4944626105643847,0.5273448850144323,0.0,0.0,0.0,124,0.00013116351242362445,0,1735643777088322877,map,0.9873824729775372,-0.0275408613560519,0.2429218967446893,-0.5002518660673282,0.5023564707165866,-0.4977424144810694,0.4996384049008711,0.0,0.0,0.0,125,0.20225461634940475,0,1735643777088343858,map,0.9931716949809166,-0.0205017065213548,0.1461834525140042,0.6799255879283043,-0.4842209301704374,0.3246320479629436,-0.4447980655315526,0.0,0.0,0.0,126,0.6410853569553332,0,1735644242188269615,map,0.9775219253062754,0.3321171411115535,0.0272327401753686,-0.5041073060469293,0.4907271918013494,-0.4826355942763124,0.521656525267748,0.0,0.0,0.0,0,1.8034521794232607e-07,0.9369976725954234,-0.0820004239380802,0.1668022404651865,1.0,1.96102273036234e-05,0.0001061991890961,-0.0003165290511369,0.0,0.0,0.0,0.0001061991890961,0.0057226011931393,-0.0028040257888974,0.0,0.0,0.0,-0.0003165290511369,-0.0028040257888974,0.0053398552564027,0.0,0.0,0.0,0.0,0.0,0.0,0.0,0.0,0.0,0.0,0.0,0.0,0.0,0.0,0.0,0.0,0.0,0.0,0.0,0.0,0.0,0,0,0,1,11,,126
1.099623239,0,1735643777088230371,map,0.9762505968089804,-0.2217973104835967,0.0220655486519864,-0.4952214492498806,0.5033329014886021,-0.4867475497935397,0.5142844828029508,0.0,0.0,0.0,1,0.0003115673056999962,0,1735643777088253974,map,0.9779652600846348,-0.2510460898004996,0.1492018287293336,-0.5181989889427495,0.4993528425742082,-0.4686651819973998,0.5123177662887697,0.0,0.0,0.0,16,0.015450348596778045,0,1735643777088270664,map,0.9798874873065424,0.0559744660563966,0.0263982194969812,-0.500747524567269,0.4897606313450628,-0.4889722163516387,0.5198967323040258,0.0,0.0,0.0,17,0.07558475540807492,0,1735643777088284730,map,0.9978349321613168,-0.2572983546164567,0.2377486564332788,-0.3385783151656555,0.6423277604671375,-0.6024619259415414,0.3313901030864777,0.0,0.0,0.0,121,0.04512324862101932,0,1735643777088297367,map,0.9954936458450576,0.2043491133006668,0.2434124008097977,-0.4884661398565496,0.4797172036919377,-0.5105159655223316,0.52023618063571,0.0,0.0,0.0,122,6.1150572519863726e-06,0,1735643777088310956,map,0.9954194069882886,0.2081523146310131,0.1454680720436506,-0.4988671755377639,0.50125471160077,-0.4716646732190481,0.5266950648204057,0.0,0.0,0.0,124,0.00023276260167046542,0,1735643777088322877,map,0.9860489801805508,-0.0277116557438358,0.2435283288573415,-0.5021057093571143,0.4974863474815897,-0.4950881158051007,0.5052573089911429,0.0,0.0,0.0,125,0.21084654497794414,0,1735643777088343858,map,0.9912821038067576,-0.0206675554177035,0.1461538500859334,0.4981099765438988,-0.4977341605024933,0.5056637262870494,-0.498448946888055,0.0,0.0,0.0,126,0.6524441713833783,0,1735644242188269615,map,0.9775219253062754,0.3321171411115535,0.0272327401753686,-0.5041073060469293,0.4907271918013494,-0.4826355942763124,0.521656525267748,0.0,0.0,0.0,0,4.860481828224156e-07,0.9369267778236926,-0.0746663715654032,0.1663124455168909,1.0,1.803132845023448e-05,9.162985101443875e-05,-0.0002897696672972,0.0,0.0,0.0,9.162985101443875e-05,0.0058373893266345,-0.0026098709729854,0.0,0.0,0.0,-0.0002897696672972,-0.0026098709729854,0.0048975062083742,0.0,0.0,0.0,0.0,0.0,0.0,0.0,0.0,0.0,0.0,0.0,0.0,0.0,0.0,0.0,0.0,0.0,0.0,0.0,0.0,0.0,0,0,0,1,12,,126
1.199145837,0,1735643777088230371,map,0.9784966750905412,-0.2228627106282467,0.0204590006193519,-0.4907364602581309,0.5101276116545842,-0.507403419021522,0.4914156252767909,0.0,0.0,0.0,1,0.00014746368375249166,0,1735643777088253974,map,0.9777367995775402,-0.2515385243889017,0.1488776052406503,-0.5153690107159342,0.4937674882850079,-0.4765095437292577,0.5133489116004127,0.0,0.0,0.0,16,0.010578973146272702,0,1735643777088270664,map,0.982299319456743,0.0562617068755843,0.0248713295231359,-0.4958167991635278,0.5029182660392663,-0.4946240905457987,0.5065431160355783,0.0,0.0,0.0,17,0.08003147727283116,0,1735643777088284730,map,0.9954696827948748,-0.257987206048779,0.2374032990923892,-0.5095381674165088,0.4962058750271785,-0.4745031156976012,0.5186495721849258,0.0,0.0,0.0,121,0.034122929685346144,0,1735643777088297367,map,0.9966563969786107,0.2047838994050408,0.243032393755993,-0.5059925392022938,0.4879702069204927,-0.4982960887939948,0.5075013648476167,0.0,0.0,0.0,122,2.4898046510582855e-06,0,1735643777088310956,map,0.994103510841058,0.2073683931021082,0.1449853151378319,-0.4868575746097087,0.5036835283522004,-0.4779496173989115,0.5299403443219475,0.0,0.0,0.0,124,0.0001583593734190368,0,1735643777088322877,map,0.9858639402201504,-0.0281990417228263,0.2430761900447627,-0.590352235211367,0.4597220707533475,-0.4036575682917506,0.5264982655279952,0.0,0.0,0.0,125,0.19101210979541408,0,1735643777088343858,map,0.9923776566013404,-0.0209308577771756,0.1448474820004985,0.503464437628653,-0.5005783965935967,0.4976419444537919,-0.4982944150071288,0.0,0.0,0.0,126,0.6839459145358929,0,1735644242188269615,map,0.9775219253062754,0.3321171411115535,0.0272327401753686,-0.5041073060469293,0.4907271918013494,-0.4826355942763124,0.521656525267748,0.0,0.0,0.0,0,2.827024204448044e-07,0.937151874592337,-0.0708257060033455,0.1621240782107681,1.0,1.7252325847881738e-05,9.495565782596216e-05,-0.0002787931482478,0.0,0.0,0.0,9.495565782596216e-05,0.0055653679219468,-0.0026021450842576,0.0,0.0,0.0,-0.0002787931482478,-0.0026021450842576,0.0047312840098682,0.0,0.0,0.0,0.0,0.0,0.0,0.0,0.0,0.0,0.0,0.0,0.0,0.0,0.0,0.0,0.0,0.0,0.0,0.0,0.0,0.0,0,0,0,1,13,,126
1.299746058,0,1735643777088230371,map,0.973409930868671,-0.2223253851213947,0.0217181375398577,-0.4930433065321273,0.4910916131259757,-0.495309091267906,0.5200059898775736,0.0,0.0,0.0,1,0.00025950406018731973,0,1735643777088253974,map,0.9760213333315484,-0.2517230968933843,0.148175998887917,-0.5051342000610322,0.4910920674163406,-0.4881557042918073,0.5151427274230078,0.0,0.0,0.0,16,0.009263678204235291,0,1735643777088270664,map,0.9759382343033518,0.0536088274929081,0.0262054283559477,-0.4867142006087667,0.4886325622649292,-0.4975913470681703,0.5260706771366972,0.0,0.0,0.0,17,0.10332252880702508,0,1735643777088284730,map,0.9963239394014858,-0.2592244669958524,0.236226266090168,-0.4988275931888846,0.4885043579404564,-0.4840712080324779,0.5274557707529087,0.0,0.0,0.0,121,0.024533853090258993,0,1735643777088297367,map,0.9936805848856216,0.2030719951023328,0.2417870515135509,-0.49805858252144,0.491412739596416,-0.5013299212849007,0.5090377960068924,0.0,0.0,0.0,122,1.5171124471088302e-06,0,1735643777088310956,map,0.991059491104866,0.2054083912250383,0.144266337973146,-0.4844069915219409,0.5043046546595145,-0.4867330731126457,0.5235624102165187,0.0,0.0,0.0,124,9.214260811424623e-05,0,1735643777088322877,map,0.983351822774534,-0.0294184107583229,0.2419440496441733,-0.5087525878795883,0.5110476724068095,-0.4893335227979662,0.4904628266439123,0.0,0.0,0.0,125,0.18128664160935182,0,1735643777088343858,map,0.9850293609442552,-0.0229279111819352,0.1454889665125327,0.6776403748935714,-0.4979407189964187,0.3251748516340015,-0.4325735527563316,0.0,0.0,0.0,126,0.6812400444521457,0,1735644242188269615,map,0.9775219253062754,0.3321171411115535,0.0272327401753686,-0.5041073060469293,0.4907271918013494,-0.4826355942763124,0.521656525267748,0.0,0.0,0.0,0,9.005623437072767e-08,0.9376065184380146,-0.0693161870054066,0.1549873558501708,1.0,1.8707130202109615e-05,9.70949266288952e-05,-0.0003010600216386,0.0,0.0,0.0,9.70949266288952e-05,0.0051974640606745,-0.0025563268120616,0.0,0.0,0.0,-0.0003010600216386,-0.0025563268120616,0.0050554616306997,0.0,0.0,0.0,0.0,0.0,0.0,0.0,0.0,0.0,0.0,0.0,0.0,0.0,0.0,0.0,0.0,0.0,0.0,0.0,0.0,0.0,0,0,0,1,14,,126
1.402159393,0,1735643777088230371,map,0.9716063963971676,-0.2240321714701495,0.0200940136767422,0.489510632000257,-0.5035924627572341,0.5068178867313325,-0.4999095941287774,0.0,0.0,0.0,1,0.00015853044022447082,0,1735643777088253974,map,0.9646185109060414,-0.2504597350479631,0.1489305477662776,-0.5157429892148044,0.479673423175138,-0.4769852231921357,0.525744874470091,0.0,0.0,0.0,16,0.007684654986374328,0,1735643777088270664,map,0.9732398677654202,0.0534678911805483,0.0251134498712296,-0.4976334226504046,0.4930131143055761,-0.4897558765159825,0.5190743946699956,0.0,0.0,0.0,17,0.11468120376274409,0,1735643777088284730,map,0.9903271159407276,-0.2600125503314145,0.2360516546293597,-0.5015219929613646,0.5045666315173701,-0.477453883364791,0.5156801277877171,0.0,0.0,0.0,121,0.01820238981686389,0,1735643777088297367,map,0.989696471790244,0.2026783121424584,0.2418626532472564,-0.4935120786686125,0.4895820993606019,-0.5058063330293001,0.5107985411699058,0.0,0.0,0.0,122,5.843965068062631e-07,0,1735643777088310956,map,0.9847878190522984,0.2036369940387896,0.1442710797476157,-0.4856612514057752,0.5068273489787045,-0.4823811281742873,0.5239920174883361,0.0,0.0,0.0,124,5.533043030454127e-05,0,1735643777088322877,map,0.9782357372097396,-0.0300485065935355,0.2419611492338219,-0.5048085671428623,0.5457568851228035,-0.4882648823177115,0.4570723548580648,0.0,0.0,0.0,125,0.16006861865323954,0,1735643777088343858,map,0.9754387107643891,-0.0245515652815504,0.1457368044694532,-0.475566611090178,0.4832497782765765,-0.5329623156227001,0.5062185499741512,0.0,0.0,0.0,126,0.6991486498817584,0,1735644242188269615,map,0.9775219253062754,0.3321171411115535,0.0272327401753686,-0.5041073060469293,0.4907271918013494,-0.4826355942763124,0.521656525267748,0.0,0.0,0.0,0,3.7631983884276516e-08,0.937901577111674,-0.0667702595818791,0.1500240827214618,1.0,1.8678822881258823e-05,0.0001011387030837,-0.0003014917485385,0.0,0.0,0.0,0.0001011387030837,0.0049417109068717,-0.0025628108889545,0.0,0.0,0.0,-0.0003014917485385,-0.0025628108889545,0.005063307977422,0.0,0.0,0.0,0.0,0.0,0.0,0.0,0.0,0.0,0.0,0.0,0.0,0.0,0.0,0.0,0.0,0.0,0.0,0.0,0.0,0.0,0,0,0,1,15,,126
1.499219874,0,1735643777088230371,map,0.9681643679010962,-0.2230834507080835,0.0214317381344037,-0.4891911272932784,0.5030401353176944,-0.5002209748213782,0.5073673615693444,0.0,0.0,0.0,1,0.00010658982305561022,0,1735643777088253974,map,0.9668307253791965,-0.2511572012695358,0.1486413327732069,-0.5202366455278258,0.4982921557915909,-0.4714854100138384,0.5086848417936267,0.0,0.0,0.0,16,0.005528763615287622,0,1735643777088270664,map,0.9676733009171768,0.0523162117683184,0.0273211022752065,-0.4854952436031751,0.5000615900398376,-0.5039654710010826,0.5101485848693302,0.0,0.0,0.0,17,0.12456003574535505,0,1735643777088284730,map,0.9891433778539402,-0.2599683890568073,0.2365165744902191,-0.4936948635281756,0.4875383666705367,-0.4908475648290145,0.5269159238925584,0.0,0.0,0.0,121,0.014700743701669601,0,1735643777088297367,map,0.9880931933870636,0.2030559688693783,0.2424736834720087,-0.5126266484789291,0.4861982938062212,-0.4929496236313817,0.5077655038803434,0.0,0.0,0.0,122,4.259323501333801e-07,0,1735643777088310956,map,0.9815997894674616,0.2032751084818594,0.1449929546192479,-0.4871004175781054,0.5004165312691667,-0.4835739858682529,0.5277051057354494,0.0,0.0,0.0,124,5.645980874579348e-05,0,1735643777088322877,map,0.9754505363962368,-0.0301774117343464,0.2425780374713163,0.5416247283249961,-0.5259504357770608,0.4566860696949779,-0.4705917833104909,0.0,0.0,0.0,125,0.14574048789015287,0,1735643777088343858,map,0.9729263895253956,-0.0241451678903391,0.146186751300515,0.4776314222760639,-0.4992661084094914,0.5311604498326847,-0.4903775626817835,0.0,0.0,0.0,126,0.7093064508793969,0,1735644242188269615,map,0.9775219253062754,0.3321171411115535,0.0272327401753686,-0.5041073060469293,0.4907271918013494,-0.4826355942763124,0.521656525267748,0.0,0.0,0.0,0,4.260398644110467e-08,0.937963678759302,-0.0626670583975328,0.1482241449264176,1.0,1.756924567075178e-05,9.863976745248904e-05,-0.0002843252007953,0.0,0.0,0.0,9.863976745248904e-05,0.0048853978745806,-0.0025134178117805,0.0,0.0,0.0,-0.0002843252007953,-0.0025134178117805,0.0047954478698236,0.0,0.0,0.0,0.0,0.0,0.0,0.0,0.0,0.0,0.0,0.0,0.0,0.0,0.0,0.0,0.0,0.0,0.0,0.0,0.0,0.0,0,0,0,1,16,,126
1.600623943,0,1735643777088230371,map,0.9623247882987144,-0.2217073414307297,0.0245975336989279,-0.4968534044703901,0.4964823193347599,-0.4926603917096784,0.5137389799252403,0.0,0.0,0.0,1,0.00019134624821744444,0,1735643777088253974,map,0.9667630486846404,-0.251592806688004,0.1495351696797172,-0.5143073571231493,0.4997879276079283,-0.4791826822470428,0.5060473563421739,0.0,0.0,0.0,16,0.006214588993191418,0,1735643777088270664,map,0.9674099011706444,0.052913619043696,0.0277904914458973,-0.493758874627865,0.5012774785379203,-0.499271511230124,0.5056194431693435,0.0,0.0,0.0,17,0.11191020171855717,0,1735643777088284730,map,0.9859112864603944,-0.259760881711761,0.2376368334039924,-0.4990118771594052,0.4949762903806162,-0.4848404402386004,0.5204953082633218,0.0,0.0,0.0,121,0.013585191230521022,0,1735643777088297367,map,0.988296276563541,0.2045689032625939,0.2432652851607813,-0.5099250550108774,0.4836836225805091,-0.4889000030818794,0.5167236964820633,0.0,0.0,0.0,122,2.225476589104301e-06,0,1735643777088310956,map,0.9807189654009908,0.204048033684232,0.1459238981799787,-0.494218109927039,0.5042016477490353,-0.4762540940601732,0.5241289880537296,0.0,0.0,0.0,124,0.0001780809610270175,0,1735643777088322877,map,0.974670070589882,-0.0301893340095975,0.2433406210586896,-0.5748854468101713,0.415712599014826,-0.4081422109022616,0.5745517328718291,0.0,0.0,0.0,125,0.1631624826168872,0,1735643777088343858,map,0.9709720761217168,-0.024296863321818,0.1474511767830468,-0.4818969931155002,0.48647110408638,-0.5209882914499666,0.5096001894497907,0.0,0.0,0.0,126,0.7047556829464094,0,1735644242188269615,map,0.9775219253062754,0.3321171411115535,0.0272327401753686,-0.5041073060469293,0.4907271918013494,-0.4826355942763124,0.521656525267748,0.0,0.0,0.0,0,1.9980860030357652e-07,0.9378206953013396,-0.057121953457657,0.1491940464869175,1.0,1.6862868939310536e-05,8.015169572548152e-05,-0.0002698190670479,0.0,0.0,0.0,8.015169572548152e-05,0.0050899925497248,-0.002279518410256,0.0,0.0,0.0,-0.0002698190670479,-0.002279518410256,0.0045284140456034,0.0,0.0,0.0,0.0,0.0,0.0,0.0,0.0,0.0,0.0,0.0,0.0,0.0,0.0,0.0,0.0,0.0,0.0,0.0,0.0,0.0,0,0,0,1,17,,126
1.700447539,0,1735643777088230371,map,0.9651760649721924,-0.2231201516550268,0.0227552575507721,-0.4887243530321914,0.5056421505010199,-0.5019328209855594,0.5035255362019377,0.0,0.0,0.0,1,0.0005574498771397029,0,1735643777088253974,map,0.9620801088196592,-0.2505744474682524,0.1503841234254384,-0.5058294209270604,0.4871006531932759,-0.4841662197305077,0.521969943823539,0.0,0.0,0.0,16,0.00985236585862383,0,1735643777088270664,map,0.9659962303356344,0.0530197060168455,0.0280962213346087,-0.4911332355629655,0.5018431354533783,-0.5011599917302335,0.5057472441968687,0.0,0.0,0.0,17,0.08883523267628189,0,1735643777088284730,map,0.98243602396102,-0.259522571209657,0.2380507899887049,-0.5046898810365811,0.4933508488576643,-0.4766500724484359,0.5241161821062243,0.0,0.0,0.0,121,0.012280684467319067,0,1735643777088297367,map,0.9852726581794984,0.2039217319519925,0.2438675951991738,-0.508341471909468,0.4855803384812988,-0.4927042069944459,0.5128774192994632,0.0,0.0,0.0,122,4.9402930338922036e-05,0,1735643777088310956,map,0.978511021166358,0.2038263670779087,0.1462967852210959,-0.4928854574275291,0.5012659488106491,-0.477055625290006,0.5274602400167965,0.0,0.0,0.0,124,0.0009341542425546535,0,1735643777088322877,map,0.9742858243207656,-0.0300837971949306,0.2438646295776984,-0.5508110942754589,0.4928239322687028,-0.4492363278745522,0.5019147655967819,0.0,0.0,0.0,125,0.22239231671541723,0,1735643777088343858,map,0.976117264994144,-0.0235193967872911,0.1465128723300215,0.503068613439713,-0.5016417546365616,0.4982802528877202,-0.4969852208659189,0.0,0.0,0.0,126,0.6650974421248187,0,1735644242188269615,map,0.9775219253062754,0.3321171411115535,0.0272327401753686,-0.5041073060469293,0.4907271918013494,-0.4826355942763124,0.521656525267748,0.0,0.0,0.0,0,9.51107506063987e-07,0.9374745336481728,-0.0511371701400142,0.1531173930245584,1.0,1.7963117019218748e-05,4.047988146038267e-05,-0.0002779170249766,0.0,0.0,0.0,4.047988146038267e-05,0.0054161149189565,-0.0017537120571424,0.0,0.0,0.0,-0.0002779170249766,-0.0017537120571424,0.0045385105044394,0.0,0.0,0.0,0.0,0.0,0.0,0.0,0.0,0.0,0.0,0.0,0.0,0.0,0.0,0.0,0.0,0.0,0.0,0.0,0.0,0.0,0,0,0,1,18,,126
1.800397633,0,1735643777088230371,map,0.9630099993351526,-0.2243524629625898,0.0228025035897116,-0.4876667113963147,0.501791622061441,-0.5037832708632725,0.506545913637801,0.0,0.0,0.0,1,0.0008881055400475953,0,1735643777088253974,map,0.9611120327338444,-0.2522403706582087,0.1504914922209635,-0.5083315827955976,0.4919200926581012,-0.482610475923415,0.5164307822939515,0.0,0.0,0.0,16,0.010159103852546736,0,1735643777088270664,map,0.9634128420333692,0.0520047760059929,0.0283771757535874,-0.4851803866186017,0.4975959269687521,-0.5031761951683019,0.5136263257667815,0.0,0.0,0.0,17,0.07513058211371611,0,1735643777088284730,map,0.9805436056924756,-0.2612448126704538,0.2383662855764638,-0.4961798110131307,0.4917154540550922,-0.4875387777288927,0.5237627779796746,0.0,0.0,0.0,121,0.009697251521107208,0,1735643777088297367,map,0.9823927922855455,0.2030228734434756,0.2440422386921148,-0.5039763197487549,0.4830242272261991,-0.4952838941811085,0.5170970210800203,0.0,0.0,0.0,122,0.00023177266427121032,0,1735643777088310956,map,0.9728217809168758,0.2010997554586121,0.1471747313276899,-0.4860030486864256,0.4980059548101851,-0.4843636867352769,0.5302668428379308,0.0,0.0,0.0,124,0.0022842370694322626,0,1735643777088322877,map,0.9681898030934388,-0.031694149606848,0.2442640831983805,-0.5707299734597926,0.4583912320094248,-0.4232828542391615,0.5338318097665362,0.0,0.0,0.0,125,0.25681678088510757,0,1735643777088343858,map,0.9695309966224368,-0.0251731159368208,0.1476363695891891,-0.4890951649957057,0.4940207669517719,-0.514003619008486,0.5025233139311904,0.0,0.0,0.0,126,0.6447904688176735,0,1735644242188269615,map,0.9775219253062754,0.3321171411115535,0.0272327401753686,-0.5041073060469293,0.4907271918013494,-0.4826355942763124,0.521656525267748,0.0,0.0,0.0,0,1.6975360977994788e-06,0.9371827431241692,-0.0459494778264094,0.1563942426541676,1.0,1.8550240585850765e-05,1.1102411129504584e-05,-0.0002805005792048,0.0,0.0,0.0,1.1102411129504584e-05,0.0056154749667428,-0.0013554242451015,0.0,0.0,0.0,-0.0002805005792048,-0.0013554242451015,0.0044929209134328,0.0,0.0,0.0,0.0,0.0,0.0,0.0,0.0,0.0,0.0,0.0,0.0,0.0,0.0,0.0,0.0,0.0,0.0,0.0,0.0,0.0,0,0,0,1,19,,126
1.899787792,0,1735643777088230371,map,0.9605704922261754,-0.2234145683747096,0.0241977782736144,-0.4906142680699717,0.502929076890546,-0.4986724955904321,0.507627546263793,0.0,0.0,0.0,1,0.0011718461933339368,0,1735643777088253974,map,0.9659964452589452,-0.2541516304216621,0.1496852793358638,-0.4991288010191916,0.4999306241506223,-0.4918636858001207,0.5089301775495669,0.0,0.0,0.0,16,0.008889843561238899,0,1735643777088270664,map,0.9592463096942035,0.0509933672457108,0.0305646792957091,-0.4822298600047009,0.489333222943947,-0.5016344217101143,0.5257092979952844,0.0,0.0,0.0,17,0.06882737272847284,0,1735643777088284730,map,0.9812590567054958,-0.2618711567108472,0.2385069502830228,-0.4896948854758449,0.4933419041869862,-0.4970293692688178,0.5193982006093192,0.0,0.0,0.0,121,0.007693153051421354,0,1735643777088297367,map,0.9807279493526478,0.2024202030223725,0.244337422912605,-0.5067507396883988,0.4833984401593516,-0.4925710671540821,0.5166269250430672,0.0,0.0,0.0,122,0.0005249592398413607,0,1735643777088310956,map,0.9719740423401854,0.2010141930200631,0.1473537376894337,-0.4821037079158697,0.4979165283874549,-0.4837052915436642,0.5344944681706381,0.0,0.0,0.0,124,0.003321094818874526,0,1735643777088322877,map,0.9703349077504506,-0.0314241271176345,0.244381609329929,0.5461994012485935,-0.5054692244722192,0.4533353242686558,-0.4905651444582708,0.0,0.0,0.0,125,0.2791708907874421,0,1735643777088343858,map,0.9673297901813228,-0.0253654449309692,0.1479229225656852,-0.4950339485314946,0.486475279276278,-0.5040040766572947,0.5140652518574006,0.0,0.0,0.0,126,0.6303989993571241,0,1735644242188269615,map,0.9775219253062754,0.3321171411115535,0.0272327401753686,-0.5041073060469293,0.4907271918013494,-0.4826355942763124,0.521656525267748,0.0,0.0,0.0,0,1.8402622509952924e-06,0.9369318891368112,-0.0417225565767759,0.1592606947109251,1.0,1.881835529305336e-05,-9.59917037163159e-06,-0.0002801377078767,0.0,0.0,0.0,-9.59917037163159e-06,0.0056741716201671,-0.0010574439577609,0.0,0.0,0.0,-0.0002801377078767,-0.0010574439577609,0.0044243892682413,0.0,0.0,0.0,0.0,0.0,0.0,0.0,0.0,0.0,0.0,0.0,0.0,0.0,0.0,0.0,0.0,0.0,0.0,0.0,0.0,0.0,0,0,0,1,20,,126
2.000956247,0,1735643777088230371,map,0.9621564533952494,-0.2241890552903707,0.0241487307975654,-0.4808759960219806,0.4890683063431115,-0.517069921591415,0.5120636331218964,0.0,0.0,0.0,1,0.0008746832020012498,0,1735643777088253974,map,0.9606977796581926,-0.25215656569172,0.1510860119465495,-0.5054147087329185,0.4912791626882805,-0.4846024526025344,0.5180359248510947,0.0,0.0,0.0,16,0.008078150328050766,0,1735643777088270664,map,0.9655823271124432,0.0526444303172098,0.0276385514749767,-0.4898160640466332,0.4954651442628571,-0.4945525418752134,0.5196270754562502,0.0,0.0,0.0,17,0.05509970527829759,0,1735643777088284730,map,0.9808319059463642,-0.2622734730790688,0.2384616408528669,-0.4965440770452472,0.4954628373794251,-0.4852209276914124,0.5220356383021157,0.0,0.0,0.0,121,0.006022122270544442,0,1735643777088297367,map,0.9763408133474832,0.1991935573373652,0.2443386104757062,-0.5087916815079923,0.4875516317550348,-0.4969922099981714,0.5063824388763952,0.0,0.0,0.0,122,0.0006016363328588312,0,1735643777088310956,map,0.9719622939972878,0.2005986785850517,0.1474063786827169,-0.4789202308205562,0.4981150172299723,-0.4851057123113098,0.5359004478480177,0.0,0.0,0.0,124,0.003214930889512588,0,1735643777088322877,map,0.9677366161939164,-0.0321523543181083,0.2442575570163299,0.508243361369387,-0.5037666865814096,0.4904893301021064,-0.4973208503277549,0.0,0.0,0.0,125,0.2863434607793216,0,1735643777088343858,map,0.9692776199974524,-0.0258277888348324,0.1479950046421182,0.6730270239215527,-0.5356499972832112,0.3229091938968009,-0.3947700064324943,0.0,0.0,0.0,126,0.6397640757972978,0,1735644242188269615,map,0.9775219253062754,0.3321171411115535,0.0272327401753686,-0.5041073060469293,0.4907271918013494,-0.4826355942763124,0.521656525267748,0.0,0.0,0.0,0,1.2351221151194665e-06,0.9368182856303692,-0.039737765494992,0.1605438774093017,1.0,1.8180358269759344e-05,-1.3651651549508263e-05,-0.0002697132981043,0.0,0.0,0.0,-1.3651651549508263e-05,0.0054827608843543,-0.000956152492061,0.0,0.0,0.0,-0.0002697132981043,-0.000956152492061,0.0042466352217399,0.0,0.0,0.0,0.0,0.0,0.0,0.0,0.0,0.0,0.0,0.0,0.0,0.0,0.0,0.0,0.0,0.0,0.0,0.0,0.0,0.0,0,0,0,1,21,,126
2.09966563,0,1735643777088230371,map,0.9621564533952494,-0.2241890552903707,0.0241487307975654,-0.4808759960219806,0.4890683063431115,-0.517069921591415,0.5120636331218964,0.0,0.0,0.0,1,0.0006423211761954372,0,1735643777088253974,map,0.9620602463559338,-0.2531732681415812,0.1502051095937319,-0.5029588079173625,0.4919967273886756,-0.4875730958280058,0.5169566074651467,0.0,0.0,0.0,16,0.006226611705857311,0,1735643777088270664,map,0.9655823271124432,0.0526444303172098,0.0276385514749767,-0.4898160640466332,0.4954651442628571,-0.4945525418752134,0.5196270754562502,0.0,0.0,0.0,17,0.049936395603307634,0,1735643777088284730,map,0.9799235646397056,-0.2627339472672083,0.2378927749191242,-0.4949909680779217,0.4966234074676019,-0.4865208532506271,0.5211972678639366,0.0,0.0,0.0,121,0.004775708771093715,0,1735643777088297367,map,0.9806020890565031,0.201545585964155,0.2437060760405775,-0.510350662104782,0.486906262645483,-0.4933876285582697,0.5089529851287501,0.0,0.0,0.0,122,0.0004060732166244625,0,1735643777088310956,map,0.9726775341233008,0.2005259076122281,0.1466191536987064,-0.4846750007524379,0.5025094304207216,-0.4801082350375717,0.5311030960491329,0.0,0.0,0.0,124,0.00259174125825656,0,1735643777088322877,map,0.9699545477073088,-0.0326941825809885,0.2436163390878579,-0.5390523415339811,0.4797514849464067,-0.4566316041600128,0.52033514570967,0.0,0.0,0.0,125,0.2850167240722266,0,1735643777088343858,map,0.9649274762313546,-0.0266963993023118,0.147871370687268,-0.4746631742714737,0.4849872692167888,-0.5336640744550176,0.5046631305378274,0.0,0.0,0.0,126,0.6504037401630284,0,1735644242188269615,map,0.9775219253062754,0.3321171411115535,0.0272327401753686,-0.5041073060469293,0.4907271918013494,-0.4826355942763124,0.521656525267748,0.0,0.0,0.0,0,6.840334099595959e-07,0.9368172090303268,-0.0394777719021941,0.1605049726122361,1.0,1.7354002688827327e-05,-1.3037000024995174e-05,-0.0002574527231529,0.0,0.0,0.0,-1.3037000024995174e-05,0.0052349640105542,-0.0009129034301065,0.0,0.0,0.0,-0.0002574527231529,-0.0009129034301065,0.0040536381332724,0.0,0.0,0.0,0.0,0.0,0.0,0.0,0.0,0.0,0.0,0.0,0.0,0.0,0.0,0.0,0.0,0.0,0.0,0.0,0.0,0.0,0,0,0,1,22,,126
2.200332088,0,1735643777088230371,map,0.9621564533952494,-0.2241890552903707,0.0241487307975654,-0.4808759960219806,0.4890683063431115,-0.517069921591415,0.5120636331218964,0.0,0.0,0.0,1,0.0005447257737317327,0,1735643777088253974,map,0.9605512038915456,-0.2555468908207743,0.149170166119005,-0.506745105329122,0.5062152715048155,-0.4804436513457745,0.5060922791367434,0.0,0.0,0.0,16,0.004960217425140391,0,1735643777088270664,map,0.9655823271124432,0.0526444303172098,0.0276385514749767,-0.4898160640466332,0.4954651442628571,-0.4945525418752134,0.5196270754562502,0.0,0.0,0.0,17,0.04554437217140326,0,1735643777088284730,map,0.975511937927303,-0.2640779326768486,0.2370687360708477,-0.495531887305111,0.499676412947643,-0.4856162368787901,0.5186024503290495,0.0,0.0,0.0,121,0.0038931038993695244,0,1735643777088297367,map,0.9745842752763452,0.1986425861262096,0.242848573622559,-0.5030753175874755,0.4901703986632172,-0.4959217175008498,0.510597547212686,0.0,0.0,0.0,122,0.00034349400744649195,0,1735643777088310956,map,0.9708064150047696,0.1998782626727834,0.1452110746154497,-0.480228601428882,0.5098737745603584,-0.4925991899824679,0.5164835548338879,0.0,0.0,0.0,124,0.0020850222111922336,0,1735643777088322877,map,0.965550399051594,-0.0341596049289758,0.2428147317468385,-0.4803455448206341,0.4734241787824337,-0.5122726649585527,0.5317089629218307,0.0,0.0,0.0,125,0.28006150142691955,0,1735643777088343858,map,0.9610124892019536,-0.0282527730862351,0.1471788633712459,-0.4723467364406782,0.478708179323061,-0.5329474713475607,0.5135114725176858,0.0,0.0,0.0,126,0.6625671985987428,0,1735644242188269615,map,0.9775219253062754,0.3321171411115535,0.0272327401753686,-0.5041073060469293,0.4907271918013494,-0.4826355942763124,0.521656525267748,0.0,0.0,0.0,0,3.644860540350226e-07,0.9368737949715548,-0.0404811816049275,0.1598689492366488,1.0,1.666992414517397e-05,-1.371930935121554e-05,-0.0002470509060838,0.0,0.0,0.0,-1.371930935121554e-05,0.0050295071623544,-0.0008591717520465,0.0,0.0,0.0,-0.0002470509060838,-0.0008591717520465,0.0038862925631976,0.0,0.0,0.0,0.0,0.0,0.0,0.0,0.0,0.0,0.0,0.0,0.0,0.0,0.0,0.0,0.0,0.0,0.0,0.0,0.0,0.0,0,0,0,1,23,,126
2.300001985,0,1735643777088230371,map,0.9621564533952494,-0.2241890552903707,0.0241487307975654,-0.4808759960219806,0.4890683063431115,-0.517069921591415,0.5120636331218964,0.0,0.0,0.0,1,0.00048335312626741,0,1735643777088253974,map,0.9559583774333698,-0.2544944891226154,0.1494101409983271,-0.5090193235426355,0.5035283634139499,-0.4806931675167628,0.5062534880873102,0.0,0.0,0.0,16,0.00493514383527098,0,1735643777088270664,map,0.9655823271124432,0.0526444303172098,0.0276385514749767,-0.4898160640466332,0.4954651442628571,-0.4945525418752134,0.5196270754562502,0.0,0.0,0.0,17,0.04134498530909168,0,1735643777088284730,map,0.9718345367455584,-0.2638360501009439,0.236586569647683,-0.4960826190329531,0.5011331159812904,-0.4849208187084923,0.517319470678781,0.0,0.0,0.0,121,0.003546631969690729,0,1735643777088297367,map,0.9745842752763452,0.1986425861262096,0.242848573622559,-0.5030753175874755,0.4901703986632172,-0.4959217175008498,0.510597547212686,0.0,0.0,0.0,122,0.00025404694864995445,0,1735643777088310956,map,0.9708064150047696,0.1998782626727834,0.1452110746154497,-0.480228601428882,0.5098737745603584,-0.4925991899824679,0.5164835548338879,0.0,0.0,0.0,124,0.0016408651132516635,0,1735643777088322877,map,0.9621420470966892,-0.034696124329257,0.2424953726206555,0.5442564983348259,-0.526562806445418,0.4515651227284961,-0.4718107828609234,0.0,0.0,0.0,125,0.27341149027638845,0,1735643777088343858,map,0.962260926762302,-0.0285727231044539,0.1458567569073399,-0.491856426925047,0.489472994195259,-0.5101906955050189,0.5081327557500689,0.0,0.0,0.0,126,0.6743832832416798,0,1735644242188269615,map,0.9775219253062754,0.3321171411115535,0.0272327401753686,-0.5041073060469293,0.4907271918013494,-0.4826355942763124,0.521656525267748,0.0,0.0,0.0,0,2.001797093048453e-07,0.9369244999128492,-0.0418481858675857,0.1593980909255004,1.0,1.6034476767107025e-05,-1.4741890491992428e-05,-0.0002373062397199,0.0,0.0,0.0,-1.4741890491992428e-05,0.0048629244789679,-0.0008085686267203,0.0,0.0,0.0,-0.0002373062397199,-0.0008085686267203,0.0037294629800288,0.0,0.0,0.0,0.0,0.0,0.0,0.0,0.0,0.0,0.0,0.0,0.0,0.0,0.0,0.0,0.0,0.0,0.0,0.0,0.0,0.0,0,0,0,1,24,,126
2.400773101,0,1735643777088230371,map,0.9621564533952494,-0.2241890552903707,0.0241487307975654,-0.4808759960219806,0.4890683063431115,-0.517069921591415,0.5120636331218964,0.0,0.0,0.0,1,0.00036518532312985606,0,1735643777088253974,map,0.9549812715712162,-0.2546156164705865,0.1492867853992968,-0.5050423576962735,0.5059291815713268,-0.4836255579642085,0.5050487103745191,0.0,0.0,0.0,16,0.004152035339114715,0,1735643777088270664,map,0.9655823271124432,0.0526444303172098,0.0276385514749767,-0.4898160640466332,0.4954651442628571,-0.4945525418752134,0.5196270754562502,0.0,0.0,0.0,17,0.03687859483331558,0,1735643777088284730,map,0.9706824836378763,-0.2641782368303877,0.2366878313549757,-0.4932890065295918,0.5034056167334832,-0.4881656504231809,0.5147261784921597,0.0,0.0,0.0,121,0.0029470022877704652,0,1735643777088297367,map,0.9745842752763452,0.1986425861262096,0.242848573622559,-0.5030753175874755,0.4901703986632172,-0.4959217175008498,0.510597547212686,0.0,0.0,0.0,122,0.00018388448466684465,0,1735643777088310956,map,0.9708064150047696,0.1998782626727834,0.1452110746154497,-0.480228601428882,0.5098737745603584,-0.4925991899824679,0.5164835548338879,0.0,0.0,0.0,124,0.0012776685764763214,0,1735643777088322877,map,0.9576285187892676,-0.0350260406670787,0.2424760064323619,-0.4765131938744639,0.493232679025875,-0.5166127830947517,0.512608947198165,0.0,0.0,0.0,125,0.2682150356801896,0,1735643777088343858,map,0.9594729123482008,-0.0285272715569273,0.146390784934047,0.4937539193817263,-0.4948617423854443,0.5137026744838894,-0.4974218383289232,0.0,0.0,0.0,126,0.6859804868735099,0,1735644242188269615,map,0.9775219253062754,0.3321171411115535,0.0272327401753686,-0.5041073060469293,0.4907271918013494,-0.4826355942763124,0.521656525267748,0.0,0.0,0.0,0,1.0660182673481115e-07,0.936906420298112,-0.0423180539010947,0.1597686680200914,1.0,1.5400942635680112e-05,-1.3948334079753066e-05,-0.0002279747875175,0.0,0.0,0.0,-1.3948334079753066e-05,0.0046737061230631,-0.0007804048175882,0.0,0.0,0.0,-0.0002279747875175,-0.0007804048175882,0.0035835803180205,0.0,0.0,0.0,0.0,0.0,0.0,0.0,0.0,0.0,0.0,0.0,0.0,0.0,0.0,0.0,0.0,0.0,0.0,0.0,0.0,0.0,0,0,0,1,25,,126
