%time,field.boxes0.header.seq,field.boxes0.header.stamp,field.boxes0.header.frame_id,field.boxes0.pose.position.x,field.boxes0.pose.position.y,field.boxes0.pose.position.z,field.boxes0.pose.orientation.x,field.boxes0.pose.orientation.y,field.boxes0.pose.orientation.z,field.boxes0.pose.orientation.w,field.boxes0.scale.x,field.boxes0.scale.y,field.boxes0.scale.z,field.boxes0.id,field.boxes0.pdf,field.boxes1.header.seq,field.boxes1.header.stamp,field.boxes1.header.frame_id,field.boxes1.pose.position.x,field.boxes1.pose.position.y,field.boxes1.pose.position.z,field.boxes1.pose.orientation.x,field.boxes1.pose.orientation.y,field.boxes1.pose.orientation.z,field.boxes1.pose.orientation.w,field.boxes1.scale.x,field.boxes1.scale.y,field.boxes1.scale.z,field.boxes1.id,field.boxes1.pdf,field.boxes2.header.seq,field.boxes2.header.stamp,field.boxes2.header.frame_id,field.boxes2.pose.position.x,field.boxes2.pose.position.y,field.boxes2.pose.position.z,field.boxes2.pose.orientation.x,field.boxes2.pose.orientation.y,field.boxes2.pose.orientation.z,field.boxes2.pose.orientation.w,field.boxes2.scale.x,field.boxes2.scale.y,field.boxes2.scale.z,field.boxes2.id,field.boxes2.pdf,field.boxes3.header.seq,field.boxes3.header.stamp,field.boxes3.header.frame_id,field.boxes3.pose.position.x,field.boxes3.pose.position.y,field.boxes3.pose.position.z,field.boxes3.pose.orientation.x,field.boxes3.pose.orientation.y,field.boxes3.pose.orientation.z,field.boxes3.pose.orientation.w,field.boxes3.scale.x,field.boxes3.scale.y,field.boxes3.scale.z,field.boxes3.id,field.boxes3.pdf,field.boxes4.header.seq,field.boxes4.header.stamp,field.boxes4.header.frame_id,field.boxes4.pose.position.x,field.boxes4.pose.position.y,field.boxes4.pose.position.z,field.boxes4.pose.orientation.x,field.boxes4.pose.orientation.y,field.boxes4.pose.orientation.z,field.boxes4.pose.orientation.w,field.boxes4.scale.x,field.boxes4.scale.y,field.boxes4.scale.z,field.boxes4.id,field.boxes4.pdf,field.boxes5.header.seq,field.boxes5.header.stamp,field.boxes5.header.frame_id,field.boxes5.pose.position.x,field.boxes5.pose.position.y,field.boxes5.pose.position.z,field.boxes5.pose.orientation.x,field.boxes5.pose.orientation.y,field.boxes5.pose.orientation.z,field.boxes5.pose.orientation.w,field.boxes5.scale.x,field.boxes5.scale.y,field.boxes5.scale.z,field.boxes5.id,field.boxes5.pdf,field.boxes6.header.seq,field.boxes6.header.stamp,field.boxes6.header.frame_id,field.boxes6.pose.position.x,field.boxes6.pose.position.y,field.boxes6.pose.position.z,field.boxes6.pose.orientation.x,field.boxes6.pose.orientation.y,field.boxes6.pose.orientation.z,field.boxes6.pose.orientation.w,field.boxes6.scale.x,field.boxes6.scale.y,field.boxes6.scale.z,field.boxes6.id,field.boxes6.pdf,field.boxes7.header.seq,field.boxes7.header.stamp,field.boxes7.header.frame_id,field.boxes7.pose.position.x,field.boxes7.pose.position.y,field.boxes7.pose.position.z,field.boxes7.pose.orientation.x,field.boxes7.pose.orientation.y,field.boxes7.pose.orientation.z,field.boxes7.pose.orientation.w,field.boxes7.scale.x,field.boxes7.scale.y,field.boxes7.scale.z,field.boxes7.id,field.boxes7.pdf,field.boxes8.header.seq,field.boxes8.header.stamp,field.boxes8.header.frame_id,field.boxes8.pose.position.x,field.boxes8.pose.position.y,field.boxes8.pose.position.z,field.boxes8.pose.orientation.x,field.boxes8.pose.orientation.y,field.boxes8.pose.orientation.z,field.boxes8.pose.orientation.w,field.boxes8.scale.x,field.boxes8.scale.y,field.boxes8.scale.z,field.boxes8.id,field.boxes8.pdf,field.pose.pose.position.x,field.pose.pose.position.y,field.pose.pose.position.z,field.pose.pose.orientation.w,field.pose.covariance0,field.pose.covariance1,field.pose.covariance2,field.pose.covariance3,field.pose.covariance4,field.pose.covariance5,field.pose.covariance6,field.pose.covariance7,field.pose.covariance8,field.pose.covariance9,field.pose.covariance10,field.pose.covariance11,field.pose.covariance12,field.pose.covariance13,field.pose.covariance14,field.pose.covariance15,field.pose.covariance16,field.pose.covariance17,field.pose.covariance18,field.pose.covariance19,field.pose.covariance20,field.pose.covariance21,field.pose.covariance22,field.pose.covariance23,field.pose.covariance24,field.pose.covariance25,field.pose.covariance26,field.pose.covariance27,field.pose.covariance28,field.pose.covariance29,field.pose.covariance30,field.pose.covariance31,field.pose.covariance32,field.pose.covariance33,field.pose.covariance34,field.pose.covariance35,field.buttons0,field.buttons1,field.buttons2,field.buttons3,intersection_length,vacuum,desired_box
0.0,0,1735643777088230371,map,0.9778902779232436,-0.2202568653230165,0.0223357967120322,-0.4861369733231018,0.48550652187536,-0.5048373899100936,0.5225834575773601,0.0,0.0,0.0,1,0.1111111111111111,0,1735643777088253974,map,0.9784014065534544,-0.2484844358222363,0.1482915842419073,-0.5049112797856765,0.4849766143518202,-0.4880279014085212,0.5212399164720899,0.0,0.0,0.0,16,0.1111111111111111,0,1735643777088270664,map,0.981150437840646,0.0540026344964565,0.0263647547265253,-0.4816325131219997,0.4923699591396928,-0.5071847128316177,0.5180401651517705,0.0,0.0,0.0,17,0.1111111111111111,0,1735643777088284730,map,1.0128922833473362,-0.2604930490332984,0.2360638008351383,-0.4913942612059526,0.4993982107046912,-0.4955927757361388,0.5133428755100806,0.0,0.0,0.0,121,0.1111111111111111,0,1735643777088297367,map,1.010083720634944,0.205426289835551,0.240748596519252,0.5240327241398447,-0.499425737611802,0.4823158849240025,-0.4932899996872604,0.0,0.0,0.0,122,0.1111111111111111,0,1735643777088310956,map,0.997066666229246,0.2000982893061932,0.1441647504962239,-0.4633561434846824,0.4978202318621109,-0.5055141139543535,0.5309722983703593,0.0,0.0,0.0,124,0.1111111111111111,0,1735643777088322877,map,0.9923939728989524,-0.0288423393196242,0.241232856944482,-0.5549595646490005,0.4393418927656772,-0.4364256872958823,0.5554558509314498,0.0,0.0,0.0,125,0.1111111111111111,0,1735643777088343858,map,1.006759162918604,-0.0238127236426481,0.143920602504007,-0.5041206380189356,0.5068508995582699,-0.4975925733372917,0.4912903203808578,0.0,0.0,0.0,126,0.1111111111111111,0,1735644242188269615,map,0.982970068278846,0.3355779426312388,0.0222541949188816,-0.5057573779208662,0.4890907394380228,-0.4812515966611844,0.5228734301775518,0.0,0.0,0.0,0,0.1111111111111111,0.9161660313493444,0.5758344093662714,0.3398787024130421,1.0,0.0,0.0,0.0,0.0,0.0,0.0,0.0,0.0,0.0,0.0,0.0,0.0,0.0,0.0,0.0,0.0,0.0,0.0,0.0,0.0,0.0,0.0,0.0,0.0,0.0,0.0,0.0,0.0,0.0,0.0,0.0,0.0,0.0,0.0,0.0,0.0,0,0,0,1,1,,122
0.09963447,0,1735643777088230371,map,0.9900520940068124,-0.2232175355324077,0.018605899609331,-0.4859882071091057,0.5227970086803537,-0.5079153047279842,0.482204099411059,0.0,0.0,0.0,1,,0,1735643777088253974,map,0.9807209157178562,-0.2487170297259717,0.148142210845402,-0.4990239677904589,0.4877597810497314,-0.496420656364014,0.5163642198062397,0.0,0.0,0.0,16,,0,1735643777088270664,map,0.9930295470702304,0.0559500069280891,0.0229397404515674,-0.5097329236177495,0.4821167699852975,-0.4710813095183413,0.5346196465727108,0.0,0.0,0.0,17,,0,1735643777088284730,map,1.0134671457182094,-0.2588601766403398,0.2365716261648779,-0.3131441502274905,0.658089775216934,-0.6121705336694102,0.3067667300085482,0.0,0.0,0.0,121,,0,1735643777088297367,map,1.0096605320851748,0.2064488020874322,0.2411262104344324,-0.4782598074248577,0.4845741621896308,-0.5199582677746799,0.5158476884826659,0.0,0.0,0.0,122,,0,1735643777088310956,map,1.0102765735097754,0.2059493190036234,0.1430754630311039,-0.4920978540721358,0.5057830367854033,-0.4757802873190655,0.5250298466909493,0.0,0.0,0.0,124,,0,1735643777088322877,map,1.011544092241134,-0.0273416426857481,0.2422853901741681,-0.5143265362531872,0.4937474287917931,-0.4846293723456502,0.5067702261648299,0.0,0.0,0.0,125,,0,1735643777088343858,map,1.0098803771285263,-0.0225642690227343,0.144113584420914,-0.5049971315503003,0.5077612430188316,-0.4962875189790183,0.4907699213680377,0.0,0.0,0.0,126,,0,1735644242188269615,map,0.9744057028813582,0.3308518390010048,0.0253799643309103,-0.4959719512488197,0.4978704277478957,-0.4852568978376576,0.5202524424253471,0.0,0.0,0.0,0,,0.9160438337008936,0.575757319000701,0.3417273060767047,1.0,1.4932265286874167e-08,9.420261390893129e-09,-2.2589502061687135e-07,0.0,0.0,0.0,9.420261390893129e-09,5.942924463762208e-09,-1.4250953222634453e-07,0.0,0.0,0.0,-2.2589502061687135e-07,-1.4250953222634453e-07,3.4173355053068947e-06,0.0,0.0,0.0,0.0,0.0,0.0,0.0,0.0,0.0,0.0,0.0,0.0,0.0,0.0,0.0,0.0,0.0,0.0,0.0,0.0,0.0,0,0,0,1,2,,122
0.200168936,0,1735643777088230371,map,0.9787058249199854,-0.2192455249935595,0.0224593470194591,-0.5033418205582645,0.4992477224170497,-0.4867690406445024,0.5103475525644369,0.0,0.0,0.0,1,,0,1735643777088253974,map,0.9839284404195714,-0.2493319736764606,0.1476187977225385,-0.5053054430151358,0.4859201003942932,-0.4884291635490323,0.5196008251406744,0.0,0.0,0.0,16,,0,1735643777088270664,map,0.9856336438541748,0.0553490196891343,0.0254671052907844,-0.4844200270600013,0.5079021998376714,-0.5045733347008937,0.5027706661014155,0.0,0.0,0.0,17,,0,1735643777088284730,map,1.011497199671798,-0.2594307057208022,0.2363477971468109,-0.4914162241550746,0.4805576949464592,-0.4988536496104134,0.527938853216247,0.0,0.0,0.0,121,,0,1735643777088297367,map,1.0092025308630037,0.2054551522949748,0.240990838603934,0.5052352778197889,-0.5006595026695476,0.4962266784456045,-0.4978317587618172,0.0,0.0,0.0,122,,0,1735643777088310956,map,1.004193351360717,0.2031452703995133,0.1432983729652862,-0.480097684167619,0.5042338362811257,-0.4893921128128005,0.5251188550440088,0.0,0.0,0.0,124,,0,1735643777088322877,map,0.995683142158538,-0.02812433885011,0.2412251363538797,0.5651024647640497,-0.5261889546097477,0.4290175454562371,-0.4687518896548603,0.0,0.0,0.0,125,,0,1735643777088343858,map,0.99809316844827,-0.0232773813585251,0.1451880852232624,0.6195691166851631,-0.5491346072874165,0.3750382865898582,-0.4170510476200784,0.0,0.0,0.0,126,,0,1735644242188269615,map,0.9783799251008982,0.3334092745330727,0.0242074572291431,-0.5108297549301425,0.4996814749358365,-0.4833606885956474,0.5057013247009533,0.0,0.0,0.0,0,,0.9155111597848262,0.5980061057569571,0.3450037579154268,1.0,5.774378452416824e-07,-2.369641656414497e-05,-3.6411575438877776e-06,0.0,0.0,0.0,-2.369641656414497e-05,0.0009900209862003,0.0001456991501989,0.0,0.0,0.0,-3.6411575438877776e-06,0.0001456991501989,2.3748496973136008e-05,0.0,0.0,0.0,0.0,0.0,0.0,0.0,0.0,0.0,0.0,0.0,0.0,0.0,0.0,0.0,0.0,0.0,0.0,0.0,0.0,0.0,0,0,0,1,3,,122
0.300697629,0,1735643777088230371,map,0.9933940097997728,-0.2222137010715932,0.017730396166784,-0.4892678728975953,0.5047021253606323,-0.5042219032899213,0.5016502620844655,0.0,0.0,0.0,1,,0,1735643777088253974,map,0.976171953659159,-0.2445580536472636,0.1496241543785201,-0.5095692623437895,0.4707683774193809,-0.490231451657649,0.5276262176029203,0.0,0.0,0.0,16,,0,1735643777088270664,map,0.9869677977674826,0.0573119196341212,0.0254621422600606,-0.4829349593480856,0.5048346735614934,-0.5095140388137638,0.5023059044658047,0.0,0.0,0.0,17,,0,1735643777088284730,map,1.0141356540885595,-0.2588678609302803,0.2362520458191307,-0.4992756815326718,0.4975770294058383,-0.4846820250086576,0.5179036862885369,0.0,0.0,0.0,121,,0,1735643777088297367,map,1.0162388200493522,0.2097727471057973,0.2408212453501487,-0.506374416812149,0.4975280035028454,-0.4933062436131465,0.502692535990854,0.0,0.0,0.0,122,,0,1735643777088310956,map,1.005689993437453,0.2052562654439464,0.1433517936151183,-0.4793293864137308,0.5037373550574478,-0.4911856086291427,0.5246224493057673,0.0,0.0,0.0,124,,0,1735643777088322877,map,1.0100344803634336,-0.026373456646609,0.2416991799557788,0.4274880667455583,-0.5221876140798414,0.567888271971704,-0.4712504207411806,0.0,0.0,0.0,125,,0,1735643777088343858,map,1.0175344263264852,-0.0218098783288444,0.1424298688041629,-0.512751003446111,0.5150657972242232,-0.4882546492215829,0.4831159596911395,0.0,0.0,0.0,126,,0,1735644242188269615,map,0.9670538319382236,0.3287142810768055,0.0284004493347768,-0.4800005562630905,0.4911945726068838,-0.4944037371731128,0.5328154488168717,0.0,0.0,0.0,0,,0.9147140574766892,0.6407566469143795,0.3479043731900912,1.0,2.3391946528434407e-06,-0.0001200019775151,-9.667129549273428e-06,0.0,0.0,0.0,-0.0001200019775151,0.0062253420474076,0.0004812829806933,0.0,0.0,0.0,-9.667129549273428e-06,0.0004812829806933,4.305207964470111e-05,0.0,0.0,0.0,0.0,0.0,0.0,0.0,0.0,0.0,0.0,0.0,0.0,0.0,0.0,0.0,0.0,0.0,0.0,0.0,0.0,0.0,0,0,0,1,4,,122
0.399324944,0,1735643777088230371,map,0.9824006050417068,-0.2170864717466207,0.0213844273614816,-0.5019069142238155,0.4888843313886309,-0.4812842219599405,0.5267324346092941,0.0,0.0,0.0,1,,0,1735643777088253974,map,0.9911439544681068,-0.2485627321985026,0.1471792352122533,-0.5030727840787197,0.4877514650088796,-0.4910714245041898,0.5175568938159402,0.0,0.0,0.0,16,,0,1735643777088270664,map,0.9901752782238886,0.0592423072744225,0.0240599469440961,0.4780431594560048,-0.5137617938009114,0.5162958309629299,-0.4908789788309221,0.0,0.0,0.0,17,,0,1735643777088284730,map,1.0107850301377868,-0.2565305282629169,0.2362103910444007,-0.5105992098099309,0.4933535681003518,-0.4725797660726448,0.522071899725364,0.0,0.0,0.0,121,,0,1735643777088297367,map,1.0115955119893694,0.2089752581923063,0.2406961237233224,0.5189362582393685,-0.4935238459975303,0.4918985759675548,-0.4951516578558748,0.0,0.0,0.0,122,,0,1735643777088310956,map,1.00876320944079,0.2072616706932495,0.1426296571865772,-0.4901133215940901,0.5163092269877475,-0.479477681075221,0.513142151332408,0.0,0.0,0.0,124,,0,1735643777088322877,map,1.0052424911798576,-0.0254066278014621,0.2411041638677452,0.4251924079601942,-0.5624475972881056,0.5663121368669893,-0.4267958295895046,0.0,0.0,0.0,125,,0,1735643777088343858,map,1.0058255847700892,-0.020685597803419,0.1439809387020388,-0.4697077766500147,0.5464708761177448,-0.537349392442341,0.4381778366730244,0.0,0.0,0.0,126,,0,1735644242188269615,map,0.9886287084661368,0.3420459502644069,0.0208749259881914,-0.5177082455819249,0.4988231862786137,-0.4710154016292713,0.5111732511735662,0.0,0.0,0.0,0,,0.9136869331537016,0.6917475972485033,0.352509311872361,1.0,6.09129322176651e-06,-0.0003054977633738,-2.665308174512348e-05,0.0,0.0,0.0,-0.0003054977633738,0.0153805817018344,0.0013242671831118,0.0,0.0,0.0,-2.665308174512348e-05,0.0013242671831118,0.0001192635047856,0.0,0.0,0.0,0.0,0.0,0.0,0.0,0.0,0.0,0.0,0.0,0.0,0.0,0.0,0.0,0.0,0.0,0.0,0.0,0.0,0.0,0,0,0,1,5,,122
0.498966538,0,1735643777088230371,map,0.9961650180974888,-0.2238089618034689,0.016281553808615,-0.5050620401066371,0.5112264194590683,-0.4906835314047979,0.4927368016482017,0.0,0.0,0.0,1,2.1029615334483666e-23,0,1735643777088253974,map,0.9911439544681068,-0.2485627321985026,0.1471792352122533,-0.5030727840787197,0.4877514650088796,-0.4910714245041898,0.5175568938159402,0.0,0.0,0.0,16,1.6846218854433009e-12,0,1735643777088270664,map,0.9918459479974998,0.0576687398624096,0.0235174019193192,0.6641049228484764,-0.6117754887984376,0.2888337496583614,-0.3182302119726268,0.0,0.0,0.0,17,3.619168633455219e-20,0,1735643777088284730,map,1.011302708668025,-0.2591907884668573,0.2358473531863809,-0.5060841514082233,0.475040278100934,-0.4750127752790715,0.5409051942779627,0.0,0.0,0.0,121,4.710138582857076e-11,0,1735643777088297367,map,1.006865453814748,0.205634505929638,0.2406309028275378,0.484968270235757,-0.5081128298494034,0.5156712784379047,-0.4906223207327468,0.0,0.0,0.0,122,0.9999060470075938,0,1735643777088310956,map,1.002533068770742,0.2032894124837031,0.1432372752222545,-0.4682739904175382,0.5080136191632567,-0.5008913469405392,0.5212959727478986,0.0,0.0,0.0,124,4.325370361548891e-06,0,1735643777088322877,map,1.003257146633294,-0.027789301424567,0.2408763621521962,-0.5514508333545867,0.4797281938612909,-0.4425494909101998,0.5195313142653085,0.0,0.0,0.0,125,8.96066553861908e-05,0,1735643777088343858,map,1.0098253482031798,-0.0233214628661558,0.1426273914916255,0.5918526071412405,-0.5321649768553476,0.4053851877659672,-0.449637385421425,0.0,0.0,0.0,126,2.0917872510386176e-08,0,1735644242188269615,map,0.9741176737455136,0.3327770548076151,0.0257072396404392,-0.4956779209350759,0.502201179364739,-0.4890592882072183,0.5127556794033542,0.0,0.0,0.0,0,1.2246020141204807e-20,0.9146723521548346,0.6829451187240118,0.3395972626126565,1.0,9.931330723775728e-06,-0.0002979521174537,-8.582979487466334e-05,0.0,0.0,0.0,-0.0002979521174537,0.013204569559066,0.0016718461675052,0.0,0.0,0.0,-8.582979487466334e-05,0.0016718461675052,0.0009329913344131,0.0,0.0,0.0,0.0,0.0,0.0,0.0,0.0,0.0,0.0,0.0,0.0,0.0,0.0,0.0,0.0,0.0,0.0,0.0,0.0,0.0,0,0,0,1,6,,122
0.600163847,0,1735643777088230371,map,0.9949912537044956,-0.2242365691609617,0.015707904789171,-0.5010724430227549,0.5163163305181152,-0.4841104745243927,0.4979768088368012,0.0,0.0,0.0,1,1.706802680602008e-08,0,1735643777088253974,map,0.9892400733312532,-0.2504878940164327,0.1463352548663531,-0.5196766663012498,0.4986049699221141,-0.4735880898311131,0.5069946426157825,0.0,0.0,0.0,16,2.4275468673394553e-09,0,1735643777088270664,map,0.9895268210946464,0.0565622123385923,0.0232802546314508,-0.493193284139806,0.4929325869738685,-0.5000703212927711,0.5135246079213608,0.0,0.0,0.0,17,2.2459596003431815e-05,0,1735643777088284730,map,1.0119681039918682,-0.2606550579337613,0.2347998810647568,-0.5048849315449024,0.5013870233767486,-0.4667531510311293,0.5252082964794209,0.0,0.0,0.0,121,7.138397658735927e-13,0,1735643777088297367,map,1.001202744141586,0.2026836375710239,0.2394684772896453,-0.4911562400408062,0.5134793838996934,-0.508842650458488,0.4859872706700768,0.0,0.0,0.0,122,0.6536640595174716,0,1735643777088310956,map,1.0046153652548573,0.2027794419648614,0.1419392688440442,-0.4725906419242505,0.513452646560249,-0.4940134988063077,0.5186281210106636,0.0,0.0,0.0,124,0.3456801231181764,0,1735643777088322877,map,1.0009894408956648,-0.0291366540368683,0.240248566838674,-0.5642944425412671,0.4765687370087179,-0.4261325023266212,0.5223649217585428,0.0,0.0,0.0,125,1.0127622654381134e-05,0,1735643777088343858,map,1.0067877380208878,-0.0240644776411744,0.1423648190003326,-0.5196613656142955,0.6017959011276421,-0.4691591652218543,0.3842960267322418,0.0,0.0,0.0,126,0.0006187669504880713,0,1735644242188269615,map,0.9737477835357944,0.3314820846595418,0.0251349314908263,-0.5068426796283523,0.4894692907462972,-0.480976933647156,0.5217197531461197,0.0,0.0,0.0,0,4.443698918450989e-06,0.9163126603707734,0.6520486567999997,0.3215434392220829,1.0,2.465623545146535e-05,-0.0005594658512704,-0.0002512514046268,0.0,0.0,0.0,-0.0005594658512704,0.017045750635731,0.0047798066025369,0.0,0.0,0.0,-0.0002512514046268,0.0047798066025369,0.0027553500921765,0.0,0.0,0.0,0.0,0.0,0.0,0.0,0.0,0.0,0.0,0.0,0.0,0.0,0.0,0.0,0.0,0.0,0.0,0.0,0.0,0.0,0,0,0,1,7,,122
0.700203576,0,1735643777088230371,map,0.99171871046226,-0.2230080934669523,0.0167482059919557,-0.5006087160922632,0.5122899716941608,-0.4805968858573438,0.505941233324855,0.0,0.0,0.0,1,1.6002451664108e-05,0,1735643777088253974,map,0.9802240362340672,-0.2463697437079527,0.1475629889778633,-0.5195525415348737,0.4843684448050742,-0.4691187697766693,0.5247665634403464,0.0,0.0,0.0,16,4.14619868860788e-09,0,1735643777088270664,map,0.9941596803407008,0.0566782828705675,0.0216112004582438,-0.4867870112310794,0.5005354167868683,-0.5026207159638191,0.5097794798956964,0.0,0.0,0.0,17,0.004032327798814924,0,1735643777088284730,map,1.0101555303124388,-0.2603346154002699,0.2345241573192087,-0.5038349044035465,0.4810528372109454,-0.4772933416892629,0.5356581212817232,0.0,0.0,0.0,121,1.780054205005025e-14,0,1735643777088297367,map,1.0027634871297215,0.2020911704264306,0.2392618187743939,-0.4726896166073933,0.4943835356441464,-0.5277219438479315,0.5036457048530335,0.0,0.0,0.0,122,0.12612075936497452,0,1735643777088310956,map,1.007614899640748,0.2027230576550153,0.1411929727880454,-0.4841659987199217,0.5095098372339946,-0.484165245873843,0.5211209323499201,0.0,0.0,0.0,124,0.8678016826096732,0,1735643777088322877,map,0.9998305713851516,-0.0292915947790235,0.2396066656910944,-0.5669094084315661,0.4702555867815864,-0.4259498274456201,0.525395232402735,0.0,0.0,0.0,125,8.993564371102161e-07,0,1735643777088343858,map,1.0109425939905152,-0.0253303737019665,0.1412240459073657,0.5118970658336718,-0.4919712532485351,0.4984806697529819,-0.4974361284130475,0.0,0.0,0.0,126,0.0019646247072301203,0,1735644242188269615,map,0.9803396332503338,0.3340582040241716,0.0228067046668435,-0.5042442934670047,0.4903384925461917,-0.4830084357830201,0.5215445390337526,0.0,0.0,0.0,0,6.369956498961056e-05,0.9179830536447646,0.6156744233908784,0.3041983027127264,1.0,4.110570184859832e-05,-0.0009148475436939,-0.0004226573745803,0.0,0.0,0.0,-0.0009148475436939,0.0241766257989733,0.0085987430845506,0.0,0.0,0.0,-0.0004226573745803,0.0085987430845506,0.0045169076543519,0.0,0.0,0.0,0.0,0.0,0.0,0.0,0.0,0.0,0.0,0.0,0.0,0.0,0.0,0.0,0.0,0.0,0.0,0.0,0.0,0.0,0,0,0,1,8,,122
0.800410009,0,1735643777088230371,map,0.9942223256123632,-0.2270405104547729,0.015314810853174,-0.4993387854456605,0.5111392834568801,-0.4877509198086296,0.5014942177958545,0.0,0.0,0.0,1,6.772567565618854e-05,0,1735643777088253974,map,0.9840870320575708,-0.2509334001509452,0.1472068035795676,-0.5085689727644526,0.4840180608910757,-0.4815125689266613,0.5246234484258208,0.0,0.0,0.0,16,3.668919138862119e-07,0,1735643777088270664,map,0.985899148791688,0.0546829373127496,0.0243621461578794,-0.4857039369533023,0.5104325941871686,-0.5012762761357505,0.5022672071745226,0.0,0.0,0.0,17,0.0017476039598248378,0,1735643777088284730,map,1.00813184034264,-0.2623977620282587,0.2350509710513922,-0.2138209814468371,0.7018727804848457,-0.6488255435820737,0.2016943278900269,0.0,0.0,0.0,121,9.911234962665063e-12,0,1735643777088297367,map,1.0103281987555444,0.2027500490798168,0.2394543790689835,-0.4930551413875355,0.4811083372446433,-0.5049265883815146,0.5200774324371484,0.0,0.0,0.0,122,0.3098825634738621,0,1735643777088310956,map,1.003691024754475,0.2017394892967321,0.1430685260991634,-0.4766268000308613,0.5118322435899436,-0.4971078286130267,0.5135547241002347,0.0,0.0,0.0,124,0.6780643544819832,0,1735643777088322877,map,0.9990511867412148,-0.0294405580126153,0.2410605777114846,-0.5429277336299233,0.4608813583300937,-0.4521112621214703,0.537041205367162,0.0,0.0,0.0,125,2.065801711263738e-05,0,1735643777088343858,map,1.0105673752762463,-0.0254446952925136,0.14265665062424,-0.5500323604407582,0.60294790687871,-0.4280064031515683,0.3882379977794645,0.0,0.0,0.0,126,0.010204341294463758,0,1735644242188269615,map,0.9705100022352036,0.3283933081485862,0.026220880445694,-0.4883860643514583,0.4959210705118599,-0.489200890568709,0.5255700073600531,0.0,0.0,0.0,0,1.2386195272160115e-05,0.9187114910928844,0.588760140535182,0.298974305966406,1.0,4.078337056978448e-05,-0.0009700407887878,-0.0004061382829423,0.0,0.0,0.0,-0.0009700407887878,0.0272853630166232,0.0087681281948088,0.0,0.0,0.0,-0.0004061382829423,0.0087681281948088,0.0042333501621351,0.0,0.0,0.0,0.0,0.0,0.0,0.0,0.0,0.0,0.0,0.0,0.0,0.0,0.0,0.0,0.0,0.0,0.0,0.0,0.0,0.0,0,0,0,1,9,,122
0.900185037,0,1735643777088230371,map,0.9939358856342136,-0.2264652000806421,0.0168780432808442,-0.5015921900272845,0.5090875081022197,-0.4943132067453352,0.4948632514493761,0.0,0.0,0.0,1,2.2767867781144313e-05,0,1735643777088253974,map,0.985871279599305,-0.2512153978470007,0.1479860544209215,-0.5048382473254978,0.4802888266689059,-0.4906038037235486,0.5232292946560915,0.0,0.0,0.0,16,3.886487475511948e-05,0,1735643777088270664,map,0.9862448608298028,0.0553320676176596,0.0255784976418129,-0.4826794731024585,0.4971068803968653,-0.5064414800474253,0.5132468246321676,0.0,0.0,0.0,17,0.00041390233506640454,0,1735643777088284730,map,1.0089894206930676,-0.2634680423035231,0.2361220414321549,-0.5049707635048951,0.4821504843440114,-0.4775543768761627,0.5333640928845307,0.0,0.0,0.0,121,4.6785945502255785e-07,0,1735643777088297367,map,1.0060549318324703,0.2022848487438745,0.2408927403712338,-0.5058581794866865,0.4984260886890047,-0.4938232037107883,0.5018142881957515,0.0,0.0,0.0,122,0.7251086767347875,0,1735643777088310956,map,1.0018307663910906,0.2003391376306163,0.1434689068417173,-0.4753750165384235,0.5053272872104145,-0.4933120153106878,0.5246962759556849,0.0,0.0,0.0,124,0.25550988964976545,0,1735643777088322877,map,1.0039453417488826,-0.0319663083910888,0.2417035140138957,-0.538387969991803,0.5063833819071017,-0.450606755567894,0.5006673707492905,0.0,0.0,0.0,125,0.0027107325336201433,0,1735643777088343858,map,1.020353676437726,-0.0291505483686664,0.1407131530702974,-0.5278763601395229,0.6161861137644824,-0.4486025407238509,0.3747225401090501,0.0,0.0,0.0,126,0.01615750189800986,0,1735644242188269615,map,0.9738360005582356,0.3311346491958049,0.0264548996358696,-0.4952596732206124,0.4913129537580457,-0.4804403606662785,0.5315134028355378,0.0,0.0,0.0,0,3.7196246759354535e-05,0.9187791960412598,0.5676161776515547,0.3024358674613339,1.0,3.6746289153116697e-05,-0.0008859206681484,-0.0003634151710673,0.0,0.0,0.0,-0.0008859206681484,0.0285804312127788,0.0072325952254146,0.0,0.0,0.0,-0.0003634151710673,0.0072325952254146,0.0039178568177701,0.0,0.0,0.0,0.0,0.0,0.0,0.0,0.0,0.0,0.0,0.0,0.0,0.0,0.0,0.0,0.0,0.0,0.0,0.0,0.0,0.0,0,0,0,1,10,,122
0.999434679,0,1735643777088230371,map,0.9870343093346272,-0.2245800256082651,0.0186030723533619,-0.4988363213933551,0.5031167137257171,-0.4890627422011129,0.5087765039969012,0.0,0.0,0.0,1,7.018765251709181e-06,0,1735643777088253974,map,0.985871279599305,-0.2512153978470007,0.1479860544209215,-0.5048382473254978,0.4802888266689059,-0.4906038037235486,0.5232292946560915,0.0,0.0,0.0,16,4.4559863985800226e-05,0,1735643777088270664,map,0.9915588366817656,0.055044218882421,0.022569182487437,-0.4856918835316277,0.4930525571568386,-0.5100028395282197,0.5107833922767615,0.0,0.0,0.0,17,0.0004116697901987981,0,1735643777088284730,map,1.0089894206930676,-0.2634680423035231,0.2361220414321549,-0.5049707635048951,0.4821504843440114,-0.4775543768761627,0.5333640928845307,0.0,0.0,0.0,121,9.281762172799411e-06,0,1735643777088297367,map,1.0043047674767187,0.2018428450277626,0.24046924522799,0.5258229151650148,-0.5037749441669007,0.481664353690821,-0.4875659113397957,0.0,0.0,0.0,122,0.8004396433435839,0,1735643777088310956,map,1.0025594568686889,0.2002713344069294,0.1425647165243106,0.711458792746209,-0.4520370657551009,0.2644442724892625,-0.4685702766450835,0.0,0.0,0.0,124,0.18035102521817906,0,1735643777088322877,map,1.0088291952298538,-0.0334714389588477,0.240872773630837,0.3957789180978325,-0.5808693494212116,0.5900991477369496,-0.3971559425873086,0.0,0.0,0.0,125,0.009240882439084505,0,1735643777088343858,map,1.0151221873430978,-0.0296393125014553,0.1404640642584582,-0.5077916317584182,0.5096987880477376,-0.493084658664259,0.4891035918583525,0.0,0.0,0.0,126,0.008865006057550978,0,1735644242188269615,map,0.9715480136284398,0.3305960457064407,0.0264762042714687,-0.487567166350483,0.49155416698374,-0.4920705661348752,0.5277492938522852,0.0,0.0,0.0,0,0.0006309127599925394,0.9182550176957616,0.5577829741098177,0.3123775709895708,1.0,3.615334679081871e-05,-0.0007538389019549,-0.0003824896853117,0.0,0.0,0.0,-0.0007538389019549,0.0269491291123675,0.0055974986251111,0.0,0.0,0.0,-0.0003824896853117,0.0055974986251111,0.0045500627065882,0.0,0.0,0.0,0.0,0.0,0.0,0.0,0.0,0.0,0.0,0.0,0.0,0.0,0.0,0.0,0.0,0.0,0.0,0.0,0.0,0.0,0,0,0,1,11,,122
1.100293268,0,1735643777088230371,map,0.9817226227697964,-0.2254096950046289,0.0181112239857415,-0.4938584776940619,0.4995164870029524,-0.4963473770544233,0.5101238717342367,0.0,0.0,0.0,1,2.546865973503861e-06,0,1735643777088253974,map,0.9796660609200092,-0.2523934763742509,0.1472821719334328,-0.507439459188477,0.490543038076724,-0.4834869103541848,0.5177964180729032,0.0,0.0,0.0,16,2.362703292610343e-05,0,1735643777088270664,map,0.985109568043373,0.0530703205231176,0.0222514986482535,-0.4814750881133387,0.5026301127872009,-0.508011195035425,0.5074143621976603,0.0,0.0,0.0,17,0.0004090306261456427,0,1735643777088284730,map,1.0023458836359105,-0.265724327436018,0.2344368521473716,-0.5040638915646988,0.4825810509839699,-0.486119925190557,0.5260442384292281,0.0,0.0,0.0,121,1.2638153852777388e-05,0,1735643777088297367,map,1.003254670640112,0.2003696427882483,0.2385996635141902,-0.490561939483161,0.4928639205411278,-0.509895678140117,0.5063995821220424,0.0,0.0,0.0,122,0.8245690582964919,0,1735643777088310956,map,0.9988848494131772,0.1981580309358714,0.1407189783839197,-0.4796715198866865,0.5085895120518713,-0.4869505335533599,0.5235753232463636,0.0,0.0,0.0,124,0.15617229439850705,0,1735643777088322877,map,0.9929433691925628,-0.0316429464745269,0.2411499460537426,-0.5353954494514561,0.4726496068845342,-0.4592548625063021,0.5282414533931293,0.0,0.0,0.0,125,0.011440814244598417,0,1735643777088343858,map,1.0055540500006117,-0.0289059054537178,0.1415607184457165,0.4992071359931929,-0.4957401816213954,0.5119637413724413,-0.4928762879459629,0.0,0.0,0.0,126,0.005909652554075319,0,1735644242188269615,map,0.976574763615054,0.3329239999722362,0.0214324444362405,-0.4988782412136591,0.4930997372479531,-0.4793580072693104,0.5274362998849836,0.0,0.0,0.0,0,0.0014603378274292535,0.9177019841929356,0.5514408829046143,0.3220127762623256,1.0,3.650487449930761e-05,-0.0006524377153996,-0.0004092300494158,0.0,0.0,0.0,-0.0006524377153996,0.0251458116824099,0.0044588595495245,0.0,0.0,0.0,-0.0004092300494158,0.0044588595495245,0.0051920998015019,0.0,0.0,0.0,0.0,0.0,0.0,0.0,0.0,0.0,0.0,0.0,0.0,0.0,0.0,0.0,0.0,0.0,0.0,0.0,0.0,0.0,0,0,0,1,12,,122
1.200895921,0,1735643777088230371,map,0.9868848938324488,-0.2296722308139414,0.0149722899693582,-0.4928245045111376,0.5152500614636749,-0.4924820523534599,0.4991020036272697,0.0,0.0,0.0,1,7.741777254753911e-07,0,1735643777088253974,map,0.9781971576040156,-0.2528919723083445,0.1468804568638567,-0.5077013443991812,0.5007298082324249,-0.4782806580307073,0.5125979088881425,0.0,0.0,0.0,16,1.153293403863657e-05,0,1735643777088270664,map,0.9812646393936522,0.0525416174958241,0.0239304347354128,-0.6289990114732089,0.6959814998743945,-0.2498723131853708,0.2398620905889592,0.0,0.0,0.0,17,0.00041332940262939287,0,1735643777088284730,map,1.0023458836359105,-0.265724327436018,0.2344368521473716,-0.5040638915646988,0.4825810509839699,-0.486119925190557,0.5260442384292281,0.0,0.0,0.0,121,1.1696291489554129e-05,0,1735643777088297367,map,0.9950341581917728,0.1974574930105481,0.2383060773044544,-0.4892765261739458,0.4943194193859965,-0.5100727486900484,0.5060460291286019,0.0,0.0,0.0,122,0.8331341375238048,0,1735643777088310956,map,0.9967403465303372,0.1967728032090293,0.1404773907479632,-0.4892656095235621,0.5048800993574393,-0.4778882779797436,0.5266289418365784,0.0,0.0,0.0,124,0.1476368985568842,0,1735643777088322877,map,0.9945570993043028,-0.03579174502624,0.2393719958674724,-0.516181914661289,0.4831253196781107,-0.4786133494133831,0.5206490355564214,0.0,0.0,0.0,125,0.010294239716812866,0,1735643777088343858,map,0.99593904606881,-0.031150981499267,0.1412152232775022,-0.4934078713951171,0.4895544171989484,-0.5128398332188788,0.5038655083555232,0.0,0.0,0.0,126,0.0037564794263859813,0,1735644242188269615,map,0.9642143018123468,0.3267475289182285,0.0265443720421085,-0.4926152648661929,0.5006325806105141,-0.4921159736391515,0.5143141924361583,0.0,0.0,0.0,0,0.004740911970229171,0.91713142938095,0.5453440441018699,0.3318587765466703,1.0,3.760320075188887e-05,-0.0005605072302288,-0.0004451630089379,0.0,0.0,0.0,-0.0005605072302288,0.0236575757967105,0.0033955166343821,0.0,0.0,0.0,-0.0004451630089379,0.0033955166343821,0.0059560321682704,0.0,0.0,0.0,0.0,0.0,0.0,0.0,0.0,0.0,0.0,0.0,0.0,0.0,0.0,0.0,0.0,0.0,0.0,0.0,0.0,0.0,0,0,0,1,13,,122
1.299531693,0,1735643777088230371,map,0.9806826294320128,-0.2268826499280605,0.0173357435415811,-0.4943562395127581,0.5019319194371499,-0.5008600983973588,0.5028075362783769,0.0,0.0,0.0,1,3.880383554245963e-07,0,1735643777088253974,map,0.9756902205028732,-0.2520083686341713,0.1473946968590544,-0.5025492514996159,0.4920569241652741,-0.4892010539673243,0.5157582398715941,0.0,0.0,0.0,16,1.1781861125083895e-05,0,1735643777088270664,map,0.9803257878767028,0.0518452388627689,0.023251752945838,-0.4866422034268817,0.4873982538765773,-0.4972331474216446,0.5276187118242281,0.0,0.0,0.0,17,0.00018654762327214347,0,1735643777088284730,map,1.000170398388006,-0.2676602522417478,0.2333130680233935,-0.4951559858531023,0.4932147084229716,-0.4910416753183717,0.5200364161956471,0.0,0.0,0.0,121,1.9540657404605958e-05,0,1735643777088297367,map,0.9968875048604536,0.1968770735967223,0.2377745809837258,-0.5037994465538718,0.4635698224816805,-0.4880078385620092,0.5414217273423294,0.0,0.0,0.0,122,0.8678157526243506,0,1735643777088310956,map,0.9922850245299136,0.1951201529063669,0.1408270221868379,-0.4750218988731374,0.511443050266085,-0.4944882588347828,0.5179397298914483,0.0,0.0,0.0,124,0.11237949257809612,0,1735643777088322877,map,0.9889241089223064,-0.0354072819773214,0.2389312031411184,-0.5311495934174247,0.4878394625919598,-0.4645406219087396,0.5139015263132947,0.0,0.0,0.0,125,0.01376443797953012,0,1735643777088343858,map,0.9992192828819602,-0.0329095778088973,0.1395879028668459,-0.5069800470505902,0.5086553106331184,-0.4935750263729098,0.4905351161724189,0.0,0.0,0.0,126,0.0027560937404735066,0,1735644242188269615,map,0.9611138071097284,0.3250026975638027,0.0276725128374163,-0.4846744412265522,0.4938948923703368,-0.4949485121702137,0.5255325790212387,0.0,0.0,0.0,0,0.0030659648973922313,0.9170174960288696,0.5331534460847903,0.3361482239627381,1.0,3.508600835435177e-05,-0.0005024150954507,-0.0004197188957515,0.0,0.0,0.0,-0.0005024150954507,0.0238996877942706,0.0024731976527854,0.0,0.0,0.0,-0.0004197188957515,0.0024731976527854,0.005769792967866,0.0,0.0,0.0,0.0,0.0,0.0,0.0,0.0,0.0,0.0,0.0,0.0,0.0,0.0,0.0,0.0,0.0,0.0,0.0,0.0,0.0,0,0,0,1,14,,122
1.401269434,0,1735643777088230371,map,0.9742822104236508,-0.2231910407193938,0.0201271445222754,-0.4958794339990749,0.4971563069454161,-0.4973424178790764,0.5094994727959452,0.0,0.0,0.0,1,2.7815527412513827e-07,0,1735643777088253974,map,0.9833148615984236,-0.256873038666277,0.1449783880032907,-0.5039499902227648,0.4991907212942452,-0.4904129503256152,0.506298498201537,0.0,0.0,0.0,16,1.0287090235516696e-05,0,1735643777088270664,map,0.9795279261854838,0.0519735591022665,0.0230963820011972,-0.4918898569991545,0.4892896226631691,-0.4953287181678608,0.5227709772870612,0.0,0.0,0.0,17,9.592577852976335e-05,0,1735643777088284730,map,0.9994607197453692,-0.2676829726835663,0.2327758801154729,-0.49833563688959,0.4954285199575206,-0.4836878839145642,0.5217836769896108,0.0,0.0,0.0,121,3.0669616459499e-05,0,1735643777088297367,map,0.9949065757536362,0.1964879652868122,0.2376116597322056,-0.5078195015921383,0.4996230764065936,-0.4920600773743044,0.5003728765422011,0.0,0.0,0.0,122,0.8943195249395758,0,1735643777088310956,map,0.9935178954753756,0.1952301490045776,0.1398167719207168,-0.4837135124975314,0.5035881881737502,-0.4827977510689467,0.5285134871712805,0.0,0.0,0.0,124,0.08549601177656507,0,1735643777088322877,map,0.9946581142739996,-0.037119121852798,0.2377238776613729,0.5093790495652193,-0.5057281327446032,0.48926414192204,-0.4953712133783927,0.0,0.0,0.0,125,0.016285056485245607,0,1735643777088343858,map,0.9996142974918228,-0.0336455653273043,0.1387280193260624,0.4919404453083673,-0.5069069208977466,0.5151384077834634,-0.485461010424204,0.0,0.0,0.0,126,0.002323068577521342,0,1735644242188269615,map,0.9643752051916676,0.3266430726229844,0.0258213073954834,-0.4922374154657976,0.495966204657948,-0.4833807979648826,0.5273166551623185,0.0,0.0,0.0,0,0.001439177580593106,0.9170650772309028,0.5213310055590875,0.3379379070535699,1.0,3.277863672174538e-05,-0.0004767961187905,-0.0003905454622167,0.0,0.0,0.0,-0.0004767961187905,0.0242631566744255,0.0020120999026493,0.0,0.0,0.0,-0.0003905454622167,0.0020120999026493,0.0054299816212601,0.0,0.0,0.0,0.0,0.0,0.0,0.0,0.0,0.0,0.0,0.0,0.0,0.0,0.0,0.0,0.0,0.0,0.0,0.0,0.0,0.0,0,0,0,1,15,,122
1.50002886,0,1735643777088230371,map,0.979838930232336,-0.22674263039384,0.0170842702658526,-0.4928155148614128,0.5048511768889549,-0.4960658967304694,0.5061390951178467,0.0,0.0,0.0,1,2.47085490404887e-07,0,1735643777088253974,map,0.9787221202938804,-0.2540142650053241,0.1459779486434229,-0.5073986876405954,0.498816423692964,-0.4850166625775446,0.508416742699238,0.0,0.0,0.0,16,1.7884166438017784e-05,0,1735643777088270664,map,0.9797547725645788,0.0519105099239499,0.0230935192653911,-0.49509103179108,0.4974024911763559,-0.4996371152979533,0.5077778894638268,0.0,0.0,0.0,17,7.542266735318416e-05,0,1735643777088284730,map,1.0003411819407546,-0.2690280465202761,0.2324849283902479,-0.4975309886678531,0.4918392663209957,-0.4889848098966134,0.5210095076967273,0.0,0.0,0.0,121,4.8294335279042365e-05,0,1735643777088297367,map,0.99599969485554,0.1964454686132625,0.2372574204328718,0.5200114477152148,-0.4998760171103942,0.4864322001299566,-0.4930474383258725,0.0,0.0,0.0,122,0.8978793077414897,0,1735643777088310956,map,0.9916804324046294,0.194736188765656,0.1401939016705373,-0.4835015780898646,0.5109091824071551,-0.4863530938797155,0.5183229682256916,0.0,0.0,0.0,124,0.0771281554378054,0,1735643777088322877,map,0.9899794389099478,-0.0366686802532389,0.2381104916572262,-0.5278348573336994,0.4927510518935195,-0.4675977940383528,0.5098421983828032,0.0,0.0,0.0,125,0.021022871222530434,0,1735643777088343858,map,0.9927465244301144,-0.0322911637579635,0.140363150412522,-0.5000725269382035,0.4843049436385533,-0.5111510680626219,0.5040840951541101,0.0,0.0,0.0,126,0.0029296236791938077,0,1735644242188269615,map,0.961752988891884,0.3255063968999687,0.0272456525815972,-0.4862718571537143,0.4960863723261403,-0.4955029249521875,0.5214545459542899,0.0,0.0,0.0,0,0.0008981936644199072,0.9173234933271402,0.5095755517013505,0.3365520625967612,1.0,3.173165510855476e-05,-0.0004925633387974,-0.0003715082385459,0.0,0.0,0.0,-0.0004925633387974,0.0248195698132946,0.002130712117224,0.0,0.0,0.0,-0.0003715082385459,0.002130712117224,0.0051194162428084,0.0,0.0,0.0,0.0,0.0,0.0,0.0,0.0,0.0,0.0,0.0,0.0,0.0,0.0,0.0,0.0,0.0,0.0,0.0,0.0,0.0,0,0,0,1,16,,122
1.600045885,0,1735643777088230371,map,0.9812638072630462,-0.2298911304275999,0.0142888999989858,-0.497069832856895,0.5151680659876975,-0.4869818448502069,0.5003719894602444,0.0,0.0,0.0,1,1.1533527629930557e-07,0,1735643777088253974,map,0.9702022830780302,-0.2504869880051753,0.1470811941349825,-0.5026663284742845,0.489583399326014,-0.4872857483552507,0.519795398952733,0.0,0.0,0.0,16,2.1225034107687402e-05,0,1735643777088270664,map,0.9769929549260772,0.0510395940354168,0.0226365042396556,-0.4898322305195339,0.4929462797471656,-0.4967968544099873,0.5198665566047015,0.0,0.0,0.0,17,4.104933191434143e-05,0,1735643777088284730,map,0.9992778921709848,-0.2705747459361531,0.2315507813319554,-0.1200089776164126,0.7633258746347384,-0.6280505955109713,0.092108109756359,0.0,0.0,0.0,121,6.0619145870438074e-05,0,1735643777088297367,map,0.9846715018004022,0.1937773843133733,0.2374239477430756,-0.4908401693482163,0.5267968331008249,-0.5110555849455627,0.4694499056183786,0.0,0.0,0.0,122,0.9116859425145517,0,1735643777088310956,map,0.9881989116761332,0.1933281102337916,0.1395993513881167,-0.4812370452344028,0.5120453121319292,-0.4888582538371099,0.5169507832212934,0.0,0.0,0.0,124,0.061348745179590256,0,1735643777088322877,map,0.996947209959312,-0.0375537907145891,0.2383569714359696,-0.5282145258052343,0.4998591312819184,-0.467326802902642,0.502728478297413,0.0,0.0,0.0,125,0.02386027761321513,0,1735643777088343858,map,0.9956320403520144,-0.0323655600919564,0.1400337001986906,-0.5079342933781171,0.5106242083095776,-0.4914774950428805,0.4896075401431898,0.0,0.0,0.0,126,0.0025629513613008633,0,1735644242188269615,map,0.96299595596641,0.3263744194968229,0.0248985581488592,-0.4961201095573976,0.4906835693156948,-0.4822819874953893,0.5296211440585269,0.0,0.0,0.0,0,0.000419074484173394,0.9174132367752488,0.4995497848349616,0.337329142607757,1.0,2.999394934464728e-05,-0.0004779849749668,-0.0003485390073148,0.0,0.0,0.0,-0.0004779849749668,0.0249678511385418,0.0018807229419001,0.0,0.0,0.0,-0.0003485390073148,0.0018807229419001,0.0048279357643743,0.0,0.0,0.0,0.0,0.0,0.0,0.0,0.0,0.0,0.0,0.0,0.0,0.0,0.0,0.0,0.0,0.0,0.0,0.0,0.0,0.0,0,0,0,1,17,,122
1.700329024,0,1735643777088230371,map,0.9812638072630462,-0.2298911304275999,0.0142888999989858,-0.497069832856895,0.5151680659876975,-0.4869818448502069,0.5003719894602444,0.0,0.0,0.0,1,4.392913911997131e-08,0,1735643777088253974,map,0.9702022830780302,-0.2504869880051753,0.1470811941349825,-0.5026663284742845,0.489583399326014,-0.4872857483552507,0.519795398952733,0.0,0.0,0.0,16,1.324413902913637e-05,0,1735643777088270664,map,0.9772237443220916,0.0514630529073176,0.0239198694788561,-0.4821762013283711,0.484055286071965,-0.5013203368100758,0.5309185538281395,0.0,0.0,0.0,17,2.370268295158755e-05,0,1735643777088284730,map,0.9992778921709848,-0.2705747459361531,0.2315507813319554,-0.1200089776164126,0.7633258746347384,-0.6280505955109713,0.092108109756359,0.0,0.0,0.0,121,5.0025442128653245e-05,0,1735643777088297367,map,0.9841139531162212,0.1935586072253544,0.2384028836910761,-0.4768683128414529,0.4798957678806033,-0.5225327566745127,0.5188990098084283,0.0,0.0,0.0,122,0.926052138625385,0,1735643777088310956,map,0.9892198290533536,0.1936839202484143,0.1399569461863519,-0.4843692036218167,0.5066318069873988,-0.4842084857886649,0.5236915399562024,0.0,0.0,0.0,124,0.050320762625357056,0,1735643777088322877,map,0.9909273591542584,-0.0388429464050184,0.2376037122967401,-0.5261170835023451,0.4962133382681389,-0.4686186955238591,0.5073161298217244,0.0,0.0,0.0,125,0.021642006203070822,0,1735643777088343858,map,0.9950130841528404,-0.035279722001243,0.138359520265197,0.4959357942744714,-0.5068310754959063,0.5099754903856228,-0.4869239653939365,0.0,0.0,0.0,126,0.0016138704272802477,0,1735644242188269615,map,0.96299595596641,0.3263744194968229,0.0248985581488592,-0.4961201095573976,0.4906835693156948,-0.4822819874953893,0.5296211440585269,0.0,0.0,0.0,0,0.00028420592565855463,0.917313259745359,0.4930188018688434,0.3402110274019304,1.0,2.8497540736094493e-05,-0.0004403301333887,-0.0003340738079282,0.0,0.0,0.0,-0.0004403301333887,0.0243058618520751,0.0014562721454987,0.0,0.0,0.0,-0.0003340738079282,0.0014562721454987,0.004700906530235,0.0,0.0,0.0,0.0,0.0,0.0,0.0,0.0,0.0,0.0,0.0,0.0,0.0,0.0,0.0,0.0,0.0,0.0,0.0,0.0,0.0,0,0,0,1,18,,122
1.800497476,0,1735643777088230371,map,0.9812638072630462,-0.2298911304275999,0.0142888999989858,-0.497069832856895,0.5151680659876975,-0.4869818448502069,0.5003719894602444,0.0,0.0,0.0,1,1.7953329673978208e-08,0,1735643777088253974,map,0.9702022830780302,-0.2504869880051753,0.1470811941349825,-0.5026663284742845,0.489583399326014,-0.4872857483552507,0.519795398952733,0.0,0.0,0.0,16,7.413955978094209e-06,0,1735643777088270664,map,0.9772237443220916,0.0514630529073176,0.0239198694788561,-0.4821762013283711,0.484055286071965,-0.5013203368100758,0.5309185538281395,0.0,0.0,0.0,17,1.5512968973784646e-05,0,1735643777088284730,map,0.9992778921709848,-0.2705747459361531,0.2315507813319554,-0.1200089776164126,0.7633258746347384,-0.6280505955109713,0.092108109756359,0.0,0.0,0.0,121,3.555108985083974e-05,0,1735643777088297367,map,0.9909420851863214,0.1952995161331696,0.2379253897078239,-0.5109601833172568,0.4919282408008694,-0.4880813214857208,0.5086284700876561,0.0,0.0,0.0,122,0.9353127288339292,0,1735643777088310956,map,0.9882581556957992,0.1940654711150038,0.140409430732905,-0.4746250511793248,0.5001418354749826,-0.4928754439206903,0.5307193250492407,0.0,0.0,0.0,124,0.045506686321037756,0,1735643777088322877,map,0.997237129798524,-0.0412071586552035,0.237356273525873,0.5212358001691552,-0.5107294515416034,0.4746906651338958,-0.4920746288773412,0.0,0.0,0.0,125,0.017823625323470402,0,1735643777088343858,map,0.9989262609830803,-0.0369051997408458,0.1370901129420755,0.4934699042233652,-0.4982570652700566,0.5139940601025715,-0.4940014744042042,0.0,0.0,0.0,126,0.0010315276343504007,0,1735644242188269615,map,0.96299595596641,0.3263744194968229,0.0248985581488592,-0.4961201095573976,0.4906835693156948,-0.4822819874953893,0.5296211440585269,0.0,0.0,0.0,0,0.00026693591907966675,0.9171115195396616,0.4878955192821907,0.3443207420728142,1.0,2.7730254161743037e-05,-0.0003985505657186,-0.000331414680227,0.0,0.0,0.0,-0.0003985505657186,0.0234990704054523,0.0010006321101339,0.0,0.0,0.0,-0.000331414680227,0.0010006321101339,0.0047575059812342,0.0,0.0,0.0,0.0,0.0,0.0,0.0,0.0,0.0,0.0,0.0,0.0,0.0,0.0,0.0,0.0,0.0,0.0,0.0,0.0,0.0,0,0,0,1,19,,122
1.899422014,0,1735643777088230371,map,0.9812638072630462,-0.2298911304275999,0.0142888999989858,-0.497069832856895,0.5151680659876975,-0.4869818448502069,0.5003719894602444,0.0,0.0,0.0,1,7.85044002945678e-09,0,1735643777088253974,map,0.9702022830780302,-0.2504869880051753,0.1470811941349825,-0.5026663284742845,0.489583399326014,-0.4872857483552507,0.519795398952733,0.0,0.0,0.0,16,5.3331663462254655e-06,0,1735643777088270664,map,0.9772237443220916,0.0514630529073176,0.0239198694788561,-0.4821762013283711,0.484055286071965,-0.5013203368100758,0.5309185538281395,0.0,0.0,0.0,17,8.528956924113962e-06,0,1735643777088284730,map,0.9992778921709848,-0.2705747459361531,0.2315507813319554,-0.1200089776164126,0.7633258746347384,-0.6280505955109713,0.092108109756359,0.0,0.0,0.0,121,3.250878301651436e-05,0,1735643777088297367,map,0.9875470932910562,0.1943634134914303,0.2369391909709517,-0.4790890225096672,0.4743340524029434,-0.5179928689553313,0.5264639616850884,0.0,0.0,0.0,122,0.94816212897455,0,1735643777088310956,map,0.9900335565018952,0.1936408324589974,0.1381830606167596,-0.4821709047599419,0.4954158276896498,-0.4851584423087132,0.5354396904732984,0.0,0.0,0.0,124,0.03437831237419411,0,1735643777088322877,map,0.9982257273709974,-0.042730624167678,0.2356680712888605,0.5199064990153691,-0.5196661495772702,0.464681880642637,-0.4936750703322362,0.0,0.0,0.0,125,0.016582658899422602,0,1735643777088343858,map,1.0019451785694071,-0.0392396563288153,0.1342963869766624,-0.5004493415427611,0.5073405242692552,-0.5009015715008808,0.4911757981126125,0.0,0.0,0.0,126,0.0006614452527904903,0,1735644242188269615,map,0.96299595596641,0.3263744194968229,0.0248985581488592,-0.4961201095573976,0.4906835693156948,-0.4822819874953893,0.5296211440585269,0.0,0.0,0.0,0,0.0001690757423159803,0.9170912179882972,0.4815776388938108,0.3459628204922712,1.0,2.6351572360424307e-05,-0.0003761860447415,-0.0003154773442639,0.0,0.0,0.0,-0.0003761860447415,0.0230825135246153,0.0007534858588203,0.0,0.0,0.0,-0.0003154773442639,0.0007534858588203,0.0045708626913497,0.0,0.0,0.0,0.0,0.0,0.0,0.0,0.0,0.0,0.0,0.0,0.0,0.0,0.0,0.0,0.0,0.0,0.0,0.0,0.0,0.0,0,0,0,1,20,,122
2.001356869,0,1735643777088230371,map,0.9812638072630462,-0.2298911304275999,0.0142888999989858,-0.497069832856895,0.5151680659876975,-0.4869818448502069,0.5003719894602444,0.0,0.0,0.0,1,7.447896526149924e-09,0,1735643777088253974,map,0.9702022830780302,-0.2504869880051753,0.1470811941349825,-0.5026663284742845,0.489583399326014,-0.4872857483552507,0.519795398952733,0.0,0.0,0.0,16,6.570180053756943e-06,0,1735643777088270664,map,0.9772237443220916,0.0514630529073176,0.0239198694788561,-0.4821762013283711,0.484055286071965,-0.5013203368100758,0.5309185538281395,0.0,0.0,0.0,17,6.726785143001154e-06,0,1735643777088284730,map,0.9992778921709848,-0.2705747459361531,0.2315507813319554,-0.1200089776164126,0.7633258746347384,-0.6280505955109713,0.092108109756359,0.0,0.0,0.0,121,4.28570980657969e-05,0,1735643777088297367,map,0.985312734360863,0.1927637055772036,0.2352993619669137,-0.4920931325364994,0.4857804420348179,-0.507121721610223,0.5144796113724582,0.0,0.0,0.0,122,0.9470928480089155,0,1735643777088310956,map,0.9837095083963954,0.1917356610394791,0.1382554228132533,-0.4719751161732411,0.5036880322618661,-0.4972156739998104,0.5256561893465528,0.0,0.0,0.0,124,0.03210592586778332,0,1735643777088322877,map,0.991182923154026,-0.0421210176158912,0.2349798340645237,0.5208280027207193,-0.5054308712501276,0.4728349890430652,-0.499704811969954,0.0,0.0,0.0,125,0.019759557008089904,0,1735643777088343858,map,0.9883950517495178,-0.0365427348037892,0.1369954783785404,-0.504996984143746,0.4840231218051121,-0.5012188247671109,0.5093911593881769,0.0,0.0,0.0,126,0.0008758357984388674,0,1735644242188269615,map,0.96299595596641,0.3263744194968229,0.0248985581488592,-0.4961201095573976,0.4906835693156948,-0.4822819874953893,0.5296211440585269,0.0,0.0,0.0,0,0.00010967180561328144,0.9172530878126144,0.4739546867284266,0.3451496663089424,1.0,2.5620772381846837e-05,-0.0003829509421191,-0.0003030871160806,0.0,0.0,0.0,-0.0003829509421191,0.0231455342082341,0.0008415782886808,0.0,0.0,0.0,-0.0003030871160806,0.0008415782886808,0.0043664269577075,0.0,0.0,0.0,0.0,0.0,0.0,0.0,0.0,0.0,0.0,0.0,0.0,0.0,0.0,0.0,0.0,0.0,0.0,0.0,0.0,0.0,0,0,0,1,21,,122
2.100275085,0,1735643777088230371,map,0.9812638072630462,-0.2298911304275999,0.0142888999989858,-0.497069832856895,0.5151680659876975,-0.4869818448502069,0.5003719894602444,0.0,0.0,0.0,1,3.850744026199969e-09,0,1735643777088253974,map,0.9702022830780302,-0.2504869880051753,0.1470811941349825,-0.5026663284742845,0.489583399326014,-0.4872857483552507,0.519795398952733,0.0,0.0,0.0,16,5.618566551402818e-06,0,1735643777088270664,map,0.9772237443220916,0.0514630529073176,0.0239198694788561,-0.4821762013283711,0.484055286071965,-0.5013203368100758,0.5309185538281395,0.0,0.0,0.0,17,3.796395891431848e-06,0,1735643777088284730,map,0.9992778921709848,-0.2705747459361531,0.2315507813319554,-0.1200089776164126,0.7633258746347384,-0.6280505955109713,0.092108109756359,0.0,0.0,0.0,121,4.6293279785464896e-05,0,1735643777088297367,map,0.978658199302294,0.1908143235332678,0.23501886330779,-0.491057609222114,0.4832078751863144,-0.5074669239094812,0.5175421672876886,0.0,0.0,0.0,122,0.9520245518470454,0,1735643777088310956,map,0.9791460764197668,0.189911510381512,0.1380667697474194,-0.47649680052373,0.5121682658555282,-0.491954598762335,0.5182809463001509,0.0,0.0,0.0,124,0.026213461047416918,0,1735643777088322877,map,0.984118403181152,-0.0421264262647683,0.2345684267995383,-0.5197457177516329,0.5011632235592409,-0.4757071458566628,0.5023967790615884,0.0,0.0,0.0,125,0.02092854207218556,0,1735643777088343858,map,0.9836551874747468,-0.0374652665048309,0.1367808861739067,-0.5049648481793734,0.496168394718896,-0.4965201272517217,0.5022899455684839,0.0,0.0,0.0,126,0.0007126224062535582,0,1735644242188269615,map,0.96299595596641,0.3263744194968229,0.0248985581488592,-0.4961201095573976,0.4906835693156948,-0.4822819874953893,0.5296211440585269,0.0,0.0,0.0,0,6.511053412620211e-05,0.9172876277835372,0.4670662528061153,0.346090230354352,1.0,2.4481245020453645e-05,-0.0003705405335686,-0.0002886282008356,0.0,0.0,0.0,-0.0003705405335686,0.0230899254314392,0.0006672654512978,0.0,0.0,0.0,-0.0002886282008356,0.0006672654512978,0.0041865308802783,0.0,0.0,0.0,0.0,0.0,0.0,0.0,0.0,0.0,0.0,0.0,0.0,0.0,0.0,0.0,0.0,0.0,0.0,0.0,0.0,0.0,0,0,0,1,22,,122
2.200243447,0,1735643777088230371,map,0.9812638072630462,-0.2298911304275999,0.0142888999989858,-0.497069832856895,0.5151680659876975,-0.4869818448502069,0.5003719894602444,0.0,0.0,0.0,1,2.3101939866184663e-09,0,1735643777088253974,map,0.9702022830780302,-0.2504869880051753,0.1470811941349825,-0.5026663284742845,0.489583399326014,-0.4872857483552507,0.519795398952733,0.0,0.0,0.0,16,3.268937493371993e-06,0,1735643777088270664,map,0.9772237443220916,0.0514630529073176,0.0239198694788561,-0.4821762013283711,0.484055286071965,-0.5013203368100758,0.5309185538281395,0.0,0.0,0.0,17,3.951253206889444e-06,0,1735643777088284730,map,0.9992778921709848,-0.2705747459361531,0.2315507813319554,-0.1200089776164126,0.7633258746347384,-0.6280505955109713,0.092108109756359,0.0,0.0,0.0,121,3.108535311866419e-05,0,1735643777088297367,map,0.9817248121054478,0.1912462032240324,0.2348664323122716,-0.4865355918192823,0.4865044890750557,-0.5091645250814392,0.5170570436629521,0.0,0.0,0.0,122,0.9526218078756085,0,1735643777088310956,map,0.9761108305435556,0.1895177901619299,0.1390546807041784,-0.4781031651439402,0.5040140594424374,-0.4915747411811419,0.5251109075199206,0.0,0.0,0.0,124,0.028712253994263442,0,1735643777088322877,map,0.9813964712371032,-0.0422508338426305,0.2350886481286225,0.5162062571415745,-0.5059122550432319,0.4790458109143941,-0.4980953737290972,0.0,0.0,0.0,125,0.017954081351728303,0,1735643777088343858,map,0.9816453844156624,-0.0377499649591324,0.1370364477950469,0.4955667471271626,-0.5035036209916993,0.5105822752102765,-0.4901055427468126,0.0,0.0,0.0,126,0.0005646624707019018,0,1735644242188269615,map,0.96299595596641,0.3263744194968229,0.0248985581488592,-0.4961201095573976,0.4906835693156948,-0.4822819874953893,0.5296211440585269,0.0,0.0,0.0,0,0.00010888645368503107,0.917034342684413,0.4625777541203027,0.3508384290665788,1.0,2.482821657468522e-05,-0.0003294189392272,-0.0003025374042181,0.0,0.0,0.0,-0.0003294189392272,0.0225292412800282,0.0001693836689812,0.0,0.0,0.0,-0.0003025374042181,0.0001693836689812,0.0045005064007645,0.0,0.0,0.0,0.0,0.0,0.0,0.0,0.0,0.0,0.0,0.0,0.0,0.0,0.0,0.0,0.0,0.0,0.0,0.0,0.0,0.0,0,0,0,1,23,,122
2.298728053,0,1735643777088230371,map,0.9812638072630462,-0.2298911304275999,0.0142888999989858,-0.497069832856895,0.5151680659876975,-0.4869818448502069,0.5003719894602444,0.0,0.0,0.0,1,2.493983496580775e-08,0,1735643777088253974,map,0.9702022830780302,-0.2504869880051753,0.1470811941349825,-0.5026663284742845,0.489583399326014,-0.4872857483552507,0.519795398952733,0.0,0.0,0.0,16,3.7050268600475687e-06,0,1735643777088270664,map,0.9772237443220916,0.0514630529073176,0.0239198694788561,-0.4821762013283711,0.484055286071965,-0.5013203368100758,0.5309185538281395,0.0,0.0,0.0,17,6.159725167617153e-05,0,1735643777088284730,map,0.9992778921709848,-0.2705747459361531,0.2315507813319554,-0.1200089776164126,0.7633258746347384,-0.6280505955109713,0.092108109756359,0.0,0.0,0.0,121,1.6958371551117444e-05,0,1735643777088297367,map,0.9801949882531502,0.1907307278041087,0.2356479546179602,0.489379034538305,-0.4979056388096913,0.5125607501967183,-0.4998795982570679,0.0,0.0,0.0,122,0.9128493334580371,0,1735643777088310956,map,0.9766423966652236,0.189353840578268,0.1388704490367637,-0.4822717438240799,0.5037570423795523,-0.4881593636798501,0.5247315914003764,0.0,0.0,0.0,124,0.07055581834122183,0,1735643777088322877,map,0.9814241054617052,-0.0431941617285681,0.2350977377241992,-0.5083154931674817,0.5054786150754226,-0.4840471064269156,0.5018018810915952,0.0,0.0,0.0,125,0.013036172812759771,0,1735643777088343858,map,0.9830908726932136,-0.039517808411664,0.1361887268720699,0.496614013259305,-0.5020658405226464,0.5096648729525423,-0.4914734284710058,0.0,0.0,0.0,126,0.0009839102562208078,0,1735644242188269615,map,0.96299595596641,0.3263744194968229,0.0248985581488592,-0.4961201095573976,0.4906835693156948,-0.4822819874953893,0.5296211440585269,0.0,0.0,0.0,0,0.0024924795418382936,0.9163636089292898,0.4608636985412834,0.3612585979138527,1.0,3.414103426675393e-05,-0.0002892506265876,-0.0004506823355812,0.0,0.0,0.0,-0.0002892506265876,0.0216580965835036,-0.0002484712004737,0.0,0.0,0.0,-0.0004506823355812,-0.0002484712004737,0.0068103234332637,0.0,0.0,0.0,0.0,0.0,0.0,0.0,0.0,0.0,0.0,0.0,0.0,0.0,0.0,0.0,0.0,0.0,0.0,0.0,0.0,0.0,0,0,0,0,24,,122
2.400322533,0,1735643777088230371,map,0.9812638072630462,-0.2298911304275999,0.0142888999989858,-0.497069832856895,0.5151680659876975,-0.4869818448502069,0.5003719894602444,0.0,0.0,0.0,1,8.809590956323158e-05,0,1735643777088253974,map,0.9702022830780302,-0.2504869880051753,0.1470811941349825,-0.5026663284742845,0.489583399326014,-0.4872857483552507,0.519795398952733,0.0,0.0,0.0,16,5.948290682991098e-05,0,1735643777088270664,map,0.9772237443220916,0.0514630529073176,0.0239198694788561,-0.4821762013283711,0.484055286071965,-0.5013203368100758,0.5309185538281395,0.0,0.0,0.0,17,0.02794383610589022,0,1735643777088284730,map,0.9992778921709848,-0.2705747459361531,0.2315507813319554,-0.1200089776164126,0.7633258746347384,-0.6280505955109713,0.092108109756359,0.0,0.0,0.0,121,2.478213854610579e-05,0,1735643777088297367,map,0.9767271164574108,0.1897841905979563,0.2353056609185925,-0.4894412771508219,0.4850404998812858,-0.5076772787286179,0.517152521369266,0.0,0.0,0.0,122,0.4244538050775776,0,1735643777088310956,map,0.974326651516452,0.1886986339818692,0.1387741641513363,-0.4826548951504727,0.5088597492439264,-0.4882194753969563,0.5193724594448716,0.0,0.0,0.0,124,0.29463412972727926,0,1735643777088322877,map,0.9752685723562224,-0.0419290526896774,0.2355638911915225,-0.5002094130577847,0.5051719960895907,-0.4980422984480157,0.4965336508353311,0.0,0.0,0.0,125,0.010472800595513133,0,1735643777088343858,map,0.9744531795827868,-0.0369660609694147,0.1387795567115259,-0.4944559750537418,0.4892061159289709,-0.5128088274545434,0.5032074834062386,0.0,0.0,0.0,126,0.011257135539127,0,1735644242188269615,map,0.96299595596641,0.3263744194968229,0.0248985581488592,-0.4961201095573976,0.4906835693156948,-0.4822819874953893,0.5296211440585269,0.0,0.0,0.0,0,0.23106593199967354,0.9140861832476525,0.4740564607987872,0.3926139802052272,1.0,0.0001572554185452,-0.0009987734553715,-0.0021464843114684,0.0,0.0,0.0,-0.0009987734553715,0.0249689481437558,0.0096894061450631,0.0,0.0,0.0,-0.0021464843114684,0.0096894061450631,0.0301337504632511,0.0,0.0,0.0,0.0,0.0,0.0,0.0,0.0,0.0,0.0,0.0,0.0,0.0,0.0,0.0,0.0,0.0,0.0,0.0,0.0,0.0,0,0,0,0,25,,122
2.500101188,0,1735643777088230371,map,0.9812638072630462,-0.2298911304275999,0.0142888999989858,-0.497069832856895,0.5151680659876975,-0.4869818448502069,0.5003719894602444,0.0,0.0,0.0,1,8.90432219603498e-05,0,1735643777088253974,map,0.9702022830780302,-0.2504869880051753,0.1470811941349825,-0.5026663284742845,0.489583399326014,-0.4872857483552507,0.519795398952733,0.0,0.0,0.0,16,6.0122538060645455e-05,0,1735643777088270664,map,0.9772237443220916,0.0514630529073176,0.0239198694788561,-0.4821762013283711,0.484055286071965,-0.5013203368100758,0.5309185538281395,0.0,0.0,0.0,17,0.02824432159377941,0,1735643777088284730,map,0.9992778921709848,-0.2705747459361531,0.2315507813319554,-0.1200089776164126,0.7633258746347384,-0.6280505955109713,0.092108109756359,0.0,0.0,0.0,121,2.5048625687089072e-05,0,1735643777088297367,map,0.9697558563658348,0.1885427335191977,0.2350074625581525,-0.4924228207505369,0.4858513465262162,-0.5050077508770519,0.5161738139782456,0.0,0.0,0.0,122,0.4239341511558061,0,1735643777088310956,map,0.9741926732418033,0.1879523457732801,0.1366242044610898,-0.488613046934204,0.510310365280767,-0.4785479019499997,0.5213756102772136,0.0,0.0,0.0,124,0.29227325703033463,0,1735643777088322877,map,0.9740590617418788,-0.0424206747206629,0.2341990326985408,-0.5045044984519953,0.5080317386318677,-0.492887966041159,0.4944091590132524,0.0,0.0,0.0,125,0.010499640413858154,0,1735643777088343858,map,0.9721877508874278,-0.0371534374262071,0.1378273484373525,-0.5064484685794041,0.4908021572827907,-0.4956989431493386,0.5068587069793355,0.0,0.0,0.0,126,0.011323786650919574,0,1735644242188269615,map,0.96299595596641,0.3263744194968229,0.0248985581488592,-0.4961201095573976,0.4906835693156948,-0.4822819874953893,0.5296211440585269,0.0,0.0,0.0,0,0.23355062876959404,0.9140861832476525,0.4740564607987872,0.3926139802052272,1.0,0.0001572554185452,-0.0009987734553715,-0.0021464843114684,0.0,0.0,0.0,-0.0009987734553715,0.0249689481437558,0.0096894061450631,0.0,0.0,0.0,-0.0021464843114684,0.0096894061450631,0.0301337504632511,0.0,0.0,0.0,0.0,0.0,0.0,0.0,0.0,0.0,0.0,0.0,0.0,0.0,0.0,0.0,0.0,0.0,0.0,0.0,0.0,0.0,0,0,0,0,25,,122
