%time,field.boxes0.header.seq,field.boxes0.header.stamp,field.boxes0.header.frame_id,field.boxes0.pose.position.x,field.boxes0.pose.position.y,field.boxes0.pose.position.z,field.boxes0.pose.orientation.x,field.boxes0.pose.orientation.y,field.boxes0.pose.orientation.z,field.boxes0.pose.orientation.w,field.boxes0.scale.x,field.boxes0.scale.y,field.boxes0.scale.z,field.boxes0.id,field.boxes0.pdf,field.boxes1.header.seq,field.boxes1.header.stamp,field.boxes1.header.frame_id,field.boxes1.pose.position.x,field.boxes1.pose.position.y,field.boxes1.pose.position.z,field.boxes1.pose.orientation.x,field.boxes1.pose.orientation.y,field.boxes1.pose.orientation.z,field.boxes1.pose.orientation.w,field.boxes1.scale.x,field.boxes1.scale.y,field.boxes1.scale.z,field.boxes1.id,field.boxes1.pdf,field.boxes2.header.seq,field.boxes2.header.stamp,field.boxes2.header.frame_id,field.boxes2.pose.position.x,field.boxes2.pose.position.y,field.boxes2.pose.position.z,field.boxes2.pose.orientation.x,field.boxes2.pose.orientation.y,field.boxes2.pose.orientation.z,field.boxes2.pose.orientation.w,field.boxes2.scale.x,field.boxes2.scale.y,field.boxes2.scale.z,field.boxes2.id,field.boxes2.pdf,field.boxes3.header.seq,field.boxes3.header.stamp,field.boxes3.header.frame_id,field.boxes3.pose.position.x,field.boxes3.pose.position.y,field.boxes3.pose.position.z,field.boxes3.pose.orientation.x,field.boxes3.pose.orientation.y,field.boxes3.pose.orientation.z,field.boxes3.pose.orientation.w,field.boxes3.scale.x,field.boxes3.scale.y,field.boxes3.scale.z,field.boxes3.id,field.boxes3.pdf,field.boxes4.header.seq,field.boxes4.header.stamp,field.boxes4.header.frame_id,field.boxes4.pose.position.x,field.boxes4.pose.position.y,field.boxes4.pose.position.z,field.boxes4.pose.orientation.x,field.boxes4.pose.orientation.y,field.boxes4.pose.orientation.z,field.boxes4.pose.orientation.w,field.boxes4.scale.x,field.boxes4.scale.y,field.boxes4.scale.z,field.boxes4.id,field.boxes4.pdf,field.boxes5.header.seq,field.boxes5.header.stamp,field.boxes5.header.frame_id,field.boxes5.pose.position.x,field.boxes5.pose.position.y,field.boxes5.pose.position.z,field.boxes5.pose.orientation.x,field.boxes5.pose.orientation.y,field.boxes5.pose.orientation.z,field.boxes5.pose.orientation.w,field.boxes5.scale.x,field.boxes5.scale.y,field.boxes5.scale.z,field.boxes5.id,field.boxes5.pdf,field.boxes6.header.seq,field.boxes6.header.stamp,field.boxes6.header.frame_id,field.boxes6.pose.position.x,field.boxes6.pose.position.y,field.boxes6.pose.position.z,field.boxes6.pose.orientation.x,field.boxes6.pose.orientation.y,field.boxes6.pose.orientation.z,field.boxes6.pose.orientation.w,field.boxes6.scale.x,field.boxes6.scale.y,field.boxes6.scale.z,field.boxes6.id,field.boxes6.pdf,field.boxes7.header.seq,field.boxes7.header.stamp,field.boxes7.header.frame_id,field.boxes7.pose.position.x,field.boxes7.pose.position.y,field.boxes7.pose.position.z,field.boxes7.pose.orientation.x,field.boxes7.pose.orientation.y,field.boxes7.pose.orientation.z,field.boxes7.pose.orientation.w,field.boxes7.scale.x,field.boxes7.scale.y,field.boxes7.scale.z,field.boxes7.id,field.boxes7.pdf,field.boxes8.header.seq,field.boxes8.header.stamp,field.boxes8.header.frame_id,field.boxes8.pose.position.x,field.boxes8.pose.position.y,field.boxes8.pose.position.z,field.boxes8.pose.orientation.x,field.boxes8.pose.orientation.y,field.boxes8.pose.orientation.z,field.boxes8.pose.orientation.w,field.boxes8.scale.x,field.boxes8.scale.y,field.boxes8.scale.z,field.boxes8.id,field.boxes8.pdf,field.pose.pose.position.x,field.pose.pose.position.y,field.pose.pose.position.z,field.pose.pose.orientation.w,field.pose.covariance0,field.pose.covariance1,field.pose.covariance2,field.pose.covariance3,field.pose.covariance4,field.pose.covariance5,field.pose.covariance6,field.pose.covariance7,field.pose.covariance8,field.pose.covariance9,field.pose.covariance10,field.pose.covariance11,field.pose.covariance12,field.pose.covariance13,field.pose.covariance14,field.pose.covariance15,field.pose.covariance16,field.pose.covariance17,field.pose.covariance18,field.pose.covariance19,field.pose.covariance20,field.pose.covariance21,field.pose.covariance22,field.pose.covariance23,field.pose.covariance24,field.pose.covariance25,field.pose.covariance26,field.pose.covariance27,field.pose.covariance28,field.pose.covariance29,field.pose.covariance30,field.pose.covariance31,field.pose.covariance32,field.pose.covariance33,field.pose.covariance34,field.pose.covariance35,field.buttons0,field.buttons1,field.buttons2,field.buttons3,intersection_length,vacuum,desired_box
0.0,0,1735643777088230371,map,0.9804646521262916,-0.221801575137039,0.0216182755679167,-0.4872465694025623,0.4986187110002888,-0.5045144679023995,0.5093479295363862,0.0,0.0,0.0,1,0.1111111111111111,0,1735643777088253974,map,0.981256578843034,-0.2504800638376491,0.1483916694581246,-0.5269709413943028,0.4926981233282418,-0.4671726531510149,0.5111750173303395,0.0,0.0,0.0,16,0.1111111111111111,0,1735643777088270664,map,0.9826618710794008,0.0538756682810067,0.0266221936511024,-0.4991304938861396,0.4821542987503384,-0.4902744414872171,0.527282613305185,0.0,0.0,0.0,17,0.1111111111111111,0,1735643777088284730,map,1.0101659298413366,-0.2586816015329147,0.2374374796498476,-0.489615611891665,0.4992934083207572,-0.4928552938541548,0.5177608563027213,0.0,0.0,0.0,121,0.1111111111111111,0,1735643777088297367,map,1.0068653196210933,0.2028248948826998,0.2424366952206122,0.5302107943639727,-0.4984557227373443,0.481774656847262,-0.4881716768003035,0.0,0.0,0.0,122,0.1111111111111111,0,1735643777088310956,map,1.0139267387686604,0.2094956340361104,0.1439640348707562,-0.5069120766268923,0.504683539132493,-0.4625551123348572,0.5238105000392803,0.0,0.0,0.0,124,0.1111111111111111,0,1735643777088322877,map,1.0028475094412128,-0.0283384740504768,0.2429202736455268,-0.5897152907223578,0.4771665872359936,-0.4055484985540672,0.5099787635130915,0.0,0.0,0.0,125,0.1111111111111111,0,1735643777088343858,map,1.003755329470313,-0.0218138743971144,0.1452449196998237,0.5087345208913163,-0.5014699426565173,0.4923848675673976,-0.4972667554303108,0.0,0.0,0.0,126,0.1111111111111111,0,1735644242188269615,map,0.979060752818632,0.3324039692314281,0.0247148455891838,-0.5026666254522976,0.4917760744089498,-0.4822193219857304,0.5224433766437714,0.0,0.0,0.0,0,0.1111111111111111,0.9531703749623268,-0.2517524504551659,-0.0397567108014061,1.0,0.0,0.0,0.0,0.0,0.0,0.0,0.0,0.0,0.0,0.0,0.0,0.0,0.0,0.0,0.0,0.0,0.0,0.0,0.0,0.0,0.0,0.0,0.0,0.0,0.0,0.0,0.0,0.0,0.0,0.0,0.0,0.0,0.0,0.0,0.0,0.0,0,0,0,1,1,,1
0.0993402,0,1735643777088230371,map,0.9801083357259456,-0.2217357734057594,0.0222340898758059,-0.4914144058002811,0.5037134126517766,-0.4927726091144159,0.5118201201528016,0.0,0.0,0.0,1,,0,1735643777088253974,map,0.9792881029837796,-0.2498590835947659,0.1493424893096779,-0.5097833374578837,0.4781481324540708,-0.4821262061000149,0.5282514871465972,0.0,0.0,0.0,16,,0,1735643777088270664,map,0.9850634909286542,0.0541087250980261,0.0261521782172118,-0.4981794395613703,0.4813441887960829,-0.4907070834033414,0.5285182837029818,0.0,0.0,0.0,17,,0,1735643777088284730,map,1.0087734722788526,-0.2582621311798323,0.237647180474247,-0.5145161649370623,0.5311966724440241,-0.4594136504248033,0.4919779558132764,0.0,0.0,0.0,121,,0,1735643777088297367,map,1.0162778598274975,0.2072346031654597,0.2429493922394461,-0.5230237907118519,0.4875027987747646,-0.4886054917083721,0.5000518063247009,0.0,0.0,0.0,122,,0,1735643777088310956,map,1.0095077577921958,0.2072405664905925,0.144777078011752,-0.4802106732221113,0.4970978044001419,-0.486879290791921,0.534078681827014,0.0,0.0,0.0,124,,0,1735643777088322877,map,0.9955778405583338,-0.028793799231223,0.2428501641071458,-0.4225221278144525,0.4915518134508191,-0.5627792033494452,0.5129633851238528,0.0,0.0,0.0,125,,0,1735643777088343858,map,1.0092735428145132,-0.021117721953061,0.1452932306483083,-0.5172475554411909,0.4886688018773719,-0.4849452213329582,0.5084150870776496,0.0,0.0,0.0,126,,0,1735644242188269615,map,0.9731849049160108,0.3273420521003049,0.0272074037199422,0.8514633448461371,-0.1940181231082127,0.0983319593876083,-0.4771770803925817,0.0,0.0,0.0,0,,0.9487106982861936,-0.160253611945147,0.0077406901666299,1.0,1.9888716055647712e-05,-0.0004080552359964,-0.0002118230512741,0.0,0.0,0.0,-0.0004080552359964,0.0083720374486825,0.0043459570208199,0.0,0.0,0.0,-0.0002118230512741,0.0043459570208199,0.0022560030987184,0.0,0.0,0.0,0.0,0.0,0.0,0.0,0.0,0.0,0.0,0.0,0.0,0.0,0.0,0.0,0.0,0.0,0.0,0.0,0.0,0.0,0,0,0,1,2,,1
0.199370305,0,1735643777088230371,map,0.9716961559031362,-0.2198250878843548,0.0255047901783034,-0.4972096492797617,0.4842694680071491,-0.4822285656533964,0.5345290052813204,0.0,0.0,0.0,1,0.5144421296647809,0,1735643777088253974,map,0.9823232041681876,-0.2503337188219917,0.14984414114781,-0.5048229070221155,0.486126089758528,-0.4880843656729723,0.5202008356273919,0.0,0.0,0.0,16,0.09178180233336382,0,1735643777088270664,map,0.9794538715336792,0.0532099324092082,0.0289573097900668,0.748756308108175,-0.4668131036228835,0.2379871097647573,-0.405970014828687,0.0,0.0,0.0,17,0.001771114471036716,0,1735643777088284730,map,1.0119838976862148,-0.2590516360761716,0.2384636600859364,-0.4893518852248103,0.4926033460744106,-0.5026732230644535,0.5149721416515781,0.0,0.0,0.0,121,0.009381956371103638,0,1735643777088297367,map,1.010817924656362,0.2049743150704513,0.2435255940589499,-0.5102136675907023,0.4927439969702532,-0.4898939342966597,0.5068424804540007,0.0,0.0,0.0,122,8.7108174275926e-06,0,1735643777088310956,map,1.0108879832854498,0.208471388701721,0.145325474599072,-0.5009882354563732,0.5032723614413683,-0.4659325410940538,0.5278584898371689,0.0,0.0,0.0,124,9.123932157615872e-07,0,1735643777088322877,map,0.9954586653322958,-0.0283399253203477,0.2439279128613964,0.5642995475750208,-0.5188203325180664,0.4378432245889467,-0.4697710015039488,0.0,0.0,0.0,125,0.19111727271840323,0,1735643777088343858,map,1.003382738195944,-0.0216679799732149,0.1462828236348841,-0.5067857698479199,0.5084926436889837,-0.5016252725698761,0.4826753574743969,0.0,0.0,0.0,126,0.1914961012306307,0,1735644242188269615,map,0.9772967615809725,0.3310386057699114,0.0263777145256801,-0.5112731730813437,0.5000995522979402,-0.4814352918019816,0.5066756754436468,0.0,0.0,0.0,0,3.741947815578061e-14,0.9436206407499642,-0.1480496594051422,0.08147918295918,1.0,6.507651548134789e-05,-0.0003962744651936,-0.0008918817094138,0.0,0.0,0.0,-0.0003962744651936,0.005879231214319,0.0046971068133701,0.0,0.0,0.0,-0.0008918817094138,0.0046971068133701,0.0123787327044461,0.0,0.0,0.0,0.0,0.0,0.0,0.0,0.0,0.0,0.0,0.0,0.0,0.0,0.0,0.0,0.0,0.0,0.0,0.0,0.0,0.0,0,0,0,1,3,,1
0.301183841,0,1735643777088230371,map,0.9878680427976642,-0.22357658921196,0.0199242247015156,0.4799867078554814,-0.506382701173539,0.5176385380815463,-0.49521678498113,0.0,0.0,0.0,1,0.5744255499483057,0,1735643777088253974,map,0.9748995682884614,-0.2490657346550537,0.1496533761046934,-0.5153358068452596,0.4739036059427965,-0.487888232019911,0.5213534803893093,0.0,0.0,0.0,16,0.07145913149361774,0,1735643777088270664,map,0.9912896849406616,0.055530633932592,0.0243027095275457,-0.4969734794194109,0.5040580455303937,-0.4854018624385177,0.5131548298818425,0.0,0.0,0.0,17,0.00020923569226526283,0,1735643777088284730,map,1.0112188164386091,-0.259219766504259,0.2377968752900895,-0.4827311302546147,0.5209140819319124,-0.4895891370369609,0.5058869953097623,0.0,0.0,0.0,121,0.0035444108814109802,0,1735643777088297367,map,1.021140365625405,0.2096820801244386,0.2434539809415382,-0.5166285918119868,0.4649245575598465,-0.4970069597909626,0.5195422368003288,0.0,0.0,0.0,122,1.6545392202476187e-07,0,1735643777088310956,map,1.0027420418798367,0.2045340771964197,0.1454924395487372,-0.470815574584479,0.4973690316700279,-0.4994578761816286,0.5305643891031917,0.0,0.0,0.0,124,1.9006555694112517e-08,0,1735643777088322877,map,0.9970936020871152,-0.0289151061084125,0.2433001201719737,-0.5073630315385269,0.4945656910864359,-0.491003767188435,0.5068558296350133,0.0,0.0,0.0,125,0.17835297549411777,0,1735643777088343858,map,0.9980590933027114,-0.0229571205922562,0.1464852828818737,-0.511525761424895,0.4883036252473138,-0.4879521874375828,0.5116674972517707,0.0,0.0,0.0,126,0.17200851202980483,0,1735644242188269615,map,0.9743795147079296,0.3291740678022434,0.0265291742600863,-0.4858968534038322,0.4926311069472965,-0.4891416648372563,0.5309983729168798,0.0,0.0,0.0,0,2.2473848970004712e-18,0.9433274158859186,-0.1475717506490971,0.0857747300963547,1.0,4.9065329073694616e-05,-0.0002976262530853,-0.0006726899657363,0.0,0.0,0.0,-0.0002976262530853,0.0044101086010766,0.0035289887487942,0.0,0.0,0.0,-0.0006726899657363,0.0035289887487942,0.0093394047039577,0.0,0.0,0.0,0.0,0.0,0.0,0.0,0.0,0.0,0.0,0.0,0.0,0.0,0.0,0.0,0.0,0.0,0.0,0.0,0.0,0.0,0,0,0,1,4,,1
0.399294688,0,1735643777088230371,map,0.9765008307458036,-0.2213481420450456,0.0232056009077892,-0.4845825637841934,0.4933816146852747,-0.5133816518075187,0.5081275437862749,0.0,0.0,0.0,1,0.7170369832234157,0,1735643777088253974,map,0.990019028751777,-0.2531717078458147,0.1476879867385913,-0.5000438442821995,0.505109461345691,-0.4933058104285043,0.5014678087893797,0.0,0.0,0.0,16,0.038905235967016207,0,1735643777088270664,map,0.989935000572042,0.0550905816039475,0.0246091350838631,-0.4994034330368536,0.5016823896837003,-0.4944345474353784,0.5044258808334773,0.0,0.0,0.0,17,3.0766979597932e-05,0,1735643777088284730,map,1.0095396403810055,-0.259056554691471,0.2374526000005127,-0.4906411954715012,0.5076859497439502,-0.4897926539773443,0.5114971650446453,0.0,0.0,0.0,121,0.0010054996886923696,0,1735643777088297367,map,1.0171374291996331,0.2077537299279965,0.2432095522016182,-0.505814902796535,0.4725210609429085,-0.4951907369197744,0.5250345370955808,0.0,0.0,0.0,122,4.5573776259325675e-09,0,1735643777088310956,map,1.0058850427624215,0.2058539348495647,0.1449354764437816,-0.4866784848793271,0.4991725995572669,-0.4824359477265622,0.5303077639899089,0.0,0.0,0.0,124,1.9489733341808704e-10,0,1735643777088322877,map,1.000848663836728,-0.028678456081019,0.2430270844378652,-0.5050342502708356,0.5060730619376007,-0.4937081604320089,0.4950582938981208,0.0,0.0,0.0,125,0.12479923551280146,0,1735643777088343858,map,1.003097396917881,-0.0223476986814026,0.1451613537040737,-0.5368470429728641,0.4560195964175921,-0.4577032665621695,0.5425394915697362,0.0,0.0,0.0,126,0.11822227387620136,0,1735644242188269615,map,0.9828530182056976,0.3349699595078438,0.023826263090621,-0.5131331972745712,0.4912030903538956,-0.4730924412860092,0.5211500627262772,0.0,0.0,0.0,0,2.2191999997407672e-23,0.9439672902568722,-0.152191648190577,0.0771583511700584,1.0,4.089002010136863e-05,-0.0002499256186011,-0.0005602055727704,0.0,0.0,0.0,-0.0002499256186011,0.0036134606940363,0.0029824181503075,0.0,0.0,0.0,-0.0005602055727704,0.0029824181503075,0.0077684917063722,0.0,0.0,0.0,0.0,0.0,0.0,0.0,0.0,0.0,0.0,0.0,0.0,0.0,0.0,0.0,0.0,0.0,0.0,0.0,0.0,0.0,0,0,0,1,5,,1
0.499014216,0,1735643777088230371,map,0.978187591895463,-0.2226153045093529,0.0229309301530497,-0.484487438490255,0.4890298559005298,-0.5021557747709514,0.5234131254059686,0.0,0.0,0.0,1,0.8015152731768833,0,1735643777088253974,map,0.9849650676317818,-0.2523392368463891,0.148531412533931,-0.5028292691262045,0.5098075741560932,-0.4954531277773352,0.4917165460087165,0.0,0.0,0.0,16,0.0356219653933521,0,1735643777088270664,map,0.9894307133330238,0.0540588432571572,0.0250589731165337,-0.4920703241953595,0.5017921727665887,-0.5012748908895718,0.5047721220116137,0.0,0.0,0.0,17,9.736890853188706e-06,0,1735643777088284730,map,1.0057911733163332,-0.258780106186257,0.2376158722706995,0.3164736648136704,-0.5605615457982358,0.6600392343078557,-0.3872510581341213,0.0,0.0,0.0,121,0.0004835630255124627,0,1735643777088297367,map,1.011754221679976,0.2042607483258828,0.2433647958330919,0.5301468367827502,-0.4970441023184348,0.4833054028786079,-0.4881673681720764,0.0,0.0,0.0,122,6.332155931807675e-09,0,1735643777088310956,map,1.0056303272675404,0.2050806886710009,0.1454072219442221,-0.4771970204102905,0.4959348497301653,-0.491425631572737,0.5336969900308559,0.0,0.0,0.0,124,1.0727228037283807e-10,0,1735643777088322877,map,0.992825134589558,-0.0302424253982847,0.2431119335708553,-0.5029717030374632,0.4879049359046413,-0.4933584969725865,0.5153306054645233,0.0,0.0,0.0,125,0.07866066223092905,0,1735643777088343858,map,0.99294819319669,-0.0242167252853472,0.1472130278424421,0.6477793456843621,-0.4951578393283003,0.3589361962215717,-0.4542746311411835,0.0,0.0,0.0,126,0.08370879284304157,0,1735644242188269615,map,0.9713165298243752,0.3254987746621894,0.0279892472105035,-0.4977196855415366,0.4896181907575049,-0.4846117337385808,0.5269730632837587,0.0,0.0,0.0,0,1.9328896902816705e-23,0.9449106867866668,-0.1661115422472192,0.065959901333844,1.0,3.85250018132817e-05,-0.000273931247575,-0.0005196608708815,0.0,0.0,0.0,-0.000273931247575,0.003980034497771,0.0032647546351832,0.0,0.0,0.0,-0.0005196608708815,0.0032647546351832,0.0071007694823145,0.0,0.0,0.0,0.0,0.0,0.0,0.0,0.0,0.0,0.0,0.0,0.0,0.0,0.0,0.0,0.0,0.0,0.0,0.0,0.0,0.0,0,0,0,1,6,,1
0.600328278,0,1735643777088230371,map,0.9730743960058068,-0.2227841653829997,0.0240176296991118,-0.4898517480771709,0.4893728816191309,-0.5027249741039411,0.5175200943477654,0.0,0.0,0.0,1,0.7028749406721406,0,1735643777088253974,map,0.9733811028576286,-0.2509149753842674,0.1491896438193601,-0.5127864963631523,0.4835223879306964,-0.4810219486442457,0.5214153761061253,0.0,0.0,0.0,16,0.09717840180505806,0,1735643777088270664,map,0.9842415014921602,0.0518469090786152,0.0261423687098173,0.7589687768879092,-0.4596448794228532,0.2296149146748557,-0.3999624625992802,0.0,0.0,0.0,17,0.0006537498615477647,0,1735643777088284730,map,1.0043600331370768,-0.2597890872940173,0.2371138895113751,0.3238741721637286,-0.5800017975990663,0.6488094080440008,-0.3711465848161673,0.0,0.0,0.0,121,0.0021976137583452912,0,1735643777088297367,map,1.0126599875380418,0.2048180169632388,0.2427517965986686,-0.5073627715254817,0.4944991352440898,-0.4928428736633238,0.5051331756993456,0.0,0.0,0.0,122,5.807011792820424e-05,0,1735643777088310956,map,1.0011585104430036,0.203006613719807,0.1451551184192578,-0.4702980096504252,0.4990355603891711,-0.4982845911698958,0.5305617379613463,0.0,0.0,0.0,124,7.566798852576331e-06,0,1735643777088322877,map,1.0072353570632964,-0.0292350102544123,0.2433474661461744,-0.5127519238312848,0.5293505017036519,-0.4822714414746522,0.4735902951828397,0.0,0.0,0.0,125,0.058187428646555205,0,1735643777088343858,map,0.9974570585397254,-0.0242088217397128,0.1458518749563782,0.4807392407998769,-0.5193009441669125,0.526928658179595,-0.4707042605836097,0.0,0.0,0.0,126,0.13884222833921528,0,1735644242188269615,map,0.9713165298243752,0.3254987746621894,0.0279892472105035,-0.4977196855415366,0.4896181907575049,-0.4846117337385808,0.5269730632837587,0.0,0.0,0.0,0,3.569650277178744e-13,0.9461196884620664,-0.1955738206714043,0.0540696086053418,1.0,4.179154043238668e-05,-0.0004485178760627,-0.0005316759065912,0.0,0.0,0.0,-0.0004485178760627,0.0086196132406118,0.0049002518053445,0.0,0.0,0.0,-0.0005316759065912,0.0049002518053445,0.0069346482090007,0.0,0.0,0.0,0.0,0.0,0.0,0.0,0.0,0.0,0.0,0.0,0.0,0.0,0.0,0.0,0.0,0.0,0.0,0.0,0.0,0.0,0,0,0,1,7,,1
0.699197699,0,1735643777088230371,map,0.9725429220890072,-0.2230251781013595,0.0230825411050935,-0.4879390205908728,0.484023899523242,-0.5013736509921053,0.5256052120803036,0.0,0.0,0.0,1,0.7101380797680121,0,1735643777088253974,map,0.9819230049621472,-0.2538807247465194,0.1482119870064868,-0.5066967591915441,0.5062441412282112,-0.4811477653497831,0.5054424711040888,0.0,0.0,0.0,16,0.07601092731033707,0,1735643777088270664,map,0.9787021570365384,0.0517899842084004,0.0265802444587394,-0.4942319220342034,0.4893279285965486,-0.4947491583502459,0.5210722174991786,0.0,0.0,0.0,17,0.0005411835289590268,0,1735643777088284730,map,1.004038855092941,-0.2603173014096419,0.2376189874945981,-0.4912244527116702,0.5068088151894387,-0.4973751013585655,0.504441642266927,0.0,0.0,0.0,121,0.0009587818447862143,0,1735643777088297367,map,1.0083158512669268,0.2044458303384386,0.2430083185677345,-0.619454709704201,0.2127900554586735,-0.2367577887407045,0.7175945961291728,0.0,0.0,0.0,122,0.00035166543883886426,0,1735643777088310956,map,1.000557153538784,0.2045939373189706,0.1451227055417954,-0.4775283296605588,0.5020185852999561,-0.4886019683946164,0.5302944001834577,0.0,0.0,0.0,124,2.393276876764237e-05,0,1735643777088322877,map,1.002169679282352,-0.0303953334084573,0.2426149356643117,-0.500662390120874,0.5015115252478477,-0.4978499347172382,0.4999688026908009,0.0,0.0,0.0,125,0.059334783308687265,0,1735643777088343858,map,0.9971440261829034,-0.0249305855430765,0.1454888645330351,0.4956563095217057,-0.501530911264896,0.5081240207720699,-0.4945720851317344,0.0,0.0,0.0,126,0.152640646030774,0,1735644242188269615,map,0.9713165298243752,0.3254987746621894,0.0279892472105035,-0.4977196855415366,0.4896181907575049,-0.4846117337385808,0.5269730632837587,0.0,0.0,0.0,0,8.374780340572448e-13,0.9476019854398898,-0.2220067044310007,0.0374400083549294,1.0,5.1948028191589686e-05,-0.0006667228275389,-0.0006377664616225,0.0,0.0,0.0,-0.0006667228275389,0.0124330429924736,0.0073646983623904,0.0,0.0,0.0,-0.0006377664616225,0.0073646983623904,0.0080036224142952,0.0,0.0,0.0,0.0,0.0,0.0,0.0,0.0,0.0,0.0,0.0,0.0,0.0,0.0,0.0,0.0,0.0,0.0,0.0,0.0,0.0,0,0,0,1,8,,1
0.799391614,0,1735643777088230371,map,0.9741376829949604,-0.2232257060458769,0.0227369644691532,-0.4995221076427451,0.4990309850966033,-0.4946594276963254,0.5067127297402418,0.0,0.0,0.0,1,0.7162609731070144,0,1735643777088253974,map,0.9796602115704538,-0.253248106791602,0.1482172008385327,-0.4932129517186966,0.4939662011254564,-0.5038032437885559,0.5088424785242921,0.0,0.0,0.0,16,0.07440241501109457,0,1735643777088270664,map,0.9819577758311898,0.0531010602254659,0.0257367615032452,-0.4919165015321005,0.5151173756532251,-0.5036010332549546,0.488935828228097,0.0,0.0,0.0,17,0.0002729660862875812,0,1735643777088284730,map,1.0040009968111212,-0.2601663825784994,0.23782218494486,-0.4860040862156317,0.4971168737043614,-0.4975485708122136,0.5187680230534979,0.0,0.0,0.0,121,0.0014737930892768875,0,1735643777088297367,map,1.0069403417491407,0.2054200802404966,0.2436691717753538,-0.5015484014489807,0.4934621577849887,-0.5046915157735854,0.500230720512361,0.0,0.0,0.0,122,0.00016848646637311268,0,1735643777088310956,map,0.9972582924423984,0.2038664025819216,0.1457605172493148,-0.4772492696411153,0.5014744590189025,-0.4936351712191985,0.5263846685781359,0.0,0.0,0.0,124,6.681126905556897e-06,0,1735643777088322877,map,0.9862724599770956,-0.0304056678102789,0.2429508887669344,-0.4880848434193026,0.5449641878760968,-0.5030534544963469,0.4601352425930804,0.0,0.0,0.0,125,0.08590587704672104,0,1735643777088343858,map,0.990638771815877,-0.0237939392069261,0.1464345087973574,-0.4706128822358246,0.4723494760946123,-0.5296672652599086,0.524272901854487,0.0,0.0,0.0,126,0.12150880806625966,0,1735644242188269615,map,0.9713165298243752,0.3254987746621894,0.0279892472105035,-0.4977196855415366,0.4896181907575049,-0.4846117337385808,0.5269730632837587,0.0,0.0,0.0,0,6.701995588813912e-14,0.9495626300223704,-0.2409387606488568,0.0120497374534082,1.0,7.692904248967939e-05,-0.000889594781038,-0.0009651538981685,0.0,0.0,0.0,-0.000889594781038,0.0139189757921762,0.0103919188331006,0.0,0.0,0.0,-0.0009651538981685,0.0103919188331006,0.0122716578865502,0.0,0.0,0.0,0.0,0.0,0.0,0.0,0.0,0.0,0.0,0.0,0.0,0.0,0.0,0.0,0.0,0.0,0.0,0.0,0.0,0.0,0,0,0,1,9,,1
0.900000974,0,1735643777088230371,map,0.9715057107142784,-0.2229534822124603,0.0230957290047696,-0.5016405199114907,0.7424528792706488,-0.3645864770571718,0.2533716866437387,0.0,0.0,0.0,1,0.6904092332732691,0,1735643777088253974,map,0.9708504534923292,-0.2511576014427667,0.1488666914242861,-0.5089890289776341,0.4815422477982065,-0.4848884159201889,0.5233836604941596,0.0,0.0,0.0,16,0.12214191379869736,0,1735643777088270664,map,0.9790035804942449,0.0520110777445699,0.0256517596927571,-0.4931843973719075,0.4988529906541972,-0.4991380318241356,0.5087003726074908,0.0,0.0,0.0,17,0.0012206489913204014,0,1735643777088284730,map,1.0052238562551543,-0.2608034095282425,0.237612162020396,-0.4934827915845089,0.5137134901307839,-0.4913700981217888,0.5011273402433686,0.0,0.0,0.0,121,0.008646135675142965,0,1735643777088297367,map,1.0030281361871662,0.2036763010953055,0.2426255238953587,0.517163356560794,-0.4890801775368787,0.4951032825133181,-0.4982121859366806,0.0,0.0,0.0,122,0.0001057944564561704,0,1735643777088310956,map,0.9975398517178016,0.2044793378894751,0.1450626501439376,-0.4744172781944232,0.4991699116506395,-0.4943418983268606,0.53045615559807,0.0,0.0,0.0,124,1.166819426957271e-05,0,1735643777088322877,map,0.9942136925783696,-0.029248009680737,0.2430601063725411,-0.5031682534864164,0.499329443822962,-0.4956369355978076,0.5018324852837804,0.0,0.0,0.0,125,0.08030457977005853,0,1735643777088343858,map,0.9978095729249588,-0.0228596800076855,0.1451017226691032,-0.507804795928147,0.4575845215812809,-0.485907346735159,0.5446510306888266,0.0,0.0,0.0,126,0.09716002583179618,0,1735644242188269615,map,0.9713165298243752,0.3254987746621894,0.0279892472105035,-0.4977196855415366,0.4896181907575049,-0.4846117337385808,0.5269730632837587,0.0,0.0,0.0,0,8.989450462140916e-12,0.9512168799034064,-0.2461678596838877,-0.0116476180602065,1.0,9.38650222608726e-05,-0.0008784874310438,-0.001221450636205,0.0,0.0,0.0,-0.0008784874310438,0.012773169503422,0.0104679693194318,0.0,0.0,0.0,-0.001221450636205,0.0104679693194318,0.016098574022943,0.0,0.0,0.0,0.0,0.0,0.0,0.0,0.0,0.0,0.0,0.0,0.0,0.0,0.0,0.0,0.0,0.0,0.0,0.0,0.0,0.0,0,0,0,1,10,,1
0.998232148,0,1735643777088230371,map,0.9779280814108708,-0.2242274419283753,0.0202322221698359,-0.4888663305146812,0.5201778790449255,-0.5051808934411005,0.4849917009016594,0.0,0.0,0.0,1,0.7189578847894283,0,1735643777088253974,map,0.9784353904104608,-0.2529786158787073,0.1474386152137166,-0.5030458839067046,0.5057662591140526,-0.4960347179445011,0.4950705893304695,0.0,0.0,0.0,16,0.11861689457101066,0,1735643777088270664,map,0.981687256677106,0.0532746883474007,0.0246919582971209,-0.4853961813787159,0.5053507837648274,-0.5037817400973801,0.5051881736498696,0.0,0.0,0.0,17,0.0007820001784387227,0,1735643777088284730,map,1.005045068542286,-0.2606394903259679,0.2374558921615201,-0.4884704905971048,0.4943999586695708,-0.4993463424178813,0.5173185585277549,0.0,0.0,0.0,121,0.008844710389264876,0,1735643777088297367,map,1.0117248514345925,0.2089303613684643,0.2434246780674332,-0.5108930369703276,0.4933471308616572,-0.491830699511167,0.5036858904755643,0.0,0.0,0.0,122,3.414277465168156e-05,0,1735643777088310956,map,0.9989432327590833,0.2054901676162593,0.1447768859390348,-0.4911244973265241,0.5007961415365607,-0.4830558761754167,0.5240772588466918,0.0,0.0,0.0,124,4.100388769661014e-06,0,1735643777088322877,map,0.992595739477664,-0.0290072373838368,0.2428596203795089,-0.4306414211894181,0.4737438217780101,-0.5494886328539287,0.5368211993275264,0.0,0.0,0.0,125,0.07391572242327407,0,1735643777088343858,map,1.002976850752793,-0.0216519297286297,0.1445508694554128,-0.542578670696103,0.467869953494671,-0.4551980696686036,0.528678361664747,0.0,0.0,0.0,126,0.07884454448348141,0,1735644242188269615,map,0.9713165298243752,0.3254987746621894,0.0279892472105035,-0.4977196855415366,0.4896181907575049,-0.4846117337385808,0.5269730632837587,0.0,0.0,0.0,0,1.6802988703274996e-12,0.9525352691260688,-0.2539993633255219,-0.0297579410294374,1.0,0.0001027133398432,-0.0009018746372963,-0.0013491742154929,0.0,0.0,0.0,-0.0009018746372963,0.0122252967687275,0.010934646347785,0.0,0.0,0.0,-0.0013491742154929,0.010934646347785,0.0179149052740831,0.0,0.0,0.0,0.0,0.0,0.0,0.0,0.0,0.0,0.0,0.0,0.0,0.0,0.0,0.0,0.0,0.0,0.0,0.0,0.0,0.0,0,0,0,1,11,,1
1.100108112,0,1735643777088230371,map,0.972840011795778,-0.2238397377386706,0.0223359851710746,-0.4976465835463057,0.4969910704562788,-0.4963018334362578,0.508952103737887,0.0,0.0,0.0,1,0.7281870508198011,0,1735643777088253974,map,0.9665540832804104,-0.2505876430297714,0.149225199230248,-0.4879574835825666,0.4611592804248723,-0.5117051742762814,0.5360852795149889,0.0,0.0,0.0,16,0.12621449844795515,0,1735643777088270664,map,0.976406977339565,0.0517117013293982,0.0265746552272766,-0.4863327703382628,0.4985826139311529,-0.5031862733818806,0.5115656241976632,0.0,0.0,0.0,17,0.0009091193861290707,0,1735643777088284730,map,0.9993187836301154,-0.2597598235688886,0.2382638447338713,-0.5149522586703941,0.52047342359389,-0.4701333408451912,0.4928551799955581,0.0,0.0,0.0,121,0.011588028762555424,0,1735643777088297367,map,1.0077691214509652,0.2078244686096999,0.2443844435253561,-0.5062916523880034,0.4883995909609073,-0.5010156308803683,0.5041011206940431,0.0,0.0,0.0,122,1.767028783819221e-05,0,1735643777088310956,map,1.0009490496232614,0.2075638899339648,0.1454604400321239,-0.4972789114034581,0.5055662955663103,-0.4716429765452555,0.5240890265367915,0.0,0.0,0.0,124,2.1497720767189896e-06,0,1735643777088322877,map,0.9927369175844912,-0.029421943573519,0.2441344627001271,0.5522842964040313,-0.5022865117071538,0.4516710183148059,-0.4885525635149503,0.0,0.0,0.0,125,0.0640988240138902,0,1735643777088343858,map,0.996939876374508,-0.0225831322522077,0.1464891478651384,-0.6328311761250931,0.4545231460318619,-0.3705137849618042,0.5056213478470907,0.0,0.0,0.0,126,0.06898265850837815,0,1735644242188269615,map,0.9713165298243752,0.3254987746621894,0.0279892472105035,-0.4977196855415366,0.4896181907575049,-0.4846117337385808,0.5269730632837587,0.0,0.0,0.0,0,1.3758627339860464e-12,0.9537305090273256,-0.2580062471094123,-0.0468314896876201,1.0,0.0001098684774934,-0.0008793994786818,-0.001461219883604,0.0,0.0,0.0,-0.0008793994786818,0.0113831283322338,0.0107759547965742,0.0,0.0,0.0,-0.001461219883604,0.0107759547965742,0.0196285632028594,0.0,0.0,0.0,0.0,0.0,0.0,0.0,0.0,0.0,0.0,0.0,0.0,0.0,0.0,0.0,0.0,0.0,0.0,0.0,0.0,0.0,0,0,0,1,12,,1
1.199365507,0,1735643777088230371,map,0.970863750780651,-0.2237737373825555,0.0218552812971881,-0.4886647162736464,0.491054920667101,-0.4976508156271384,0.5219344074339872,0.0,0.0,0.0,1,0.752188337832415,0,1735643777088253974,map,0.9859333249470076,-0.2555603048807406,0.1467297199059232,-0.4705217892195003,0.5288173532058164,-0.5286765556061396,0.4684683045527238,0.0,0.0,0.0,16,0.12234610217297277,0,1735643777088270664,map,0.9780532518909456,0.0524697555458914,0.0249148690464453,-0.4897102686398495,0.4935526962727661,-0.4927347130819371,0.5232610164293053,0.0,0.0,0.0,17,0.0007068703719385671,0,1735643777088284730,map,1.0060808575503977,-0.2613516974506853,0.2380772064811256,0.3389015634259004,-0.5348368514477749,0.6439676831004029,-0.4294192540667109,0.0,0.0,0.0,121,0.011632172598221985,0,1735643777088297367,map,1.0087955408538818,0.2091956595328593,0.2436584213090885,-0.5087674424357109,0.4890256738031887,-0.4924238295695997,0.509439252463699,0.0,0.0,0.0,122,7.482488985389065e-06,0,1735643777088310956,map,0.9983039818885752,0.2067968192175438,0.1450199345858768,-0.4832599470692715,0.4981929561092125,-0.4826228622103356,0.5341711101451224,0.0,0.0,0.0,124,1.1147450914832677e-06,0,1735643777088322877,map,0.9953499546766562,-0.0283718426710802,0.2436441084066876,0.5150716099306845,-0.5001635729323701,0.4849441892274862,-0.4993663688009378,0.0,0.0,0.0,125,0.05457241803468873,0,1735643777088343858,map,0.996767084787669,-0.0223339014843744,0.1456093125938243,0.5406827802291119,-0.5131199438138344,0.4669043381211915,-0.4757839777334012,0.0,0.0,0.0,126,0.058545501755153335,0,1735644242188269615,map,0.9713165298243752,0.3254987746621894,0.0279892472105035,-0.4977196855415366,0.4896181907575049,-0.4846117337385808,0.5269730632837587,0.0,0.0,0.0,0,5.32644000718337e-13,0.9546770831093448,-0.2610841137769889,-0.0603731397697214,1.0,0.0001121690860608,-0.0008467145107223,-0.0015026364540418,0.0,0.0,0.0,-0.0008467145107223,0.0106211822345887,0.0104471879177779,0.0,0.0,0.0,-0.0015026364540418,0.0104471879177779,0.0203191891690693,0.0,0.0,0.0,0.0,0.0,0.0,0.0,0.0,0.0,0.0,0.0,0.0,0.0,0.0,0.0,0.0,0.0,0.0,0.0,0.0,0.0,0,0,0,1,13,,1
1.299024581,0,1735643777088230371,map,0.9705336890541044,-0.2241055542286499,0.0222807874409164,-0.476007680182197,0.4980542930965733,-0.5158070555728004,0.5092167426125677,0.0,0.0,0.0,1,0.7742720052282256,0,1735643777088253974,map,0.9658072331269169,-0.2515040212786446,0.1487291704574363,-0.4926496578348118,0.4740666948026223,-0.5036064594639947,0.5281454510836007,0.0,0.0,0.0,16,0.11663128895259992,0,1735643777088270664,map,0.9806528166877804,0.0532659964912785,0.024762326739064,-0.493903807260887,0.509799146410502,-0.4972893107377585,0.4988659147689779,0.0,0.0,0.0,17,0.000518340539508353,0,1735643777088284730,map,0.9963974534088484,-0.2593639514073457,0.2381958853248871,0.3116808392441253,-0.5139181853479443,0.6779395443314051,-0.4232506673928352,0.0,0.0,0.0,121,0.010713430373752948,0,1735643777088297367,map,1.001901810257781,0.2057887173040445,0.2444309463715785,-0.492413181415258,0.4832058021684678,-0.5075055827331212,0.5162165195089625,0.0,0.0,0.0,122,4.348936083859645e-06,0,1735643777088310956,map,0.9970283713088324,0.2066930007010016,0.1459322400183807,-0.4911813142352585,0.5056512260938654,-0.4761152253976468,0.5257109911733278,0.0,0.0,0.0,124,5.362606696327369e-07,0,1735643777088322877,map,0.9925204035104742,-0.0288693121220656,0.2443398539259685,-0.5343764384732795,0.5001043449210715,-0.4596739706931988,0.5030281372476371,0.0,0.0,0.0,125,0.04600107310853907,0,1735643777088343858,map,0.990436873408288,-0.0233547070691398,0.1471046168742225,0.6486379548378932,-0.4546182788434748,0.3595829275401227,-0.4932455192972227,0.0,0.0,0.0,126,0.05185897660047469,0,1735644242188269615,map,0.9713165298243752,0.3254987746621894,0.0279892472105035,-0.4977196855415366,0.4896181907575049,-0.4846117337385808,0.5269730632837587,0.0,0.0,0.0,0,1.4583103398583683e-13,0.9553520615639756,-0.2630107991735226,-0.070086110602652,1.0,0.0001100797553698,-0.0008031410275232,-0.001480533877308,0.0,0.0,0.0,-0.0008031410275232,0.0099107838767133,0.0099442401171552,0.0,0.0,0.0,-0.001480533877308,0.0099442401171552,0.0200942619453535,0.0,0.0,0.0,0.0,0.0,0.0,0.0,0.0,0.0,0.0,0.0,0.0,0.0,0.0,0.0,0.0,0.0,0.0,0.0,0.0,0.0,0,0,0,1,14,,1
1.400777874,0,1735643777088230371,map,0.9720336040072692,-0.2241189409912714,0.0224386661109808,0.4825736001689285,-0.505915641311511,0.5167685241924477,-0.4940874180753051,0.0,0.0,0.0,1,0.7867410706451189,0,1735643777088253974,map,0.97127743500708,-0.2524643841835278,0.1492683660004943,-0.5073770400841467,0.4816654188268456,-0.4869641787874027,0.5229080723030773,0.0,0.0,0.0,16,0.10877445390563237,0,1735643777088270664,map,0.9712602793269532,0.0507082751568285,0.0278246193491641,-0.479823539706387,0.4971910930512859,-0.5009404906200269,0.5211804031153398,0.0,0.0,0.0,17,0.0010491633895037913,0,1735643777088284730,map,0.9957364362688176,-0.2593676985587149,0.2393843602296483,-0.5011672172514292,0.5230032040227148,-0.4801447795539058,0.4947323110547406,0.0,0.0,0.0,121,0.00998056154280834,0,1735643777088297367,map,1.0021110946752223,0.2069759667540087,0.2457375568684799,-0.509800903451256,0.4870935287136811,-0.494886435035276,0.5078684372390292,0.0,0.0,0.0,122,4.927986476871726e-06,0,1735643777088310956,map,0.9948377637270522,0.20656430311439,0.1469546728485,-0.4893365953867604,0.5004550308118672,-0.4815374456367447,0.5274619863080432,0.0,0.0,0.0,124,9.594093210209356e-07,0,1735643777088322877,map,0.9926054080403104,-0.0283324983070879,0.2457390668842412,-0.5074383163832256,0.4922446306390927,-0.4904919431802309,0.5095284411575297,0.0,0.0,0.0,125,0.039237398556842516,0,1735643777088343858,map,0.9847254476815396,-0.0234414552246823,0.1478454256754252,-0.4639927197819919,0.4920425653502477,-0.5404438172655777,0.5005250745489863,0.0,0.0,0.0,126,0.0542114645636001,0,1735644242188269615,map,0.9713165298243752,0.3254987746621894,0.0279892472105035,-0.4977196855415366,0.4896181907575049,-0.4846117337385808,0.5269730632837587,0.0,0.0,0.0,0,6.960371491957829e-13,0.9556303805599706,-0.2592402328894367,-0.0750576718118737,1.0,0.0001038255655013,-0.0007349064092397,-0.0014012031377607,0.0,0.0,0.0,-0.0007349064092397,0.0094491053330367,0.0090188523609648,0.0,0.0,0.0,-0.0014012031377607,0.0090188523609648,0.0191006743743284,0.0,0.0,0.0,0.0,0.0,0.0,0.0,0.0,0.0,0.0,0.0,0.0,0.0,0.0,0.0,0.0,0.0,0.0,0.0,0.0,0.0,0,0,0,1,15,,1
1.498921684,0,1735643777088230371,map,0.9711841585734388,-0.2238792491476161,0.0225299817960094,0.4742905407614762,-0.5119865091088868,0.5178684618106755,-0.4947024900852298,0.0,0.0,0.0,1,0.7932849056691301,0,1735643777088253974,map,0.9646587446231508,-0.2510757859701176,0.1500366570878003,-0.5228518856703298,0.4899121066057541,-0.4739092651622117,0.5118808863842291,0.0,0.0,0.0,16,0.10034756674804898,0,1735643777088270664,map,0.970760282201376,0.0515723391491986,0.0281973676259489,-0.4877390040099281,0.4974903685148045,-0.5011725470922099,0.5132641378895605,0.0,0.0,0.0,17,0.0019031523344540818,0,1735643777088284730,map,1.0018087638059243,-0.2604229133025809,0.240977991724381,0.3445687237806007,-0.5318404348593011,0.6358156115941144,-0.4406321078792143,0.0,0.0,0.0,121,0.008299564100959288,0,1735643777088297367,map,0.99742768610513,0.2064573752728522,0.246160971719041,-0.494764217695021,0.4801942490408283,-0.506113679095165,0.5181416755188724,0.0,0.0,0.0,122,8.76617557147706e-06,0,1735643777088310956,map,0.9913924266680724,0.2065270283593201,0.1478824346682367,-0.4976935568465517,0.5061229694963314,-0.4727943660989738,0.5221169893871611,0.0,0.0,0.0,124,2.4028467097845414e-06,0,1735643777088322877,map,0.983769614601131,-0.0287947984314448,0.2457585622000274,-0.5042124711789662,0.5215720534520306,-0.4876787905797951,0.4856972042168457,0.0,0.0,0.0,125,0.036273585701246336,0,1735643777088343858,map,0.9880803632950566,-0.0221750539329735,0.1487813096627123,-0.6349098327906222,0.4379804973682756,-0.3702134743796044,0.5176915795515741,0.0,0.0,0.0,126,0.05988005641849775,0,1735644242188269615,map,0.9713165298243752,0.3254987746621894,0.0279892472105035,-0.4977196855415366,0.4896181907575049,-0.4846117337385808,0.5269730632837587,0.0,0.0,0.0,0,5.38225650154974e-12,0.9556852795030876,-0.2537273444212758,-0.0770480787927105,1.0,9.738167606681417e-05,-0.0006844349824059,-0.001315267010245,0.0,0.0,0.0,-0.0006844349824059,0.0093144153386576,0.0082905807130305,0.0,0.0,0.0,-0.001315267010245,0.0082905807130305,0.0179663080251734,0.0,0.0,0.0,0.0,0.0,0.0,0.0,0.0,0.0,0.0,0.0,0.0,0.0,0.0,0.0,0.0,0.0,0.0,0.0,0.0,0.0,0,0,0,1,16,,1
1.599240023,0,1735643777088230371,map,0.9647852139683684,-0.2236036822773232,0.0245495924890056,-0.4894315350059791,0.4851024232153458,-0.4965149633918064,0.5278307519085297,0.0,0.0,0.0,1,0.8192898396764384,0,1735643777088253974,map,0.9697853116344528,-0.2529484931351583,0.1497647983134032,-0.5131678100606715,0.4867176449502297,-0.4824057701646623,0.5167682321152064,0.0,0.0,0.0,16,0.08920495811981903,0,1735643777088270664,map,0.9703760140790644,0.0505564718402855,0.0285175239491344,-0.4951764665353015,0.4858273938548859,-0.4920312812788628,0.5260011678816542,0.0,0.0,0.0,17,0.0014680181564692832,0,1735643777088284730,map,0.9974038355840248,-0.2606109998900798,0.2410536904395586,-0.4795684024206972,0.5142222738246371,-0.4988972793572726,0.5066469235593875,0.0,0.0,0.0,121,0.006342211614046885,0,1735643777088297367,map,0.9985542318643502,0.2063610964184051,0.2465339345315427,-0.510425044042174,0.4816635902102287,-0.4932517039056052,0.51397394571569,0.0,0.0,0.0,122,4.522551206842059e-06,0,1735643777088310956,map,0.9891303990517146,0.2045710347534264,0.1482962154478061,-0.4806836372130871,0.4956476438928384,-0.4853472152872593,0.536390468438784,0.0,0.0,0.0,124,1.3210393448702064e-06,0,1735643777088322877,map,0.9923480661827352,-0.0282636956909955,0.2472390940767347,-0.5408883958266245,0.4906942168630012,-0.4616363959838962,0.5035382475049003,0.0,0.0,0.0,125,0.030468335021286163,0,1735643777088343858,map,0.9905257187018536,-0.0221401151421619,0.1488777242445304,0.547063231297971,-0.5091512702088576,0.4617490517605852,-0.4777809311857582,0.0,0.0,0.0,126,0.0532207938202223,0,1735644242188269615,map,0.9713165298243752,0.3254987746621894,0.0279892472105035,-0.4977196855415366,0.4896181907575049,-0.4846117337385808,0.5269730632837587,0.0,0.0,0.0,0,1.1662198084207295e-12,0.955835613687004,-0.2544257647249504,-0.0791543762860733,1.0,9.201494805019253e-05,-0.0006458540442301,-0.0012429647388195,0.0,0.0,0.0,-0.0006458540442301,0.00877431320876,0.007826436789576,0.0,0.0,0.0,-0.0012429647388195,0.007826436789576,0.0169804502027225,0.0,0.0,0.0,0.0,0.0,0.0,0.0,0.0,0.0,0.0,0.0,0.0,0.0,0.0,0.0,0.0,0.0,0.0,0.0,0.0,0.0,0,0,0,1,17,,1
1.698814307,0,1735643777088230371,map,0.9710809536515592,-0.2251790742038985,0.0228619230418611,-0.4863068694851041,0.5085090870439309,-0.506684917540255,0.4981912598817554,0.0,0.0,0.0,1,0.8424532299282184,0,1735643777088253974,map,0.9638570785166244,-0.2519721568374339,0.1501417030798202,-0.4947286384974125,0.4557521024078335,-0.5016055855404393,0.5439902866375189,0.0,0.0,0.0,16,0.07891840042853494,0,1735643777088270664,map,0.978331776723158,0.0532099149457925,0.0261824374683376,-0.499562185591651,0.4990387232688595,-0.4940873392361817,0.507223497692674,0.0,0.0,0.0,17,0.0008875928497616897,0,1735643777088284730,map,0.9911766453119676,-0.2596835678249174,0.2406168564470391,-0.5002514094273108,0.5153068766195991,-0.4811602387058618,0.5026849659210638,0.0,0.0,0.0,121,0.004944617737019652,0,1735643777088297367,map,0.9983771608403508,0.2066214587447569,0.2470786314108605,-0.5199594093717107,0.48600736936208,-0.4905152967332847,0.5028258080113142,0.0,0.0,0.0,122,2.2468015782540834e-06,0,1735643777088310956,map,0.9917332709094232,0.2064004468561861,0.1484273724067377,-0.4953717120393803,0.5032420611822075,-0.4732863586035764,0.5266443938066976,0.0,0.0,0.0,124,5.535796176992307e-07,0,1735643777088322877,map,0.9916663023794648,-0.0282252098308982,0.247249028738438,-0.5044054318072424,0.4959251096268399,-0.4938753026836009,0.5056882749324313,0.0,0.0,0.0,125,0.02521697990468816,0,1735643777088343858,map,0.9857381989434209,-0.0234787655947353,0.1491740503634536,-0.6387392265434177,0.4352640390020191,-0.3663958466854396,0.5179879345680032,0.0,0.0,0.0,126,0.04757637877031895,0,1735644242188269615,map,0.9713165298243752,0.3254987746621894,0.0279892472105035,-0.4977196855415366,0.4896181907575049,-0.4846117337385808,0.5269730632837587,0.0,0.0,0.0,0,2.62476132594945e-13,0.956014191647062,-0.2549456770379076,-0.0817219675504529,1.0,8.744513798476287e-05,-0.0006115516269594,-0.0011817059007928,0.0,0.0,0.0,-0.0006115516269594,0.0082914466136527,0.0074143284250316,0.0,0.0,0.0,-0.0011817059007928,0.0074143284250316,0.0161491647814424,0.0,0.0,0.0,0.0,0.0,0.0,0.0,0.0,0.0,0.0,0.0,0.0,0.0,0.0,0.0,0.0,0.0,0.0,0.0,0.0,0.0,0,0,0,1,18,,1
1.800692837,0,1735643777088230371,map,0.9683426308430692,-0.2250261876030739,0.0226124787881104,-0.4943560104765056,0.5157164123525048,-0.4956802945315155,0.4939127074181882,0.0,0.0,0.0,1,0.8629962002297367,0,1735643777088253974,map,0.9687631259639976,-0.2539094633069241,0.1492114085975132,-0.5033266775702261,0.4995852061117888,-0.485957201533136,0.5108057123392832,0.0,0.0,0.0,16,0.06904591948829393,0,1735643777088270664,map,0.9701580576316428,0.0503842628091169,0.0272587998570716,-0.4836772852505099,0.5020832336857343,-0.5033665620995519,0.5104809637434596,0.0,0.0,0.0,17,0.0007525775045632004,0,1735643777088284730,map,0.9959586466801524,-0.261555078985822,0.240505009569532,-0.4859060942288989,0.5104735936052188,-0.5018996112155688,0.5014067790573352,0.0,0.0,0.0,121,0.003573616863098836,0,1735643777088297367,map,0.9947699751937092,0.2047074757690679,0.2460792312267046,-0.5084075745177364,0.4945209534176993,-0.4938969864725353,0.5030273666086077,0.0,0.0,0.0,122,1.2569160701917118e-06,0,1735643777088310956,map,0.9895710486341208,0.2053445985428835,0.1477336234699546,-0.4890801294842985,0.5023751782578696,-0.4806479400468323,0.5266852617481648,0.0,0.0,0.0,124,2.752689988233043e-07,0,1735643777088322877,map,0.9895010049768168,-0.0292981926465581,0.2463372980722964,-0.5025689962735125,0.4844933993438013,-0.492442381606922,0.5197990484545204,0.0,0.0,0.0,125,0.021551193163585683,0,1735643777088343858,map,0.9837203612436258,-0.0242070025242437,0.1484073493266603,-0.505562279880903,0.4956902739051275,-0.4949210459746936,0.503737125660596,0.0,0.0,0.0,126,0.04207896056559681,0,1735644242188269615,map,0.9713165298243752,0.3254987746621894,0.0279892472105035,-0.4977196855415366,0.4896181907575049,-0.4846117337385808,0.5269730632837587,0.0,0.0,0.0,0,5.583852807818153e-14,0.95618062118711,-0.2557507859809929,-0.0840470164836462,1.0,8.334134055376383e-05,-0.0005817765896243,-0.0011264760762243,0.0,0.0,0.0,-0.0005817765896243,0.0078667222940026,0.0070577951315938,0.0,0.0,0.0,-0.0011264760762243,0.0070577951315938,0.0153965140860652,0.0,0.0,0.0,0.0,0.0,0.0,0.0,0.0,0.0,0.0,0.0,0.0,0.0,0.0,0.0,0.0,0.0,0.0,0.0,0.0,0.0,0,0,0,1,19,,1
1.90026143,0,1735643777088230371,map,0.9595101144849084,-0.2238541011179086,0.0255163462400777,-0.4887986073320227,0.4878103029766484,-0.5055245427747664,0.5172639233819313,0.0,0.0,0.0,1,0.8773701696938205,0,1735643777088253974,map,0.9607697193259278,-0.252087694019824,0.1503523291751947,-0.5050069381011868,0.4683088893373847,-0.4884332725270059,0.5358056689937206,0.0,0.0,0.0,16,0.0652437082687449,0,1735643777088270664,map,0.9680680729731485,0.0502601612195096,0.0286181996328181,0.4864319621062326,-0.5085613761033884,0.5091475035513843,-0.4954978230070251,0.0,0.0,0.0,17,0.000602381363646465,0,1735643777088284730,map,0.9859615989595076,-0.2592560627284392,0.2406573014171985,-0.507918582440941,0.5132435796899396,-0.4733093566913989,0.5045572260770975,0.0,0.0,0.0,121,0.0031075018461246794,0,1735643777088297367,map,0.9960950388266324,0.2075413471810679,0.2478113561901187,-0.5150043440376421,0.4872173258689116,-0.4927192024477081,0.5045964630621171,0.0,0.0,0.0,122,6.704381153310009e-07,0,1735643777088310956,map,0.9845939485401954,0.2039071228560922,0.1490580388280509,-0.4856540585477567,0.5010186770360415,-0.4871041048987969,0.5252142531080898,0.0,0.0,0.0,124,1.9304988864596103e-07,0,1735643777088322877,map,0.9849556759797524,-0.0288872928997068,0.2473897893326134,-0.4802654209496861,0.4921217497657873,-0.5109303100490512,0.5158599879043347,0.0,0.0,0.0,125,0.01785129727182757,0,1735643777088343858,map,0.9852325807739808,-0.0226890162311399,0.1496164282878404,-0.4993247919029447,0.487712504900978,-0.5027570493178244,0.5099476582116333,0.0,0.0,0.0,126,0.035824078067811634,0,1735644242188269615,map,0.9713165298243752,0.3254987746621894,0.0279892472105035,-0.4977196855415366,0.4896181907575049,-0.4846117337385808,0.5269730632837587,0.0,0.0,0.0,0,2.0292364064165298e-14,0.9563645329492292,-0.2590523260506062,-0.0861056380272652,1.0,7.981692071474519e-05,-0.0005642244091293,-0.00107734576201,0.0,0.0,0.0,-0.0005642244091293,0.0076804893490965,0.0068340411837883,0.0,0.0,0.0,-0.00107734576201,0.0068340411837883,0.0147072089122992,0.0,0.0,0.0,0.0,0.0,0.0,0.0,0.0,0.0,0.0,0.0,0.0,0.0,0.0,0.0,0.0,0.0,0.0,0.0,0.0,0.0,0,0,0,1,20,,1
1.999957544,0,1735643777088230371,map,0.9585494098825282,-0.2246268399330504,0.0259793093646896,-0.5050185912349787,0.4844789211528453,-0.4797374482642383,0.5292337651723759,0.0,0.0,0.0,1,0.8822889055037981,0,1735643777088253974,map,0.9664624454933486,-0.2545346975557656,0.1502477473994486,0.5092425597002878,-0.5091897560290821,0.4867743010881247,-0.4944174223721392,0.0,0.0,0.0,16,0.06844140470672924,0,1735643777088270664,map,0.9703341706363148,0.0504712936347191,0.0282108900962965,-0.4882894395198884,0.501457626422401,-0.5012236897795734,0.5088108538149663,0.0,0.0,0.0,17,0.0005345288760189112,0,1735643777088284730,map,0.9896971579024048,-0.2610115976892171,0.2418285911970783,-0.5022367590536084,0.5108443114191585,-0.4812187005176761,0.5051978717473902,0.0,0.0,0.0,121,0.003225206962023978,0,1735643777088297367,map,0.9949684070834904,0.2067086343685081,0.2482500592584477,-0.5073856797536683,0.484089058331585,-0.4942636586448369,0.5137324121831975,0.0,0.0,0.0,122,5.200602475164344e-07,0,1735643777088310956,map,0.9848935687943938,0.2039382129277007,0.1495085755254727,-0.4799359761440907,0.4998402643699006,-0.4865019528127073,0.5321062100997024,0.0,0.0,0.0,124,1.649140269246282e-07,0,1735643777088322877,map,0.9807683085542844,-0.0302816823781061,0.2475325223448215,-0.4986651853443754,0.5218936265639259,-0.4951769502868057,0.4834871905046415,0.0,0.0,0.0,125,0.014366097477882025,0,1735643777088343858,map,0.9808176700623384,-0.0241505656318189,0.1502321620572987,-0.478570990819968,0.4892941624238642,-0.5223715078324379,0.5086148220101219,0.0,0.0,0.0,126,0.03114317149924884,0,1735644242188269615,map,0.9713165298243752,0.3254987746621894,0.0279892472105035,-0.4977196855415366,0.4896181907575049,-0.4846117337385808,0.5269730632837587,0.0,0.0,0.0,0,2.45875317990111e-14,0.9563317281687452,-0.2625192102144015,-0.084879715215368,1.0,7.603763803887594e-05,-0.000535081972644,-0.0010268479054413,0.0,0.0,0.0,-0.000535081972644,0.0075551374771477,0.0064236080035749,0.0,0.0,0.0,-0.0010268479054413,0.0064236080035749,0.0140369233655757,0.0,0.0,0.0,0.0,0.0,0.0,0.0,0.0,0.0,0.0,0.0,0.0,0.0,0.0,0.0,0.0,0.0,0.0,0.0,0.0,0.0,0,0,0,1,21,,1
2.100190793,0,1735643777088230371,map,0.9617225093165702,-0.2255954922389645,0.0251555197294451,-0.4931779773261817,0.4910368697058027,-0.4985334343767411,0.5168391336562228,0.0,0.0,0.0,1,0.8635968065941322,0,1735643777088253974,map,0.963259636031918,-0.2542307374528856,0.1509652116079264,-0.5006813472645124,0.4990540237184679,-0.4969390969561545,0.5033038881512858,0.0,0.0,0.0,16,0.09579544076919567,0,1735643777088270664,map,0.9702060742811028,0.0506304702951521,0.0284917643186409,-0.4849439377969732,0.5057097191444839,-0.5064714127912855,0.5025671747955417,0.0,0.0,0.0,17,0.000532307192478974,0,1735643777088284730,map,0.9856591718703376,-0.2603996855094551,0.2418801522342165,-0.5045368774400802,0.5095815068299018,-0.4808167052883643,0.5045636957963019,0.0,0.0,0.0,121,0.00666014250467621,0,1735643777088297367,map,0.987735850924607,0.2027204839747055,0.2477983638022578,-0.5049543150945263,0.4942452015681541,-0.4954663116876529,0.5052286159521321,0.0,0.0,0.0,122,4.5779979087397465e-07,0,1735643777088310956,map,0.983229739536814,0.2034240263025705,0.1501606532611843,-0.4825577036046226,0.5059923511644199,-0.4899983719301607,0.5205875514845973,0.0,0.0,0.0,124,1.691623239842272e-07,0,1735643777088322877,map,0.9842306528896624,-0.029493302535373,0.2486902525660354,-0.5067540781990353,0.4776341591856761,-0.4898563993867428,0.524506074500091,0.0,0.0,0.0,125,0.010607593227885353,0,1735643777088343858,map,0.9848760502667128,-0.0230955431129072,0.1506058040745223,-0.5000346346361471,0.4790210344702234,-0.5012434225382908,0.5189019599707376,0.0,0.0,0.0,126,0.02280708274942626,0,1735644242188269615,map,0.9713165298243752,0.3254987746621894,0.0279892472105035,-0.4977196855415366,0.4896181907575049,-0.4846117337385808,0.5269730632837587,0.0,0.0,0.0,0,9.048459337337077e-14,0.9560298477946492,-0.2655976398099664,-0.0797014093974518,1.0,7.44951487299324e-05,-0.0004912443977599,-0.001013000807496,0.0,0.0,0.0,-0.0004912443977599,0.0074107334415492,0.0057968637740143,0.0,0.0,0.0,-0.001013000807496,0.0057968637740143,0.0139619932684343,0.0,0.0,0.0,0.0,0.0,0.0,0.0,0.0,0.0,0.0,0.0,0.0,0.0,0.0,0.0,0.0,0.0,0.0,0.0,0.0,0.0,0,0,0,1,22,,1
2.19932728,0,1735643777088230371,map,0.964307752003497,-0.226064675614186,0.0245850908929605,0.4805507036686274,-0.505177865934901,0.5161614807491889,-0.4974371023193292,0.0,0.0,0.0,1,0.8175705447933531,0,1735643777088253974,map,0.9618411185129754,-0.2540171209129708,0.151319115188604,-0.3635196155484019,0.6290503158685635,-0.591508527088638,0.3496667722255466,0.0,0.0,0.0,16,0.14154576702584748,0,1735643777088270664,map,0.9619904920426484,0.0467299727662768,0.0308529605894238,-0.4803508014894128,0.4953041877608305,-0.5026867738964576,0.5208098275230929,0.0,0.0,0.0,17,0.0006569922376374314,0,1735643777088284730,map,0.990065775335276,-0.2621012665793837,0.2431888637456227,-0.4791051255619859,0.5066610672535578,-0.5011847061151634,0.5124126578705647,0.0,0.0,0.0,121,0.01471682809187116,0,1735643777088297367,map,0.987735850924607,0.2027204839747055,0.2477983638022578,-0.5049543150945263,0.4942452015681541,-0.4954663116876529,0.5052286159521321,0.0,0.0,0.0,122,2.808933855066107e-07,0,1735643777088310956,map,0.983229739536814,0.2034240263025705,0.1501606532611843,-0.4825577036046226,0.5059923511644199,-0.4899983719301607,0.5205875514845973,0.0,0.0,0.0,124,1.5434924218914503e-07,0,1735643777088322877,map,0.9831954441084074,-0.0300165872894978,0.2490882508976484,-0.5028160508255614,0.4964008625774342,-0.4955452696013034,0.5051703558606112,0.0,0.0,0.0,125,0.008081247279466979,0,1735643777088343858,map,0.9777465320150556,-0.0250444329736552,0.1509158060019351,-0.4753104849691538,0.48160967503652,-0.5283829257125742,0.5127802137417403,0.0,0.0,0.0,126,0.01742818532883553,0,1735644242188269615,map,0.9713165298243752,0.3254987746621894,0.0279892472105035,-0.4977196855415366,0.4896181907575049,-0.4846117337385808,0.5269730632837587,0.0,0.0,0.0,0,3.604747268355133e-13,0.9555935589556376,-0.2685313839174487,-0.0725383619740282,1.0,7.544388414294534e-05,-0.00044172682985,-0.0010377107622978,0.0,0.0,0.0,-0.00044172682985,0.0072778784384829,0.0050825061588805,0.0,0.0,0.0,-0.0010377107622978,0.0050825061588805,0.014483753547435,0.0,0.0,0.0,0.0,0.0,0.0,0.0,0.0,0.0,0.0,0.0,0.0,0.0,0.0,0.0,0.0,0.0,0.0,0.0,0.0,0.0,0,0,0,1,23,,1
2.298768222,0,1735643777088230371,map,0.959580286986704,-0.2254501441268754,0.0267335404557962,-0.4885945168079459,0.4958035859637629,-0.5021604445749656,0.5131170336238673,0.0,0.0,0.0,1,0.7791199310739203,0,1735643777088253974,map,0.9626945881764174,-0.2544915265718021,0.1526668405220586,-0.5018319441583494,0.4988979267158086,-0.4957310960044334,0.5035039612507162,0.0,0.0,0.0,16,0.17619435652524065,0,1735643777088270664,map,0.965665567844426,0.0499658180358818,0.030785128508101,-0.4919470938900467,0.4991281914619115,-0.5012410216299756,0.5075593990228507,0.0,0.0,0.0,17,0.0003890434276219702,0,1735643777088284730,map,0.9833468602556504,-0.2601716726282146,0.2439013247664705,-0.4938257058871311,0.4992546311345869,-0.4933256970877179,0.5133329738957572,0.0,0.0,0.0,121,0.024967707293899945,0,1735643777088297367,map,0.987735850924607,0.2027204839747055,0.2477983638022578,-0.5049543150945263,0.4942452015681541,-0.4954663116876529,0.5052286159521321,0.0,0.0,0.0,122,1.3128770877058119e-07,0,1735643777088310956,map,0.983229739536814,0.2034240263025705,0.1501606532611843,-0.4825577036046226,0.5059923511644199,-0.4899983719301607,0.5205875514845973,0.0,0.0,0.0,124,7.682790007458267e-08,0,1735643777088322877,map,0.9761095783014148,-0.0300076546375975,0.2498044288141134,-0.5009515309776595,0.4964996863761522,-0.496740137789945,0.5057517776023612,0.0,0.0,0.0,125,0.0069643347547466775,0,1735643777088343858,map,0.9817398150614308,-0.0223472889384286,0.1524814741416065,-0.5053720686715759,0.4891256435242392,-0.5004167607890141,0.5049140942527172,0.0,0.0,0.0,126,0.012364418808765588,0,1735644242188269615,map,0.9713165298243752,0.3254987746621894,0.0279892472105035,-0.4977196855415366,0.4896181907575049,-0.4846117337385808,0.5269730632837587,0.0,0.0,0.0,0,1.9598415257444647e-13,0.9550894370270931,-0.269319119035108,-0.0648125664580382,1.0,7.81455841036326e-05,-0.0004141879106988,-0.0010840519013752,0.0,0.0,0.0,-0.0004141879106988,0.0069889056157047,0.0047307598188117,0.0,0.0,0.0,-0.0010840519013752,0.0047307598188117,0.0152530858924543,0.0,0.0,0.0,0.0,0.0,0.0,0.0,0.0,0.0,0.0,0.0,0.0,0.0,0.0,0.0,0.0,0.0,0.0,0.0,0.0,0.0,0,0,0,1,24,,1
2.399509372,0,1735643777088230371,map,0.9566994269713812,-0.2248780147937169,0.0274198243573028,-0.4984973691523623,0.4890230310395807,-0.4908588916607763,0.520974468221418,0.0,0.0,0.0,1,0.7506716866321358,0,1735643777088253974,map,0.9651013584353338,-0.2545291289972984,0.1524060818759888,0.3740221819031118,-0.588631778606141,0.6071581618018032,-0.3807610841680936,0.0,0.0,0.0,16,0.19976224214030855,0,1735643777088270664,map,0.9620180133149674,0.0489564276777441,0.0313394300008691,-0.4848108595391417,0.493324246090905,-0.4987054116787626,0.52238159524822,0.0,0.0,0.0,17,0.0002753383880259619,0,1735643777088284730,map,0.9840995001840444,-0.2601445451198698,0.243976607200988,-0.4843469165584012,0.5010412008753335,-0.5003028848767288,0.5138704144332458,0.0,0.0,0.0,121,0.0321912307960235,0,1735643777088297367,map,0.987735850924607,0.2027204839747055,0.2477983638022578,-0.5049543150945263,0.4942452015681541,-0.4954663116876529,0.5052286159521321,0.0,0.0,0.0,122,6.334019499479644e-08,0,1735643777088310956,map,0.983229739536814,0.2034240263025705,0.1501606532611843,-0.4825577036046226,0.5059923511644199,-0.4899983719301607,0.5205875514845973,0.0,0.0,0.0,124,3.573836354994427e-08,0,1735643777088322877,map,0.9744148482175216,-0.0298232522447,0.2493340176029598,0.5136818633192718,-0.5127203796308627,0.4838177554985198,-0.4890492153887988,0.0,0.0,0.0,125,0.006223907225626761,0,1735643777088343858,map,0.9687385071346974,-0.0251078012659876,0.1524070185959869,-0.4757238777083596,0.4913675641661676,-0.5278281828685716,0.5036289491611765,0.0,0.0,0.0,126,0.010875495739256549,0,1735644242188269615,map,0.9713165298243752,0.3254987746621894,0.0279892472105035,-0.4977196855415366,0.4896181907575049,-0.4846117337385808,0.5269730632837587,0.0,0.0,0.0,0,6.416117160193981e-14,0.9546489513166948,-0.2692700123665578,-0.058218140794112,1.0,7.967642460504843e-05,-0.0003981395331296,-0.001110403831878,0.0,0.0,0.0,-0.0003981395331296,0.006709407266234,0.0045493013526678,0.0,0.0,0.0,-0.001110403831878,0.0045493013526678,0.0156866372528453,0.0,0.0,0.0,0.0,0.0,0.0,0.0,0.0,0.0,0.0,0.0,0.0,0.0,0.0,0.0,0.0,0.0,0.0,0.0,0.0,0.0,0,0,0,1,25,,1
