%time,field.boxes0.header.seq,field.boxes0.header.stamp,field.boxes0.header.frame_id,field.boxes0.pose.position.x,field.boxes0.pose.position.y,field.boxes0.pose.position.z,field.boxes0.pose.orientation.x,field.boxes0.pose.orientation.y,field.boxes0.pose.orientation.z,field.boxes0.pose.orientation.w,field.boxes0.scale.x,field.boxes0.scale.y,field.boxes0.scale.z,field.boxes0.id,field.boxes0.pdf,field.boxes1.header.seq,field.boxes1.header.stamp,field.boxes1.header.frame_id,field.boxes1.pose.position.x,field.boxes1.pose.position.y,field.boxes1.pose.position.z,field.boxes1.pose.orientation.x,field.boxes1.pose.orientation.y,field.boxes1.pose.orientation.z,field.boxes1.pose.orientation.w,field.boxes1.scale.x,field.boxes1.scale.y,field.boxes1.scale.z,field.boxes1.id,field.boxes1.pdf,field.boxes2.header.seq,field.boxes2.header.stamp,field.boxes2.header.frame_id,field.boxes2.pose.position.x,field.boxes2.pose.position.y,field.boxes2.pose.position.z,field.boxes2.pose.orientation.x,field.boxes2.pose.orientation.y,field.boxes2.pose.orientation.z,field.boxes2.pose.orientation.w,field.boxes2.scale.x,field.boxes2.scale.y,field.boxes2.scale.z,field.boxes2.id,field.boxes2.pdf,field.boxes3.header.seq,field.boxes3.header.stamp,field.boxes3.header.frame_id,field.boxes3.pose.position.x,field.boxes3.pose.position.y,field.boxes3.pose.position.z,field.boxes3.pose.orientation.x,field.boxes3.pose.orientation.y,field.boxes3.pose.orientation.z,field.boxes3.pose.orientation.w,field.boxes3.scale.x,field.boxes3.scale.y,field.boxes3.scale.z,field.boxes3.id,field.boxes3.pdf,field.boxes4.header.seq,field.boxes4.header.stamp,field.boxes4.header.frame_id,field.boxes4.pose.position.x,field.boxes4.pose.position.y,field.boxes4.pose.position.z,field.boxes4.pose.orientation.x,field.boxes4.pose.orientation.y,field.boxes4.pose.orientation.z,field.boxes4.pose.orientation.w,field.boxes4.scale.x,field.boxes4.scale.y,field.boxes4.scale.z,field.boxes4.id,field.boxes4.pdf,field.boxes5.header.seq,field.boxes5.header.stamp,field.boxes5.header.frame_id,field.boxes5.pose.position.x,field.boxes5.pose.position.y,field.boxes5.pose.position.z,field.boxes5.pose.orientation.x,field.boxes5.pose.orientation.y,field.boxes5.pose.orientation.z,field.boxes5.pose.orientation.w,field.boxes5.scale.x,field.boxes5.scale.y,field.boxes5.scale.z,field.boxes5.id,field.boxes5.pdf,field.boxes6.header.seq,field.boxes6.header.stamp,field.boxes6.header.frame_id,field.boxes6.pose.position.x,field.boxes6.pose.position.y,field.boxes6.pose.position.z,field.boxes6.pose.orientation.x,field.boxes6.pose.orientation.y,field.boxes6.pose.orientation.z,field.boxes6.pose.orientation.w,field.boxes6.scale.x,field.boxes6.scale.y,field.boxes6.scale.z,field.boxes6.id,field.boxes6.pdf,field.boxes7.header.seq,field.boxes7.header.stamp,field.boxes7.header.frame_id,field.boxes7.pose.position.x,field.boxes7.pose.position.y,field.boxes7.pose.position.z,field.boxes7.pose.orientation.x,field.boxes7.pose.orientation.y,field.boxes7.pose.orientation.z,field.boxes7.pose.orientation.w,field.boxes7.scale.x,field.boxes7.scale.y,field.boxes7.scale.z,field.boxes7.id,field.boxes7.pdf,field.boxes8.header.seq,field.boxes8.header.stamp,field.boxes8.header.frame_id,field.boxes8.pose.position.x,field.boxes8.pose.position.y,field.boxes8.pose.position.z,field.boxes8.pose.orientation.x,field.boxes8.pose.orientation.y,field.boxes8.pose.orientation.z,field.boxes8.pose.orientation.w,field.boxes8.scale.x,field.boxes8.scale.y,field.boxes8.scale.z,field.boxes8.id,field.boxes8.pdf,field.pose.pose.position.x,field.pose.pose.position.y,field.pose.pose.position.z,field.pose.pose.orientation.w,field.pose.covariance0,field.pose.covariance1,field.pose.covariance2,field.pose.covariance3,field.pose.covariance4,field.pose.covariance5,field.pose.covariance6,field.pose.covariance7,field.pose.covariance8,field.pose.covariance9,field.pose.covariance10,field.pose.covariance11,field.pose.covariance12,field.pose.covariance13,field.pose.covariance14,field.pose.covariance15,field.pose.covariance16,field.pose.covariance17,field.pose.covariance18,field.pose.covariance19,field.pose.covariance20,field.pose.covariance21,field.pose.covariance22,field.pose.covariance23,field.pose.covariance24,field.pose.covariance25,field.pose.covariance26,field.pose.covariance27,field.pose.covariance28,field.pose.covariance29,field.pose.covariance30,field.pose.covariance31,field.pose.covariance32,field.pose.covariance33,field.pose.covariance34,field.pose.covariance35,field.buttons0,field.buttons1,field.buttons2,field.buttons3,intersection_length,vacuum,desired_box
0.0,0,1735643777088230371,map,0.9769027680429562,-0.219913158510184,0.0240045246332033,-0.4978528473839968,0.4945611170912456,-0.485253792578929,0.5216134589913036,0.0,0.0,0.0,1,0.1111111111111111,0,1735643777088253974,map,0.98033642617467,-0.2488347353516041,0.1499608042868245,-0.3884476842821216,0.6945284627874904,-0.5268261066411555,0.2986517442025491,0.0,0.0,0.0,16,0.1111111111111111,0,1735643777088270664,map,0.9854365452601844,0.0556642667914739,0.026749509851486,-0.496429807229361,0.4843397069334976,-0.4921190353037901,0.5261096367426286,0.0,0.0,0.0,17,0.1111111111111111,0,1735643777088284730,map,1.015832854809561,-0.2592839062067046,0.2385938785941268,0.3465771744022779,-0.5915412927309248,0.6217102990475031,-0.3787340296775879,0.0,0.0,0.0,121,0.1111111111111111,0,1735643777088297367,map,1.0238901655656425,0.2116026168477989,0.2442913118006153,-0.535025621833787,0.4806698113594065,-0.4705611314361113,0.5111519715413899,0.0,0.0,0.0,122,0.1111111111111111,0,1735643777088310956,map,1.0091453829070818,0.2088046508027278,0.1456370779339384,-0.4806830752768606,0.4975692354217133,-0.4838072026815906,0.5360030109408401,0.0,0.0,0.0,124,0.1111111111111111,0,1735643777088322877,map,1.008589505286283,-0.0263233164784163,0.2443027111134749,-0.5123071655892886,0.4966095583788941,-0.4866283044159805,0.5040964272377039,0.0,0.0,0.0,125,0.1111111111111111,0,1735643777088343858,map,1.0018625098441252,-0.0208447451378818,0.1468446171232375,0.6264606222469057,-0.4987809059159854,0.3760054173489605,-0.4662452388946001,0.0,0.0,0.0,126,0.1111111111111111,0,1735644242188269615,map,0.9756504412413058,0.3317677021516719,0.027071171577149,-0.500034062064375,0.4979608402695396,-0.4835961631366667,0.5178182010444883,0.0,0.0,0.0,0,0.1111111111111111,0.8950452309241237,0.3034679159164195,0.7142400830773068,1.0,0.0,0.0,0.0,0.0,0.0,0.0,0.0,0.0,0.0,0.0,0.0,0.0,0.0,0.0,0.0,0.0,0.0,0.0,0.0,0.0,0.0,0.0,0.0,0.0,0.0,0.0,0.0,0.0,0.0,0.0,0.0,0.0,0.0,0.0,0.0,0.0,0,0,0,1,1,,126
0.099473432,0,1735643777088230371,map,0.9834603142803636,-0.2212220647576042,0.0221840513999246,-0.4858909874455236,0.51595721232847,-0.5072961852499932,0.4902536933020014,0.0,0.0,0.0,1,,0,1735643777088253974,map,0.9857017089600582,-0.2503986149119611,0.1497727183425239,-0.5038751863706006,0.5092251205560653,-0.4937746927446306,0.4929362291002754,0.0,0.0,0.0,16,,0,1735643777088270664,map,0.9806058696714796,0.0545387232195299,0.0283713245009135,-0.4756065311726535,0.4937654874233069,-0.5113335640114797,0.5182007885471217,0.0,0.0,0.0,17,,0,1735643777088284730,map,1.010414337989148,-0.2582577010697143,0.2383525261118541,-0.470454855439547,0.4706056763765174,-0.5208161951578356,0.534745750069013,0.0,0.0,0.0,121,,0,1735643777088297367,map,1.0118436006075042,0.2064993826377148,0.24352290463819,-0.4889741510270226,0.4823640497991506,-0.5096686190675475,0.5181381107644413,0.0,0.0,0.0,122,,0,1735643777088310956,map,1.0013292971991132,0.204893098147402,0.1463790599046605,-0.4673798654609963,0.4945948755766081,-0.5010273124184749,0.5346995442542858,0.0,0.0,0.0,124,,0,1735643777088322877,map,0.9958360172274532,-0.0278577221417117,0.2441423672331341,0.5655944761719057,-0.5229215411832736,0.4357094031311415,-0.4656321147788693,0.0,0.0,0.0,125,,0,1735643777088343858,map,0.9988695774086996,-0.0216005414366079,0.1464992732932449,-0.4758301486215509,0.4809894657700884,-0.531799174687403,0.5093372569160788,0.0,0.0,0.0,126,,0,1735644242188269615,map,0.9727198236309652,0.3293474481975938,0.0281490842252959,-0.5075194410991611,0.4896049232571846,-0.4808341705601289,0.5210657697934827,0.0,0.0,0.0,0,,0.9077251834120112,0.1392980836008379,0.5588709482743912,1.0,0.000160781195095,-0.002081665673706,-0.0019700732473851,0.0,0.0,0.0,-0.002081665673706,0.0269517338425261,0.0255069248076116,0.0,0.0,0.0,-0.0019700732473851,0.0255069248076116,0.0241395680494065,0.0,0.0,0.0,0.0,0.0,0.0,0.0,0.0,0.0,0.0,0.0,0.0,0.0,0.0,0.0,0.0,0.0,0.0,0.0,0.0,0.0,0,0,0,1,2,,126
0.197435371,0,1735643777088230371,map,0.975766876199843,-0.2201598586324852,0.0238758674625932,-0.4881546673772995,0.4911108174901917,-0.4931492498027956,0.5266108649475569,0.0,0.0,0.0,1,0.11524738018596282,0,1735643777088253974,map,0.9803044168237828,-0.2497209179533775,0.1488877936923562,-0.4917715489170453,0.4710624067087403,-0.4988333461384938,0.5361214838465003,0.0,0.0,0.0,16,0.49329197928013296,0,1735643777088270664,map,0.9847729515488536,0.0547959632989644,0.0266426217728753,-0.4977198401255007,0.5059587991529366,-0.4974012887373005,0.4988713383906086,0.0,0.0,0.0,17,7.18029363562093e-19,0,1735643777088284730,map,1.0137547075271889,-0.25963105379987,0.2373978847045348,-0.4754620582794713,0.4798235233934031,-0.5159495183976676,0.5267839329366493,0.0,0.0,0.0,121,0.0021088672120772563,0,1735643777088297367,map,1.0148215838864698,0.2065493351370474,0.2424839688426992,-0.5106888988915479,0.4938603457512273,-0.4894089109097821,0.5057447235172287,0.0,0.0,0.0,122,1.7538965669299744e-15,0,1735643777088310956,map,1.0109263308982586,0.2082106495762415,0.1444184125764736,-0.4979266110246179,0.5017897087488897,-0.4675200078158802,0.5307553301843352,0.0,0.0,0.0,124,7.477677686924694e-25,0,1735643777088322877,map,1.000448176266035,-0.0280693502795502,0.2427696444052519,0.4311463070420637,-0.5122303750772006,0.5588999656983401,-0.4892481304150843,0.0,0.0,0.0,125,0.3892552228348688,0,1735643777088343858,map,1.003632180075249,-0.0218845666418763,0.1455076927795102,0.6414259478038348,-0.5038437490111457,0.3620862064970122,-0.4512292201652603,0.0,0.0,0.0,126,9.65504869563694e-05,0,1735644242188269615,map,0.975046519539746,0.3296766626773131,0.0266330391475671,-0.5070453994508259,0.4903593614276597,-0.4811826455792894,0.5204958416253929,0.0,0.0,0.0,0,0.0,0.9156863038190828,0.0696491288310902,0.4542452479721625,1.0,0.0002339463396685,-0.0024967445461013,-0.0029792577604839,0.0,0.0,0.0,-0.0024967445461013,0.0276697763627208,0.0315787578746139,0.0,0.0,0.0,-0.0029792577604839,0.0315787578746139,0.0379861196937345,0.0,0.0,0.0,0.0,0.0,0.0,0.0,0.0,0.0,0.0,0.0,0.0,0.0,0.0,0.0,0.0,0.0,0.0,0.0,0.0,0.0,0,0,0,1,3,,126
0.297473408,0,1735643777088230371,map,0.9853002417272922,-0.2226769516877843,0.0210531058010799,-0.493517203081728,0.501661595370709,-0.4990624675697059,0.5056807960124048,0.0,0.0,0.0,1,0.3394494504879126,0,1735643777088253974,map,0.9761997419234656,-0.2483969164988531,0.1501303656998703,-0.5070810272017087,0.4817197595807902,-0.4853857757837801,0.524609906262038,0.0,0.0,0.0,16,0.038702778628783296,0,1735643777088270664,map,0.9820558784605472,0.0536585699796818,0.0281805163227731,-0.4778304707149551,0.484967171021768,-0.5014975018704865,0.5338399946661261,0.0,0.0,0.0,17,6.7401353615599716e-12,0,1735643777088284730,map,1.0139167987433098,-0.2594527949530114,0.2374725046662887,0.3389802054933297,-0.607433112586944,0.6213547714807237,-0.3606046061474741,0.0,0.0,0.0,121,0.0001184217214542443,0,1735643777088297367,map,1.0143484515292376,0.2058894847198313,0.2429224899418625,0.5184925936741779,-0.4909747767789814,0.4903572337976761,-0.4996588657615762,0.0,0.0,0.0,122,5.296041139995405e-11,0,1735643777088310956,map,1.0089611409090908,0.2068129905302927,0.1449738924505926,-0.4852808075977041,0.4983742508631329,-0.4805358680945187,0.5340514238615783,0.0,0.0,0.0,124,3.306438505090447e-17,0,1735643777088322877,map,1.0035784609396468,-0.0278423474355665,0.2431326907447878,-0.5087139565461228,0.5356203894515899,-0.4807764096423281,0.4724139633312602,0.0,0.0,0.0,125,0.6129198853723162,0,1735643777088343858,map,0.9925620928358402,-0.0235105111912788,0.1476288280060634,0.6622889628645685,-0.4747112643947029,0.342692502675919,-0.4675300992816097,0.0,0.0,0.0,126,0.00880946372983316,0,1735644242188269615,map,0.9660531914702928,0.3240168280197926,0.0298559823452826,-0.4878993069535275,0.4980914640885054,-0.4917848939720717,0.5215426902347636,0.0,0.0,0.0,0,3.896939176855089e-41,0.9212448410740396,0.0261986182870496,0.380097932482742,1.0,0.0002681517639956,-0.0025971222543938,-0.0034708951668719,0.0,0.0,0.0,-0.0025971222543938,0.0264161728716539,0.0333492845464165,0.0,0.0,0.0,-0.0034708951668719,0.0333492845464165,0.0449830629531639,0.0,0.0,0.0,0.0,0.0,0.0,0.0,0.0,0.0,0.0,0.0,0.0,0.0,0.0,0.0,0.0,0.0,0.0,0.0,0.0,0.0,0,0,0,1,4,,126
0.399209528,0,1735643777088230371,map,0.9834483455979196,-0.2225559705946772,0.0215193021841437,-0.4881976247674655,0.4991848404633519,-0.4994272888948475,0.5128839608821137,0.0,0.0,0.0,1,0.4299206245750088,0,1735643777088253974,map,0.980724434529688,-0.2498922553562902,0.1495942571088706,-0.3802091490156293,0.7077411433738852,-0.5231747324116859,0.2843091211104517,0.0,0.0,0.0,16,0.03216987990031879,0,1735643777088270664,map,0.9983282882930196,0.057082162193283,0.0222314187240813,-0.5090136048486864,0.5034082771660868,-0.4870754297826487,0.5002427233470422,0.0,0.0,0.0,17,1.3682565962634928e-15,0,1735643777088284730,map,1.0108229186786488,-0.2597404060119397,0.2372598200608865,-0.4863954225446046,0.4956976751741155,-0.5058089752312637,0.5117231559448249,0.0,0.0,0.0,121,2.713837352654944e-05,0,1735643777088297367,map,1.0151649857506024,0.2062963969808344,0.2431012490317881,0.5351526778885143,-0.4954500428037914,0.4759166198788965,-0.4915732268518283,0.0,0.0,0.0,122,1.1511665474349204e-13,0,1735643777088310956,map,1.006643502204719,0.2062699801039066,0.1449651969650613,-0.4783365611783156,0.4945574006453527,-0.490788101265539,0.5345410661148334,0.0,0.0,0.0,124,2.5758407811182262e-21,0,1735643777088322877,map,1.0078272584582306,-0.0283507615973028,0.2430901989261737,0.5051882569822587,-0.5049647145789699,0.4935305674650193,-0.4962086668076875,0.0,0.0,0.0,125,0.5356733182615815,0,1735643777088343858,map,0.9969615533243504,-0.0230126149002137,0.1466039946185342,-0.4716758365297046,0.488904083421607,-0.53280487456347,0.5045925763317242,0.0,0.0,0.0,126,0.0022090388894477524,0,1735644242188269615,map,0.9782046012369978,0.3315723781463726,0.025956130771944,-0.4960054951420405,0.4879997473805982,-0.4847858276914816,0.529922160901822,0.0,0.0,0.0,0,0.0,0.9246588681806548,-0.0089766568419179,0.3363541847988694,1.0,0.0002611437355352,-0.0025580551746067,-0.0033740854948481,0.0,0.0,0.0,-0.0025580551746067,0.0260821382189174,0.0328342210769426,0.0,0.0,0.0,-0.0033740854948481,0.0328342210769426,0.0436405122082523,0.0,0.0,0.0,0.0,0.0,0.0,0.0,0.0,0.0,0.0,0.0,0.0,0.0,0.0,0.0,0.0,0.0,0.0,0.0,0.0,0.0,0,0,0,1,5,,126
0.497745181,0,1735643777088230371,map,0.9868213986389284,-0.2240276577516237,0.0213351277510162,-0.4983016306803548,0.7550958277457127,-0.3450348210617776,0.2499534917483319,0.0,0.0,0.0,1,0.21538347226498783,0,1735643777088253974,map,0.9801760342489364,-0.2513269117193338,0.1500447823249553,-0.5157126068447622,0.5030993964157355,-0.4730329311704044,0.5071206468837942,0.0,0.0,0.0,16,0.33611367476197973,0,1735643777088270664,map,0.9900666920127495,0.054173000397629,0.0255005171925394,-0.4885435558862374,0.494402292382476,-0.5014344863179238,0.5152232751148416,0.0,0.0,0.0,17,1.0745731038922137e-09,0,1735643777088284730,map,1.007297578493592,-0.2594924728707508,0.2378652615991406,-0.3401335103266644,0.6430097643997427,-0.5946778684812638,0.3423534296279642,0.0,0.0,0.0,121,0.020399217709804435,0,1735643777088297367,map,1.0138204233812222,0.2054877128498798,0.2432255551174937,-0.4967418524335368,0.4871911106490315,-0.506193320715918,0.5095691079805107,0.0,0.0,0.0,122,4.174432280171188e-08,0,1735643777088310956,map,1.0080425863336682,0.2059999469304381,0.1451483185426507,-0.484931141168947,0.5036318276064315,-0.4848997239610012,0.525422713868494,0.0,0.0,0.0,124,1.6159791630654675e-12,0,1735643777088322877,map,1.0001102660647117,-0.0299955194359469,0.2432518640494381,-0.490997666536476,0.4978192885444474,-0.5063798901811275,0.5046549853404647,0.0,0.0,0.0,125,0.41866204116975014,0,1735643777088343858,map,1.000829971272224,-0.0237948953578845,0.1463937508566533,0.6527351857039884,-0.5074242960388986,0.3507776904080283,-0.4397867358679856,0.0,0.0,0.0,126,0.009441551272965993,0,1735644242188269615,map,0.9790507484887075,0.3312396311173553,0.0259451587908434,-0.4989371443450012,0.5001835527978994,-0.4834491239331902,0.5168704712706633,0.0,0.0,0.0,0,9.14378095156588e-30,0.9267321702531168,-0.0455276427413509,0.3130050923347336,1.0,0.0002391126870311,-0.0025106188195848,-0.0030537865213534,0.0,0.0,0.0,-0.0025106188195848,0.0284149880335339,0.0316290126445581,0.0,0.0,0.0,-0.0030537865213534,0.0316290126445581,0.0390929941013707,0.0,0.0,0.0,0.0,0.0,0.0,0.0,0.0,0.0,0.0,0.0,0.0,0.0,0.0,0.0,0.0,0.0,0.0,0.0,0.0,0.0,0,0,0,1,6,,126
0.596361735,0,1735643777088230371,map,0.9820636032584538,-0.2238761200026101,0.0230486022782285,-0.4807527851118975,0.4998320426098935,-0.5151353208511867,0.5036668442523493,0.0,0.0,0.0,1,0.16074764717605453,0,1735643777088253974,map,0.9830681192280776,-0.2530021126119958,0.14969612390199,-0.5006194723455489,0.4874900257542947,-0.4942402743859018,0.517165514969328,0.0,0.0,0.0,16,0.4634842971097638,0,1735643777088270664,map,0.9843676991872156,0.0522374322108598,0.027825254653171,-0.4846755955132835,0.492405769902254,-0.5029883228198524,0.5192580013708834,0.0,0.0,0.0,17,2.876768856182512e-10,0,1735643777088284730,map,1.01257852304675,-0.2619870718982384,0.2382760090674172,-0.358499863971075,0.6413348389484463,-0.5784151172998402,0.3544057335353132,0.0,0.0,0.0,121,0.031905993079509525,0,1735643777088297367,map,1.0106838996399834,0.2032955441091852,0.243942996750519,-0.5020070939565093,0.5082430470484464,-0.5023612567884064,0.4871458204913843,0.0,0.0,0.0,122,2.09158081703873e-08,0,1735643777088310956,map,1.003531516672889,0.2032556256694733,0.1461382053719769,-0.4783811043971221,0.5059585921250895,-0.4915452063899816,0.5230112160227712,0.0,0.0,0.0,124,5.431705643483249e-13,0,1735643777088322877,map,0.994826159520278,-0.03118941971522,0.2439934734763788,0.460418766579196,-0.5324863807805953,0.5349328274812956,-0.4672469194630833,0.0,0.0,0.0,125,0.3386284043433241,0,1735643777088343858,map,0.99662838207254,-0.0249116787790001,0.1469702857521652,-0.4699354023011122,0.4840310236499229,-0.5341827811983493,0.5094344335434116,0.0,0.0,0.0,126,0.005233637087319562,0,1735644242188269615,map,0.9790507484887075,0.3312396311173553,0.0259451587908434,-0.4989371443450012,0.5001835527978994,-0.4834491239331902,0.5168704712706633,0.0,0.0,0.0,0,3.9190578087973236e-31,0.9284937013907426,-0.0712260417690296,0.292033030316294,1.0,0.0002235716834339,-0.0024235701686618,-0.0028391889456114,0.0,0.0,0.0,-0.0024235701686618,0.0283181503042581,0.0303442727758626,0.0,0.0,0.0,-0.0028391889456114,0.0303442727758626,0.0361472449701494,0.0,0.0,0.0,0.0,0.0,0.0,0.0,0.0,0.0,0.0,0.0,0.0,0.0,0.0,0.0,0.0,0.0,0.0,0.0,0.0,0.0,0,0,0,1,7,,126
0.699842368,0,1735643777088230371,map,0.9737409715679632,-0.2229196424365105,0.0243424663180668,-0.4892173725380527,0.4838752854007124,-0.4971583718871543,0.5285495472023953,0.0,0.0,0.0,1,0.13425095519611743,0,1735643777088253974,map,0.9835195687952616,-0.2540950609575134,0.148762504804671,-0.474881579024177,0.4841994357461531,-0.5233629826439103,0.5158774861579846,0.0,0.0,0.0,16,0.5604841526339909,0,1735643777088270664,map,0.9890031597983486,0.0542738123616492,0.0243237803743762,-0.4939374289004409,0.5045224593538252,-0.4994073251788982,0.5020709391076604,0.0,0.0,0.0,17,8.407147628729368e-12,0,1735643777088284730,map,1.0037685086307704,-0.260750056993118,0.2375484366045657,-0.4760247443032862,0.489773796501085,-0.5100417275977408,0.5228570619022153,0.0,0.0,0.0,121,0.0364812256889191,0,1735643777088297367,map,1.0106838996399834,0.2032955441091852,0.243942996750519,-0.5020070939565093,0.5082430470484464,-0.5023612567884064,0.4871458204913843,0.0,0.0,0.0,122,2.6740681868822413e-09,0,1735643777088310956,map,1.0000553324269166,0.204105465438724,0.1452125331066506,-0.4738408083089337,0.5072244090863204,-0.5025459064741044,0.5154084779030028,0.0,0.0,0.0,124,1.5880064167023802e-14,0,1735643777088322877,map,0.9975593239876386,-0.0297790936974475,0.2433432111320077,-0.4993703700523537,0.5453211353244563,-0.4937869820075969,0.4576335971954536,0.0,0.0,0.0,125,0.26677210232384746,0,1735643777088343858,map,1.000051392919287,-0.023427214998942,0.1453138890648949,0.5069777729801839,-0.5039625494479765,0.4938543742387407,-0.4950789265392041,0.0,0.0,0.0,126,0.0020115614746337046,0,1735644242188269615,map,0.9790507484887075,0.3312396311173553,0.0259451587908434,-0.4989371443450012,0.5001835527978994,-0.4834491239331902,0.5168704712706633,0.0,0.0,0.0,0,1.5467434461447767e-34,0.92975928989031,-0.0884670311620105,0.2767066693351353,1.0,0.0002068372227563,-0.0022733638828575,-0.0026200683907958,0.0,0.0,0.0,-0.0022733638828575,0.026859143522968,0.0284009300686439,0.0,0.0,0.0,-0.0026200683907958,0.0284009300686439,0.0332731207353542,0.0,0.0,0.0,0.0,0.0,0.0,0.0,0.0,0.0,0.0,0.0,0.0,0.0,0.0,0.0,0.0,0.0,0.0,0.0,0.0,0.0,0,0,0,1,8,,126
0.797016131,0,1735643777088230371,map,0.9774554930004972,-0.2237090688365398,0.0218158631057756,-0.4854174715536642,0.5048507458507131,-0.5062144302637552,0.5032321068027837,0.0,0.0,0.0,1,0.11137859069081853,0,1735643777088253974,map,0.9746664928007476,-0.2515183878555936,0.1493621451225422,-0.516220464304316,0.4950054160739571,-0.4761007325419539,0.5116777919393224,0.0,0.0,0.0,16,0.6097646663264504,0,1735643777088270664,map,0.9867225163495478,0.0546399665377334,0.0240359137313267,-0.4955228474834255,0.4924095367676568,-0.4937636500998955,0.5178681430269749,0.0,0.0,0.0,17,3.4970609915112736e-13,0,1735643777088284730,map,1.0033914288140608,-0.2603352361715905,0.2372079867702632,-0.3475705103784376,0.6225774390359805,-0.6036557327820479,0.3566396346426478,0.0,0.0,0.0,121,0.027528580889199607,0,1735643777088297367,map,0.9941611988757716,0.1991288549019917,0.2425613775095857,-0.4961628237123272,0.507622493755839,-0.5035402382736516,0.4925333335300543,0.0,0.0,0.0,122,3.888724233831259e-10,0,1735643777088310956,map,0.997858201507684,0.2048635711473126,0.1448113811906325,-0.4795737046181395,0.5034413450842365,-0.4908305829784051,0.5250154404507428,0.0,0.0,0.0,124,2.6152610099440926e-16,0,1735643777088322877,map,0.9847837907784333,-0.0308234539761296,0.2428554164240014,0.4422484799512616,-0.5064755396182473,0.5479655639829899,-0.4976269189242152,0.0,0.0,0.0,125,0.2502923304815321,0,1735643777088343858,map,0.9940072323727822,-0.0235747927032873,0.1453823818205302,0.4804112869507954,-0.4894818769081833,0.5320898663650114,-0.4964804746013553,0.0,0.0,0.0,126,0.0010358312227768075,0,1735644242188269615,map,0.9790507484887075,0.3312396311173553,0.0259451587908434,-0.4989371443450012,0.5001835527978994,-0.4834491239331902,0.5168704712706633,0.0,0.0,0.0,0,9.632510332294537e-39,0.93049312297289,-0.0966971234336024,0.2674458123554681,1.0,0.0001881633970614,-0.002069084007726,-0.0023833170665052,0.0,0.0,0.0,-0.002069084007726,0.0244166695930296,0.0258550128317813,0.0,0.0,0.0,-0.0023833170665052,0.0258550128317813,0.0302622150962977,0.0,0.0,0.0,0.0,0.0,0.0,0.0,0.0,0.0,0.0,0.0,0.0,0.0,0.0,0.0,0.0,0.0,0.0,0.0,0.0,0.0,0,0,0,1,9,,126
0.895907414,0,1735643777088230371,map,0.9752861821658314,-0.223185938573758,0.0225964398976411,-0.4850992632406478,0.4975198031443539,-0.5055237666265179,0.5114669800273736,0.0,0.0,0.0,1,0.11325506569825898,0,1735643777088253974,map,0.9783031142813348,-0.2526547967197493,0.1492982418771795,0.5233910210076617,-0.5233306952532994,0.46289988848816,-0.4877607156915208,0.0,0.0,0.0,16,0.6044975487317402,0,1735643777088270664,map,0.983053624356656,0.0544127491987893,0.0255234228070076,-0.4935693856357516,0.4951556201116918,-0.4927079566698457,0.5181206836917224,0.0,0.0,0.0,17,5.496962422362607e-14,0,1735643777088284730,map,0.9991096829256878,-0.2594658031619722,0.2376057961255908,-0.4646130569343981,0.4707142584033077,-0.5289362745534603,0.5317792885430991,0.0,0.0,0.0,121,0.01990129842727259,0,1735643777088297367,map,1.001661731760803,0.2047835862646289,0.2433605130842916,-0.5023487172018785,0.491253100807924,-0.4976357822252656,0.5086008115617539,0.0,0.0,0.0,122,3.613743808740821e-11,0,1735643777088310956,map,0.998233503145413,0.2067089193973301,0.1451439136965708,-0.4936132793434875,0.508719751805408,-0.4773969313675065,0.5192709451718828,0.0,0.0,0.0,124,1.2023489746520878e-17,0,1735643777088322877,map,0.9882281971663842,-0.0297444938090193,0.2435289055513189,0.507175198283108,-0.5053617798466188,0.4918439730051248,-0.4954516080660971,0.0,0.0,0.0,125,0.2615998500504659,0,1735643777088343858,map,0.9916979444089552,-0.022855352437395,0.1461682124826754,-0.4803316880109728,0.4863072057405276,-0.5224591720771469,0.5097285401562601,0.0,0.0,0.0,126,0.000746237056069858,0,1735644242188269615,map,0.9790507484887075,0.3312396311173553,0.0259451587908434,-0.4989371443450012,0.5001835527978994,-0.4834491239331902,0.5168704712706633,0.0,0.0,0.0,0,6.680982568529044e-42,0.9306150649547302,-0.096321089329435,0.2655377476683661,1.0,0.0001694808859777,-0.0018617629178583,-0.0021470794185595,0.0,0.0,0.0,-0.0018617629178583,0.0219762752485541,0.0232630540720454,0.0,0.0,0.0,-0.0021470794185595,0.0232630540720454,0.0272687599843194,0.0,0.0,0.0,0.0,0.0,0.0,0.0,0.0,0.0,0.0,0.0,0.0,0.0,0.0,0.0,0.0,0.0,0.0,0.0,0.0,0.0,0,0,0,1,10,,126
0.99757203,0,1735643777088230371,map,0.97559182718616,-0.2231681488904628,0.0215506126131907,0.4796939251282417,-0.5138202245746604,0.514867007184248,-0.4907081412879164,0.0,0.0,0.0,1,0.14355613493316705,0,1735643777088253974,map,0.9831314721480692,-0.2530752292985165,0.1489310231574519,-0.4856500979729446,0.5010745043207603,-0.510402122598674,0.5025514866213627,0.0,0.0,0.0,16,0.45986740869595183,0,1735643777088270664,map,0.9757024745424916,0.0537193854242436,0.0283714027220848,-0.4944113078395841,0.4881899610797779,-0.4932263045962845,0.5234079031076723,0.0,0.0,0.0,17,4.573977767004465e-11,0,1735643777088284730,map,0.9965771552724108,-0.2582533108989913,0.2382342765794866,-0.5081135974543983,0.5146866781667065,-0.4680046316068275,0.5078285736291615,0.0,0.0,0.0,121,0.023663252939816522,0,1735643777088297367,map,1.0061542072990863,0.2089015742345638,0.2437423597424405,-0.5078661705359518,0.4793754965069299,-0.4923764067177257,0.5194579485209779,0.0,0.0,0.0,122,3.730649106080951e-09,0,1735643777088310956,map,0.9962223304895458,0.2074221525804409,0.1455974035689807,-0.4977649194473101,0.5044801485213721,-0.4761830869000485,0.5205569444986864,0.0,0.0,0.0,124,3.5204960630630996e-14,0,1735643777088322877,map,0.9947841184565444,-0.0277798805660665,0.2439575847849683,0.5061524350099244,-0.5014883210292679,0.4925226757269876,-0.4997405229711704,0.0,0.0,0.0,125,0.36823767120377326,0,1735643777088343858,map,0.9833900752137188,-0.0230991864850602,0.1481327520225212,0.6741376965921059,-0.5005218000232131,0.3289886588302846,-0.4321837064213121,0.0,0.0,0.0,126,0.004675528450867065,0,1735644242188269615,map,0.9790507484887075,0.3312396311173553,0.0259451587908434,-0.4989371443450012,0.5001835527978994,-0.4834491239331902,0.5168704712706633,0.0,0.0,0.0,0,7.193182896585869e-34,0.9306204720104344,-0.0895648577741277,0.264026192437055,1.0,0.0001540738250695,-0.0016921464303038,-0.0019519721111419,0.0,0.0,0.0,-0.0016921464303038,0.0204348986924294,0.021046106803073,0.0,0.0,0.0,-0.0019519721111419,0.021046106803073,0.0248126297960998,0.0,0.0,0.0,0.0,0.0,0.0,0.0,0.0,0.0,0.0,0.0,0.0,0.0,0.0,0.0,0.0,0.0,0.0,0.0,0.0,0.0,0,0,0,1,11,,126
1.098662195,0,1735643777088230371,map,0.9746017432267262,-0.2223279724544768,0.0230068949951463,-0.4927008512854222,0.7872285268994462,-0.3079311343442898,0.2066289768638151,0.0,0.0,0.0,1,0.16039294169454937,0,1735643777088253974,map,0.9732595976245708,-0.2509768161270077,0.1501196364774782,-0.5174606576534394,0.4948641695701064,-0.4791534273246608,0.507696675722414,0.0,0.0,0.0,16,0.3106717004929758,0,1735643777088270664,map,0.9751047127926472,0.0542985057135351,0.0278992827365148,-0.4803125308029498,0.4984503757158508,-0.5058619683953949,0.5147336832125218,0.0,0.0,0.0,17,1.5339958183038046e-07,0,1735643777088284730,map,1.000047542302115,-0.260204674489778,0.2378867154108666,-0.4902714886477197,0.4869497669520113,-0.4992711647196882,0.5227256411961984,0.0,0.0,0.0,121,0.03362878440913708,0,1735643777088297367,map,0.999488076529995,0.2064599410339255,0.2434452852095047,-0.5077772071198893,0.4831425807092513,-0.4921289907834644,0.516279586140667,0.0,0.0,0.0,122,4.527045583735026e-06,0,1735643777088310956,map,0.9923712554919022,0.2063796058385826,0.1456717617139148,-0.4853676297082475,0.49708669334419,-0.481784421426176,0.5340476145462888,0.0,0.0,0.0,124,2.1879737100950766e-09,0,1735643777088322877,map,0.988319578839206,-0.0284081193269797,0.2436928386934391,0.5097451936973454,-0.5014091806586889,0.4890966880933914,-0.4995328825510027,0.0,0.0,0.0,125,0.4694970436923944,0,1735643777088343858,map,0.9889519633343182,-0.0217710511342848,0.1461692359394884,-0.4921725720955676,0.46986774613249,-0.5003645476646067,0.5353744295925992,0.0,0.0,0.0,126,0.025804847077804026,0,1735644242188269615,map,0.9790507484887075,0.3312396311173553,0.0259451587908434,-0.4989371443450012,0.5001835527978994,-0.4834491239331902,0.5168704712706633,0.0,0.0,0.0,0,1.734884349946595e-22,0.9306455093233372,-0.080102469711409,0.2616473255051136,1.0,0.0001412412351844,-0.0015485281873004,-0.0017899629333398,0.0,0.0,0.0,-0.0015485281873004,0.0197168951344045,0.019044657186828,0.0,0.0,0.0,-0.0017899629333398,0.019044657186828,0.0228071597331035,0.0,0.0,0.0,0.0,0.0,0.0,0.0,0.0,0.0,0.0,0.0,0.0,0.0,0.0,0.0,0.0,0.0,0.0,0.0,0.0,0.0,0,0,0,1,12,,126
1.198108095,0,1735643777088230371,map,0.9710879011138632,-0.2206463375378956,0.0244662567849268,-0.4863619781627547,0.4925577089898953,-0.5034183168809517,0.5171159712685219,0.0,0.0,0.0,1,0.14070709961870753,0,1735643777088253974,map,0.9774967037794272,-0.2512728071573377,0.1497169933393133,-0.5083672746778567,0.4942653619883441,-0.4830545003927207,0.5137341877133335,0.0,0.0,0.0,16,0.23062818566174262,0,1735643777088270664,map,0.9752024894294484,0.0549994944390511,0.0284013624330921,-0.4828184714595386,0.487057385228689,-0.4987459921358703,0.5300130776123106,0.0,0.0,0.0,17,5.499390874110594e-05,0,1735643777088284730,map,0.9999548366876432,-0.2594861941426405,0.2382238674678952,-0.4953269408233036,0.5035380786981261,-0.4883322055908761,0.5124766160307973,0.0,0.0,0.0,121,0.05511521055795171,0,1735643777088297367,map,0.9991032547152666,0.2074613379400511,0.2437630557518357,-0.5233306280174359,0.4928294041076625,-0.482516583834101,0.5004218006350555,0.0,0.0,0.0,122,0.0006549005871147061,0,1735643777088310956,map,0.9890334979168924,0.2056526883042223,0.1465676070382618,-0.4750893135404063,0.4962710883802172,-0.4891667699607945,0.537327667409508,0.0,0.0,0.0,124,7.386787078668851e-06,0,1735643777088322877,map,0.9859598168893235,-0.027621157694444,0.243923348912503,-0.4983799155830536,0.4962963600052549,-0.4985200704693587,0.5067396985910888,0.0,0.0,0.0,125,0.48289143831201214,0,1735643777088343858,map,0.984898786951361,-0.0214373752807772,0.1468883599773962,-0.480058607255249,0.4814419317270769,-0.5214255053390948,0.5156285895457315,0.0,0.0,0.0,126,0.08994078456658576,0,1735644242188269615,map,0.9790507484887075,0.3312396311173553,0.0259451587908434,-0.4989371443450012,0.5001835527978994,-0.4834491239331902,0.5168704712706633,0.0,0.0,0.0,0,6.560753928349687e-14,0.930504709307661,-0.0659906742551759,0.2607706841671127,1.0,0.0001306144205186,-0.0014532539266886,-0.0016507923035595,0.0,0.0,0.0,-0.0014532539266886,0.0205899241452793,0.0174312317580678,0.0,0.0,0.0,-0.0016507923035595,0.0174312317580678,0.021061984830983,0.0,0.0,0.0,0.0,0.0,0.0,0.0,0.0,0.0,0.0,0.0,0.0,0.0,0.0,0.0,0.0,0.0,0.0,0.0,0.0,0.0,0,0,0,1,13,,126
1.297205097,0,1735643777088230371,map,0.9713725674308642,-0.2210481393376666,0.0229005957165267,-0.4952355933228295,0.4986277740729745,-0.492287405948138,0.5135807239120929,0.0,0.0,0.0,1,0.10821817181468435,0,1735643777088253974,map,0.9733812514897332,-0.2481643334507214,0.1512669718471937,-0.5064638267494334,0.4854053582710879,-0.4829571164388366,0.5240500491719472,0.0,0.0,0.0,16,0.19585434194425874,0,1735643777088270664,map,0.9742224381283916,0.0570615906040231,0.0291513770218922,-0.4916243097386274,0.4902608483243097,-0.4952903962791767,0.5221467820718252,0.0,0.0,0.0,17,0.001424785793034706,0,1735643777088284730,map,0.9971181566512392,-0.257176741199355,0.2386619788437284,-0.506575240171083,0.4979023114939028,-0.4706085248623475,0.5234524148206054,0.0,0.0,0.0,121,0.08077274050724365,0,1735643777088297367,map,0.9912897667602378,0.20514493444619,0.2444620426559941,-0.4980317529170261,0.4802533134570631,-0.5001744107874214,0.5207174731016443,0.0,0.0,0.0,122,0.012937834856097865,0,1735643777088310956,map,0.9906112417217428,0.2087393776275414,0.1466271284334167,-0.488885005256139,0.500747176232681,-0.4751561466284391,0.5333576224747466,0.0,0.0,0.0,124,0.0006670496821868445,0,1735643777088322877,map,0.9873640992952192,-0.0258919995736677,0.2445415520936299,-0.57079033678243,0.4592019584683091,-0.4159664548887734,0.5387985348735974,0.0,0.0,0.0,125,0.4459524545170579,0,1735643777088343858,map,0.9909105710919957,-0.0191046877958692,0.1464401042952465,0.5028701708638231,-0.5017353240405154,0.4984260769704202,-0.4969453709023006,0.0,0.0,0.0,126,0.15417261310000113,0,1735644242188269615,map,0.9790507484887075,0.3312396311173553,0.0259451587908434,-0.4989371443450012,0.5001835527978994,-0.4834491239331902,0.5168704712706633,0.0,0.0,0.0,0,7.78543472320182e-09,0.9302395423104756,-0.0477098161464638,0.2608761472418174,1.0,0.0001221988950261,-0.0014124673180409,-0.0015332421168397,0.0,0.0,0.0,-0.0014124673180409,0.0234636823292405,0.0162112071969057,0.0,0.0,0.0,-0.0015332421168397,0.0162112071969057,0.0195577019350373,0.0,0.0,0.0,0.0,0.0,0.0,0.0,0.0,0.0,0.0,0.0,0.0,0.0,0.0,0.0,0.0,0.0,0.0,0.0,0.0,0.0,0,0,0,1,14,,126
1.399557081,0,1735643777088230371,map,0.9735746742288864,-0.2218286658997854,0.0212332077427166,-0.4965009606378823,0.500621384352393,-0.4901869169190926,0.5124273725086393,0.0,0.0,0.0,1,0.0919026445263006,0,1735643777088253974,map,0.9708359462026924,-0.2496403907483493,0.1497767759129158,-0.5140674154825835,0.4871619805884049,-0.4735099119063647,0.5236375276225588,0.0,0.0,0.0,16,0.16026344166144962,0,1735643777088270664,map,0.9778642077311293,0.0570601318372614,0.0249716307007283,-0.494851688015224,0.495143225126763,-0.4935408227454251,0.5161128265828311,0.0,0.0,0.0,17,0.005798239351627639,0,1735643777088284730,map,0.9929676901435134,-0.2587857102579259,0.2373024512833332,-0.5077904950845636,0.4789277338100947,-0.4745361929556303,0.5362764589877845,0.0,0.0,0.0,121,0.08260900936279024,0,1735643777088297367,map,0.9871229116211616,0.2025337863750501,0.2429803460292073,-0.5098353591004795,0.4931204529921939,-0.4896861320996022,0.5070578048713865,0.0,0.0,0.0,122,0.039969754557693596,0,1735643777088310956,map,0.9861384280570548,0.205993355908832,0.1455254037396354,-0.4850079621739844,0.4992973454302533,-0.4838961337955182,0.5303903931745851,0.0,0.0,0.0,124,0.005050825599567347,0,1735643777088322877,map,0.9780188569101114,-0.0282802624820464,0.243391922610723,-0.4691816171260991,0.5388952321857993,-0.5276388545267048,0.4594102502906295,0.0,0.0,0.0,125,0.41373132766265036,0,1735643777088343858,map,0.9856998897250048,-0.0213377134014921,0.1453543272772917,-0.5015237371651875,0.5039292105407395,-0.5009037588134906,0.4935835453397605,0.0,0.0,0.0,126,0.20067349587972194,0,1735644242188269615,map,0.9790507484887075,0.3312396311173553,0.0259451587908434,-0.4989371443450012,0.5001835527978994,-0.4834491239331902,0.5168704712706633,0.0,0.0,0.0,0,1.2613981986971222e-06,0.9303144731434146,-0.0341748921651195,0.2568868888511492,1.0,0.0001141309068405,-0.0013041042663839,-0.0014352108340734,0.0,0.0,0.0,-0.0013041042663839,0.0244641551811553,0.0143745397236104,0.0,0.0,0.0,-0.0014352108340734,0.0143745397236104,0.0184766536944733,0.0,0.0,0.0,0.0,0.0,0.0,0.0,0.0,0.0,0.0,0.0,0.0,0.0,0.0,0.0,0.0,0.0,0.0,0.0,0.0,0.0,0,0,0,1,15,,126
1.496905515,0,1735643777088230371,map,0.9747838018005978,-0.222291070483183,0.0200109845724628,-0.5027287884742355,0.5042058854436002,-0.4886534973289256,0.5042399725046328,0.0,0.0,0.0,1,0.08412228389232682,0,1735643777088253974,map,0.969406668866602,-0.2492044345232409,0.1494746699747893,-0.5163278043447752,0.4846643995563884,-0.4686445497195153,0.528089295745845,0.0,0.0,0.0,16,0.1373119520392952,0,1735643777088270664,map,0.9733967486163182,0.0557469418304955,0.0264613649721063,-0.4843559575099193,0.502563095758942,-0.5047192940790348,0.5080236956975525,0.0,0.0,0.0,17,0.013295943874872566,0,1735643777088284730,map,0.9879165822809776,-0.2575305242717381,0.2367873450540973,-0.5064583255534217,0.472503033203673,-0.4781861496338019,0.5399804203759176,0.0,0.0,0.0,121,0.07743099174276653,0,1735643777088297367,map,0.9939151428824118,0.2063924807242546,0.2423350696561544,-0.5083032989618764,0.4871910973787452,-0.4940482729363772,0.5100871444252941,0.0,0.0,0.0,122,0.056789270877989934,0,1735643777088310956,map,0.9869730966198564,0.2063958466467893,0.1446249576538948,-0.4942249495052915,0.5029722574430133,-0.4735260532654252,0.5277629054869636,0.0,0.0,0.0,124,0.011458166364498201,0,1735643777088322877,map,0.9769757561280168,-0.0285228037328121,0.2425783453658943,-0.4678136280516101,0.541301609920047,-0.5290313790641257,0.4563647406106924,0.0,0.0,0.0,125,0.3925934140843298,0,1735643777088343858,map,0.9851521596741424,-0.0218179225388478,0.144781323810903,-0.505836583112996,0.507301915713411,-0.4959413294331422,0.490730389580837,0.0,0.0,0.0,126,0.22698628486043243,0,1735644242188269615,map,0.9790507484887075,0.3312396311173553,0.0259451587908434,-0.4989371443450012,0.5001835527978994,-0.4834491239331902,0.5168704712706633,0.0,0.0,0.0,0,1.1692263488562724e-05,0.9306039777069484,-0.0258189354140392,0.2507767536720865,1.0,0.0001082549185476,-0.0011863114355529,-0.001372043837216,0.0,0.0,0.0,-0.0011863114355529,0.0239824756807219,0.0127102906113922,0.0,0.0,0.0,-0.001372043837216,0.0127102906113922,0.017881869117165,0.0,0.0,0.0,0.0,0.0,0.0,0.0,0.0,0.0,0.0,0.0,0.0,0.0,0.0,0.0,0.0,0.0,0.0,0.0,0.0,0.0,0,0,0,1,16,,126
1.598674539,0,1735643777088230371,map,0.9644601351080592,-0.2217167509994903,0.0233292939137074,-0.4961490669969562,0.4962747834323568,-0.4916770581640408,0.5155590297166482,0.0,0.0,0.0,1,0.07868256831683954,0,1735643777088253974,map,0.9701148337893478,-0.2498528272143644,0.1495300443278827,-0.5151425805121668,0.496589726388585,-0.4707961917535035,0.5161179237528709,0.0,0.0,0.0,16,0.12108142182456708,0,1735643777088270664,map,0.972882578271914,0.0552601605339186,0.0270765055756964,-0.488525023941051,0.5021368337482806,-0.4991405975410624,0.5099613368315274,0.0,0.0,0.0,17,0.01715362842469606,0,1735643777088284730,map,0.9891387873168264,-0.2589395740878468,0.2370947653322168,-0.5098929063337939,0.4981997633839801,-0.4676434983006021,0.5226048012904185,0.0,0.0,0.0,121,0.06817422188248595,0,1735643777088297367,map,0.9852289230041088,0.2009540275913852,0.2427811533295928,-0.5089840986937717,0.4927553079102947,-0.4901074208022944,0.5078603251659284,0.0,0.0,0.0,122,0.07627189470627983,0,1735643777088310956,map,0.9853105695330328,0.2050424089587184,0.1451111187088006,-0.4933610152545279,0.5020359591750111,-0.4743922913935842,0.5286839870741243,0.0,0.0,0.0,124,0.016743438646922192,0,1735643777088322877,map,0.979616896733228,-0.0292721366215417,0.2429418402078219,-0.5744602904708204,0.4897241420126493,-0.4192328407920515,0.5043901908280748,0.0,0.0,0.0,125,0.38246669098716884,0,1735643777088343858,map,0.9825447694241832,-0.0227089741305276,0.14583250939149,0.651054356565793,-0.5401206924722246,0.3407699581426911,-0.4102117721219789,0.0,0.0,0.0,126,0.23940034719135214,0,1735644242188269615,map,0.9790507484887075,0.3312396311173553,0.0259451587908434,-0.4989371443450012,0.5001835527978994,-0.4834491239331902,0.5168704712706633,0.0,0.0,0.0,0,2.578801968842493e-05,0.930657468454084,-0.0177918685909749,0.2482751412051934,1.0,0.0001019327623229,-0.0011096584291054,-0.0012934763861217,0.0,0.0,0.0,-0.0011096584291054,0.0236026826456611,0.0116413366907863,0.0,0.0,0.0,-0.0012934763861217,0.0116413366907863,0.0169301235021664,0.0,0.0,0.0,0.0,0.0,0.0,0.0,0.0,0.0,0.0,0.0,0.0,0.0,0.0,0.0,0.0,0.0,0.0,0.0,0.0,0.0,0,0,0,1,17,,126
1.696845364,0,1735643777088230371,map,0.9656976675190656,-0.2218637519526988,0.0238440040219499,-0.4938541497145273,0.4967938844943462,-0.4975893579764749,0.5115747706516802,0.0,0.0,0.0,1,0.07368598814216998,0,1735643777088253974,map,0.9682586693093052,-0.251528317684869,0.1499179563547469,-0.5081862201796742,0.4957739047937571,-0.4823787405603847,0.5130942911399652,0.0,0.0,0.0,16,0.10901296957676417,0,1735643777088270664,map,0.9649530611377968,0.0529496735052727,0.0299577959507167,-0.4811710142240847,0.4959122473956022,-0.506110403046617,0.5161373440099055,0.0,0.0,0.0,17,0.02035375907410708,0,1735643777088284730,map,0.9860971161403556,-0.2606492026910834,0.2372623384820032,-0.5060170034901087,0.4976778121364787,-0.471108890346924,0.5237556691072941,0.0,0.0,0.0,121,0.05913731268208936,0,1735643777088297367,map,0.9848913072542012,0.2013728910056409,0.2429221100176434,-0.5020460379178253,0.4790636566641706,-0.5003748498045267,0.5177574705957073,0.0,0.0,0.0,122,0.08114380450282083,0,1735643777088310956,map,0.9806557392468638,0.2029033529964837,0.1456454292703707,-0.4881568060009116,0.5009654929848717,-0.478328766118739,0.5309784356230842,0.0,0.0,0.0,124,0.01940881550941591,0,1735643777088322877,map,0.9760458540247884,-0.0305533905036908,0.2432750587334647,-0.4681587101035886,0.5434922995225453,-0.5285493474690917,0.4539593922410213,0.0,0.0,0.0,125,0.3851746767974026,0,1735643777088343858,map,0.9752734990060404,-0.024589261691095,0.1463814805374005,-0.4942572514055141,0.4863257837696408,-0.5041521629657127,0.5148083119481508,0.0,0.0,0.0,126,0.2520542327442269,0,1735644242188269615,map,0.9790507484887075,0.3312396311173553,0.0259451587908434,-0.4989371443450012,0.5001835527978994,-0.4834491239331902,0.5168704712706633,0.0,0.0,0.0,0,2.844097100308791e-05,0.9307492171503556,-0.0135418632809036,0.2459995809755649,1.0,9.64129340783512e-05,-0.0010413818870117,-0.0012251658415267,0.0,0.0,0.0,-0.0010413818870117,0.0225984857659857,0.0108301863315122,0.0,0.0,0.0,-0.0012251658415267,0.0108301863315122,0.0160775900494767,0.0,0.0,0.0,0.0,0.0,0.0,0.0,0.0,0.0,0.0,0.0,0.0,0.0,0.0,0.0,0.0,0.0,0.0,0.0,0.0,0.0,0,0,0,1,18,,126
1.797873209,0,1735643777088230371,map,0.9656976675190656,-0.2218637519526988,0.0238440040219499,-0.4938541497145273,0.4967938844943462,-0.4975893579764749,0.5115747706516802,0.0,0.0,0.0,1,0.07118917008955708,0,1735643777088253974,map,0.9675296834533808,-0.253155539662616,0.149636037832794,-0.5042575894699415,0.4934851960584052,-0.4870818683589988,0.5147308988676197,0.0,0.0,0.0,16,0.09970003951401113,0,1735643777088270664,map,0.966800722711234,0.0522714968795899,0.0282438929976749,-0.4862231623105473,0.4951088192902755,-0.5016570377101722,0.5165215484465044,0.0,0.0,0.0,17,0.020355527737047466,0,1735643777088284730,map,0.9851568095456904,-0.2626103860886339,0.2368272271422762,-0.4983274451860957,0.486423639264132,-0.4853596737340016,0.5286660454882265,0.0,0.0,0.0,121,0.05129232390145112,0,1735643777088297367,map,0.9835211485763432,0.1998968069165413,0.2427822782172106,-0.5088451170331679,0.491550236604962,-0.4903580336062759,0.508924366328528,0.0,0.0,0.0,122,0.08382014887008653,0,1735643777088310956,map,0.9804498836922492,0.2021829032536336,0.1449795493766889,-0.4879738656947007,0.5000599218432382,-0.4776374240413754,0.5326200072474027,0.0,0.0,0.0,124,0.019728145632407476,0,1735643777088322877,map,0.9750063456373952,-0.032200347336911,0.2426498899521944,-0.5557414898352208,0.4861618593311356,-0.4395175355558089,0.5114903507852029,0.0,0.0,0.0,125,0.39040524694616086,0,1735643777088343858,map,0.9737974350441072,-0.0260126192199199,0.1463236241021833,0.4789365448799114,-0.4904070522379662,0.53274818792062,-0.4962862856870587,0.0,0.0,0.0,126,0.2634836364174554,0,1735644242188269615,map,0.9790507484887075,0.3312396311173553,0.0259451587908434,-0.4989371443450012,0.5001835527978994,-0.4834491239331902,0.5168704712706633,0.0,0.0,0.0,0,2.5760891822893092e-05,0.9309398100664052,-0.0120900284725482,0.2428343595723014,1.0,9.19924310005269e-05,-0.0009815915442756,-0.0011715422668042,0.0,0.0,0.0,-0.0009815915442756,0.0214470326158958,0.0101774597096211,0.0,0.0,0.0,-0.0011715422668042,0.0101774597096211,0.0154117363770744,0.0,0.0,0.0,0.0,0.0,0.0,0.0,0.0,0.0,0.0,0.0,0.0,0.0,0.0,0.0,0.0,0.0,0.0,0.0,0.0,0.0,0,0,0,1,19,,126
1.89840585,0,1735643777088230371,map,0.9656976675190656,-0.2218637519526988,0.0238440040219499,-0.4938541497145273,0.4967938844943462,-0.4975893579764749,0.5115747706516802,0.0,0.0,0.0,1,0.0699006517804312,0,1735643777088253974,map,0.9682469360134665,-0.2544205779700095,0.1476118046240162,-0.5062591514313584,0.4941124849830182,-0.4878310699105446,0.5114443967879998,0.0,0.0,0.0,16,0.0922769858947065,0,1735643777088270664,map,0.966800722711234,0.0522714968795899,0.0282438929976749,-0.4862231623105473,0.4951088192902755,-0.5016570377101722,0.5165215484465044,0.0,0.0,0.0,17,0.021179219219193503,0,1735643777088284730,map,0.9851229488462524,-0.2640124637437468,0.2352102833934256,-0.5021596460176638,0.5006448094552978,-0.478204028471067,0.5181808292777016,0.0,0.0,0.0,121,0.04546493913904569,0,1735643777088297367,map,0.9820983939226432,0.1987107544574994,0.2408566920645421,-0.5106053390304911,0.4888350765105667,-0.4955910889020128,0.5046899328571782,0.0,0.0,0.0,122,0.08391239749835959,0,1735643777088310956,map,0.9809382770896145,0.2022279980824321,0.1428013689958059,-0.4874472516693151,0.4994821917106111,-0.4768209904995091,0.5343729596668071,0.0,0.0,0.0,124,0.019005548935974895,0,1735643777088322877,map,0.9734599502467244,-0.0331266617321091,0.2410756011963981,0.4659970775204058,-0.5277228967039705,0.5301915472908688,-0.4724957049732048,0.0,0.0,0.0,125,0.39662037407239975,0,1735643777088343858,map,0.9727338170067632,-0.0268888140082408,0.1445109934048769,-0.4895743041019442,0.4890952460755138,-0.5156088926828667,0.5052230307654019,0.0,0.0,0.0,126,0.27161693442471985,0,1735644242188269615,map,0.9790507484887075,0.3312396311173553,0.0259451587908434,-0.4989371443450012,0.5001835527978994,-0.4834491239331902,0.5168704712706633,0.0,0.0,0.0,0,2.2949035168962682e-05,0.9311657019165884,-0.0114817597297358,0.239318457599397,1.0,8.836232488210492e-05,-0.0009299013109791,-0.0011280552118967,0.0,0.0,0.0,-0.0009299013109791,0.0203817108115071,0.0096279530719548,0.0,0.0,0.0,-0.0011280552118967,0.0096279530719548,0.0148760193251991,0.0,0.0,0.0,0.0,0.0,0.0,0.0,0.0,0.0,0.0,0.0,0.0,0.0,0.0,0.0,0.0,0.0,0.0,0.0,0.0,0.0,0,0,0,1,20,,126
1.998431556,0,1735643777088230371,map,0.9656976675190656,-0.2218637519526988,0.0238440040219499,-0.4938541497145273,0.4967938844943462,-0.4975893579764749,0.5115747706516802,0.0,0.0,0.0,1,0.06971658979580513,0,1735643777088253974,map,0.9575027668842214,-0.2518743425709069,0.1493361894790214,-0.5103826580249984,0.497330050571516,-0.4790521000413459,0.5125245834414648,0.0,0.0,0.0,16,0.08921180408200088,0,1735643777088270664,map,0.966800722711234,0.0522714968795899,0.0282438929976749,-0.4862231623105473,0.4951088192902755,-0.5016570377101722,0.5165215484465044,0.0,0.0,0.0,17,0.021416609573467575,0,1735643777088284730,map,0.9774412976772408,-0.263561408767211,0.2351681385652464,-0.5006627289737284,0.4984383179472256,-0.4771302176052911,0.5227263437654991,0.0,0.0,0.0,121,0.04035867983589573,0,1735643777088297367,map,0.9766545920868616,0.1971855883687515,0.2409993646002166,-0.5058573272080816,0.4913294502396588,-0.4933471411464737,0.5092271930677814,0.0,0.0,0.0,122,0.08268276179552463,0,1735643777088310956,map,0.9724158218340104,0.1988730950578533,0.1436445761086009,-0.4967838266650389,0.5062072355786933,-0.4760952711748691,0.5198974485191724,0.0,0.0,0.0,124,0.019829929290720142,0,1735643777088322877,map,0.9653168584794056,-0.0343950310944102,0.240925884670165,-0.4766272725490239,0.4752784433673208,-0.5191268317590417,0.5267297000176036,0.0,0.0,0.0,125,0.3962437103846104,0,1735643777088343858,map,0.9718377405469248,-0.0275985032699394,0.1446257556002108,-0.4933965589028506,0.4927468276720086,-0.5082292340090169,0.5054339177188308,0.0,0.0,0.0,126,0.28052161903858336,0,1735644242188269615,map,0.9790507484887075,0.3312396311173553,0.0259451587908434,-0.4989371443450012,0.5001835527978994,-0.4834491239331902,0.5168704712706633,0.0,0.0,0.0,0,1.8296203392174863e-05,0.9314512409226088,-0.0124888220871099,0.2352501916994318,1.0,8.5785245604995e-05,-0.0008913714078611,-0.0010975712690705,0.0,0.0,0.0,-0.0008913714078611,0.0194314366456491,0.0092514190651003,0.0,0.0,0.0,-0.0010975712690705,0.0092514190651003,0.014498653201227,0.0,0.0,0.0,0.0,0.0,0.0,0.0,0.0,0.0,0.0,0.0,0.0,0.0,0.0,0.0,0.0,0.0,0.0,0.0,0.0,0.0,0,0,0,1,21,,126
2.097392713,0,1735643777088230371,map,0.9656976675190656,-0.2218637519526988,0.0238440040219499,-0.4938541497145273,0.4967938844943462,-0.4975893579764749,0.5115747706516802,0.0,0.0,0.0,1,0.07037694568382034,0,1735643777088253974,map,0.9611595308589194,-0.2549009594209205,0.1487786910934397,-0.5032910648264808,0.506362189075703,-0.4821213250535505,0.5077937233453149,0.0,0.0,0.0,16,0.08060514521324227,0,1735643777088270664,map,0.966800722711234,0.0522714968795899,0.0282438929976749,-0.4862231623105473,0.4951088192902755,-0.5016570377101722,0.5165215484465044,0.0,0.0,0.0,17,0.022084626030274456,0,1735643777088284730,map,0.976294596862104,-0.2644161245541748,0.2359249756186798,-0.493030199949733,0.4957912034273009,-0.4901862202591237,0.5204130801677735,0.0,0.0,0.0,121,0.034827791765178286,0,1735643777088297367,map,0.9760027050997836,0.1971601127932312,0.241855586860278,0.5087383483223764,-0.4957358860018545,0.4968503006166029,-0.4985689551640458,0.0,0.0,0.0,122,0.0803997029599175,0,1735643777088310956,map,0.9683081068404412,0.1965223538910786,0.1453951932430003,-0.4829479606367532,0.5063375981189883,-0.4881046197578522,0.521667886896384,0.0,0.0,0.0,124,0.0208356400066907,0,1735643777088322877,map,0.9626280501860988,-0.0350706627750504,0.2423115736960647,-0.5370297097095555,0.5645397284598792,-0.4514335313808327,0.4348583132754246,0.0,0.0,0.0,125,0.3961447918220885,0,1735643777088343858,map,0.9659556416469884,-0.0287968757054158,0.1455613254692133,-0.5133593633884139,0.4839388560634406,-0.4843881719374542,0.5173330131554945,0.0,0.0,0.0,126,0.2947103121407567,0,1735644242188269615,map,0.9790507484887075,0.3312396311173553,0.0259451587908434,-0.4989371443450012,0.5001835527978994,-0.4834491239331902,0.5168704712706633,0.0,0.0,0.0,0,1.5044378031291688e-05,0.9317451494882664,-0.0135727453203386,0.2310727027559016,1.0,8.369994340362197e-05,-0.0008575445864635,-0.0010734654613833,0.0,0.0,0.0,-0.0008575445864635,0.0185728622064785,0.008925989640458,0.0,0.0,0.0,-0.0010734654613833,0.008925989640458,0.0142061032016018,0.0,0.0,0.0,0.0,0.0,0.0,0.0,0.0,0.0,0.0,0.0,0.0,0.0,0.0,0.0,0.0,0.0,0.0,0.0,0.0,0.0,0,0,0,1,22,,126
2.197676757,0,1735643777088230371,map,0.9656976675190656,-0.2218637519526988,0.0238440040219499,-0.4938541497145273,0.4967938844943462,-0.4975893579764749,0.5115747706516802,0.0,0.0,0.0,1,0.07267770638073624,0,1735643777088253974,map,0.9585066757531168,-0.2548186441875777,0.1491197143482805,-0.5063734327154522,0.5038922808755293,-0.4827478955675948,0.5065895628998733,0.0,0.0,0.0,16,0.07819319407300145,0,1735643777088270664,map,0.966800722711234,0.0522714968795899,0.0282438929976749,-0.4862231623105473,0.4951088192902755,-0.5016570377101722,0.5165215484465044,0.0,0.0,0.0,17,0.021347004910585415,0,1735643777088284730,map,0.97333307799624,-0.2645919074125124,0.2359125998084237,-0.4933313698764437,0.4967446257885431,-0.4879240392901226,0.5213435221893935,0.0,0.0,0.0,121,0.03133860899585415,0,1735643777088297367,map,0.9726006999881754,0.1961120192612633,0.2416640684947116,-0.4985058982247214,0.4878697439988191,-0.501384364821717,0.5119459942591733,0.0,0.0,0.0,122,0.07612390613239811,0,1735643777088310956,map,0.9671360930239612,0.1968287947089027,0.1450328763724418,-0.4878635701090216,0.5058890104126704,-0.4816707910167785,0.5235061558238253,0.0,0.0,0.0,124,0.01858809575864744,0,1735643777088322877,map,0.9632110635273776,-0.0355360489514887,0.2418944962273896,-0.5065573759295372,0.5083276497543269,-0.4920479913972658,0.4928401358945316,0.0,0.0,0.0,125,0.3978008916975489,0,1735643777088343858,map,0.962096371544798,-0.0293269416817151,0.1459324226845945,0.492403623195244,-0.4943059961621273,0.5132885916624634,-0.4997350054694265,0.0,0.0,0.0,126,0.3039202401834142,0,1735644242188269615,map,0.9790507484887075,0.3312396311173553,0.0259451587908434,-0.4989371443450012,0.5001835527978994,-0.4834491239331902,0.5168704712706633,0.0,0.0,0.0,0,1.0351867814056101e-05,0.932053050885232,-0.0163239628081513,0.2270384115249596,1.0,8.214648737512535e-05,-0.0008388963207988,-0.0010541206559458,0.0,0.0,0.0,-0.0008388963207988,0.0179318688070062,0.0087820858112321,0.0,0.0,0.0,-0.0010541206559458,0.0087820858112321,0.0139465076668558,0.0,0.0,0.0,0.0,0.0,0.0,0.0,0.0,0.0,0.0,0.0,0.0,0.0,0.0,0.0,0.0,0.0,0.0,0.0,0.0,0.0,0,0,0,1,23,,126
2.297783005,0,1735643777088230371,map,0.9656976675190656,-0.2218637519526988,0.0238440040219499,-0.4938541497145273,0.4967938844943462,-0.4975893579764749,0.5115747706516802,0.0,0.0,0.0,1,0.07371874711009878,0,1735643777088253974,map,0.9569412307393246,-0.2557351574575751,0.1490742179612357,-0.5012620640004409,0.4995384585935918,-0.4920799652290093,0.5070058968100608,0.0,0.0,0.0,16,0.07421780655474948,0,1735643777088270664,map,0.966800722711234,0.0522714968795899,0.0282438929976749,-0.4862231623105473,0.4951088192902755,-0.5016570377101722,0.5165215484465044,0.0,0.0,0.0,17,0.02042959073123077,0,1735643777088284730,map,0.9717359365027438,-0.2657424029780485,0.2359107395004905,-0.4925267742965835,0.5048315793890906,-0.488324613436918,0.5139080899968431,0.0,0.0,0.0,121,0.02756326095562006,0,1735643777088297367,map,0.9680587337566976,0.193371857690058,0.241765875037583,-0.5002365593929713,0.4951654017220359,-0.4990519627645075,0.5054915904790406,0.0,0.0,0.0,122,0.07477256204709497,0,1735643777088310956,map,0.963703275556161,0.1948359701070961,0.145538933031786,-0.4828043178705886,0.5060439140571432,-0.4874820909212798,0.5226669673150003,0.0,0.0,0.0,124,0.017796312714453505,0,1735643777088322877,map,0.9579860820378624,-0.0366134939012575,0.2421679528220255,-0.5103401910006645,0.5619102153462426,-0.4802834818822818,0.4394742044420542,0.0,0.0,0.0,125,0.398218678848845,0,1735643777088343858,map,0.9588366775590508,-0.0304728463837533,0.1464471637460259,-0.4839293221741259,0.4903837919261299,-0.5218507882307389,0.5029989091232686,0.0,0.0,0.0,126,0.3132759389890073,0,1735644242188269615,map,0.9790507484887075,0.3312396311173553,0.0259451587908434,-0.4989371443450012,0.5001835527978994,-0.4834491239331902,0.5168704712706633,0.0,0.0,0.0,0,7.102048900017434e-06,0.9323058677735724,-0.0184804283781337,0.223704154642664,1.0,8.019379378552027e-05,-0.0008164816984821,-0.001029586960296,0.0,0.0,0.0,-0.0008164816984821,0.0172916655130682,0.0085815404029648,0.0,0.0,0.0,-0.001029586960296,0.0085815404029648,0.0136211003667509,0.0,0.0,0.0,0.0,0.0,0.0,0.0,0.0,0.0,0.0,0.0,0.0,0.0,0.0,0.0,0.0,0.0,0.0,0.0,0.0,0.0,0,0,0,1,24,,126
2.398527657,0,1735643777088230371,map,0.9656976675190656,-0.2218637519526988,0.0238440040219499,-0.4938541497145273,0.4967938844943462,-0.4975893579764749,0.5115747706516802,0.0,0.0,0.0,1,0.07136463861787257,0,1735643777088253974,map,0.9509437429773802,-0.2531867296282051,0.1502467387342871,-0.5036288418810692,0.4992870882241199,-0.4881028133263559,0.508749483322696,0.0,0.0,0.0,16,0.07219312824139189,0,1735643777088270664,map,0.966800722711234,0.0522714968795899,0.0282438929976749,-0.4862231623105473,0.4951088192902755,-0.5016570377101722,0.5165215484465044,0.0,0.0,0.0,17,0.01988571712104058,0,1735643777088284730,map,0.96789649056643,-0.2646152474814263,0.2361627269686563,-0.492482880205105,0.5024166842840418,-0.48988647922906,0.514829414006688,0.0,0.0,0.0,121,0.025066743916527273,0,1735643777088297367,map,0.9654090966476818,0.1948406825750531,0.2421666158470052,-0.4972412364905111,0.4877070216481243,-0.501791732731008,0.5129308635004494,0.0,0.0,0.0,122,0.07150824086862863,0,1735643777088310956,map,0.9587455698166852,0.1946682416212408,0.1461331853678855,-0.4812901113876571,0.5041252269791827,-0.4885881964553078,0.524880137258207,0.0,0.0,0.0,124,0.017327069865666456,0,1735643777088322877,map,0.9565892369048424,-0.0357254654448048,0.2423768529992632,-0.4912856509028888,0.5171384314234692,-0.5067984031640344,0.4841091101313664,0.0,0.0,0.0,125,0.40355436569468095,0,1735643777088343858,map,0.9574229794908596,-0.0295843662579028,0.1459012747249701,-0.4947072497002777,0.4913049621774817,-0.5090744872928404,0.5047051987262494,0.0,0.0,0.0,126,0.3190946620194715,0,1735644242188269615,map,0.9790507484887075,0.3312396311173553,0.0259451587908434,-0.4989371443450012,0.5001835527978994,-0.4834491239331902,0.5168704712706633,0.0,0.0,0.0,0,5.43365472017551e-06,0.9324175295047744,-0.0181713634057791,0.2219644154410775,1.0,7.728528224726074e-05,-0.000782994173026,-0.0009930657768703,0.0,0.0,0.0,-0.000782994173026,0.0166022914003168,0.0082253741680884,0.0,0.0,0.0,-0.0009930657768703,0.0082253741680884,0.0131488969718297,0.0,0.0,0.0,0.0,0.0,0.0,0.0,0.0,0.0,0.0,0.0,0.0,0.0,0.0,0.0,0.0,0.0,0.0,0.0,0.0,0.0,0,0,0,1,25,,126
2.4985198,0,1735643777088230371,map,0.9656976675190656,-0.2218637519526988,0.0238440040219499,-0.4938541497145273,0.4967938844943462,-0.4975893579764749,0.5115747706516802,0.0,0.0,0.0,1,0.06709653534653312,0,1735643777088253974,map,0.9514548799650736,-0.2533044804338751,0.1498855662496407,-0.5048982841937832,0.5019201827475712,-0.4884347015263638,0.5045645599065302,0.0,0.0,0.0,16,0.06738939755935794,0,1735643777088270664,map,0.966800722711234,0.0522714968795899,0.0282438929976749,-0.4862231623105473,0.4951088192902755,-0.5016570377101722,0.5165215484465044,0.0,0.0,0.0,17,0.019052717868213203,0,1735643777088284730,map,0.9665996794678376,-0.2638745410027915,0.2363226823556246,-0.4921345626172126,0.5013977231155698,-0.489186189070172,0.516817925342271,0.0,0.0,0.0,121,0.022776064430633538,0,1735643777088297367,map,0.9654090966476818,0.1948406825750531,0.2421666158470052,-0.4972412364905111,0.4877070216481243,-0.501791732731008,0.5129308635004494,0.0,0.0,0.0,122,0.07228024053738634,0,1735643777088310956,map,0.9587455698166852,0.1946682416212408,0.1461331853678855,-0.4812901113876571,0.5041252269791827,-0.4885881964553078,0.524880137258207,0.0,0.0,0.0,124,0.016987795194373805,0,1735643777088322877,map,0.9524214836391746,-0.035190702252313,0.2426485145467875,-0.5082322051825365,0.5586669590620085,-0.48308595344508,0.4429663825300542,0.0,0.0,0.0,125,0.4093539911365264,0,1735643777088343858,map,0.9559360046412644,-0.0287806417942484,0.1460991445400112,-0.4928884281436363,0.4859899110589896,-0.5068027341491471,0.5138344017384586,0.0,0.0,0.0,126,0.325058902869996,0,1735644242188269615,map,0.9790507484887075,0.3312396311173553,0.0259451587908434,-0.4989371443450012,0.5001835527978994,-0.4834491239331902,0.5168704712706633,0.0,0.0,0.0,0,4.3550569797483146e-06,0.9323892325217196,-0.0159841615898226,0.2219256213317602,1.0,7.433278937284704e-05,-0.0007544262928431,-0.000954843495392,0.0,0.0,0.0,-0.0007544262928431,0.0160833380256669,0.0079068923595032,0.0,0.0,0.0,-0.000954843495392,0.0079068923595032,0.0126432077897938,0.0,0.0,0.0,0.0,0.0,0.0,0.0,0.0,0.0,0.0,0.0,0.0,0.0,0.0,0.0,0.0,0.0,0.0,0.0,0.0,0.0,0,0,0,1,26,,126
