%time,field.boxes0.header.seq,field.boxes0.header.stamp,field.boxes0.header.frame_id,field.boxes0.pose.position.x,field.boxes0.pose.position.y,field.boxes0.pose.position.z,field.boxes0.pose.orientation.x,field.boxes0.pose.orientation.y,field.boxes0.pose.orientation.z,field.boxes0.pose.orientation.w,field.boxes0.scale.x,field.boxes0.scale.y,field.boxes0.scale.z,field.boxes0.id,field.boxes0.pdf,field.boxes1.header.seq,field.boxes1.header.stamp,field.boxes1.header.frame_id,field.boxes1.pose.position.x,field.boxes1.pose.position.y,field.boxes1.pose.position.z,field.boxes1.pose.orientation.x,field.boxes1.pose.orientation.y,field.boxes1.pose.orientation.z,field.boxes1.pose.orientation.w,field.boxes1.scale.x,field.boxes1.scale.y,field.boxes1.scale.z,field.boxes1.id,field.boxes1.pdf,field.boxes2.header.seq,field.boxes2.header.stamp,field.boxes2.header.frame_id,field.boxes2.pose.position.x,field.boxes2.pose.position.y,field.boxes2.pose.position.z,field.boxes2.pose.orientation.x,field.boxes2.pose.orientation.y,field.boxes2.pose.orientation.z,field.boxes2.pose.orientation.w,field.boxes2.scale.x,field.boxes2.scale.y,field.boxes2.scale.z,field.boxes2.id,field.boxes2.pdf,field.boxes3.header.seq,field.boxes3.header.stamp,field.boxes3.header.frame_id,field.boxes3.pose.position.x,field.boxes3.pose.position.y,field.boxes3.pose.position.z,field.boxes3.pose.orientation.x,field.boxes3.pose.orientation.y,field.boxes3.pose.orientation.z,field.boxes3.pose.orientation.w,field.boxes3.scale.x,field.boxes3.scale.y,field.boxes3.scale.z,field.boxes3.id,field.boxes3.pdf,field.boxes4.header.seq,field.boxes4.header.stamp,field.boxes4.header.frame_id,field.boxes4.pose.position.x,field.boxes4.pose.position.y,field.boxes4.pose.position.z,field.boxes4.pose.orientation.x,field.boxes4.pose.orientation.y,field.boxes4.pose.orientation.z,field.boxes4.pose.orientation.w,field.boxes4.scale.x,field.boxes4.scale.y,field.boxes4.scale.z,field.boxes4.id,field.boxes4.pdf,field.boxes5.header.seq,field.boxes5.header.stamp,field.boxes5.header.frame_id,field.boxes5.pose.position.x,field.boxes5.pose.position.y,field.boxes5.pose.position.z,field.boxes5.pose.orientation.x,field.boxes5.pose.orientation.y,field.boxes5.pose.orientation.z,field.boxes5.pose.orientation.w,field.boxes5.scale.x,field.boxes5.scale.y,field.boxes5.scale.z,field.boxes5.id,field.boxes5.pdf,field.boxes6.header.seq,field.boxes6.header.stamp,field.boxes6.header.frame_id,field.boxes6.pose.position.x,field.boxes6.pose.position.y,field.boxes6.pose.position.z,field.boxes6.pose.orientation.x,field.boxes6.pose.orientation.y,field.boxes6.pose.orientation.z,field.boxes6.pose.orientation.w,field.boxes6.scale.x,field.boxes6.scale.y,field.boxes6.scale.z,field.boxes6.id,field.boxes6.pdf,field.boxes7.header.seq,field.boxes7.header.stamp,field.boxes7.header.frame_id,field.boxes7.pose.position.x,field.boxes7.pose.position.y,field.boxes7.pose.position.z,field.boxes7.pose.orientation.x,field.boxes7.pose.orientation.y,field.boxes7.pose.orientation.z,field.boxes7.pose.orientation.w,field.boxes7.scale.x,field.boxes7.scale.y,field.boxes7.scale.z,field.boxes7.id,field.boxes7.pdf,field.boxes8.header.seq,field.boxes8.header.stamp,field.boxes8.header.frame_id,field.boxes8.pose.position.x,field.boxes8.pose.position.y,field.boxes8.pose.position.z,field.boxes8.pose.orientation.x,field.boxes8.pose.orientation.y,field.boxes8.pose.orientation.z,field.boxes8.pose.orientation.w,field.boxes8.scale.x,field.boxes8.scale.y,field.boxes8.scale.z,field.boxes8.id,field.boxes8.pdf,field.pose.pose.position.x,field.pose.pose.position.y,field.pose.pose.position.z,field.pose.pose.orientation.w,field.pose.covariance0,field.pose.covariance1,field.pose.covariance2,field.pose.covariance3,field.pose.covariance4,field.pose.covariance5,field.pose.covariance6,field.pose.covariance7,field.pose.covariance8,field.pose.covariance9,field.pose.covariance10,field.pose.covariance11,field.pose.covariance12,field.pose.covariance13,field.pose.covariance14,field.pose.covariance15,field.pose.covariance16,field.pose.covariance17,field.pose.covariance18,field.pose.covariance19,field.pose.covariance20,field.pose.covariance21,field.pose.covariance22,field.pose.covariance23,field.pose.covariance24,field.pose.covariance25,field.pose.covariance26,field.pose.covariance27,field.pose.covariance28,field.pose.covariance29,field.pose.covariance30,field.pose.covariance31,field.pose.covariance32,field.pose.covariance33,field.pose.covariance34,field.pose.covariance35,field.buttons0,field.buttons1,field.buttons2,field.buttons3,intersection_length,vacuum,desired_box
0.0,0,1735643777088230371,map,0.9882815216610052,-0.2193468289796661,0.0191784929391701,0.4838962405175009,-0.5053139480865618,0.5148507833962039,-0.4954098435825788,0.0,0.0,0.0,1,0.1111111111111111,0,1735643777088253974,map,0.9896568344567848,-0.2483144147465696,0.1470636694358635,-0.506519408408479,0.5086735401476381,-0.4904101164370661,0.4941530493231596,0.0,0.0,0.0,16,0.1111111111111111,0,1735643777088270664,map,0.9911728030491576,0.0597144500696831,0.0239021319624553,-0.4996728112909072,0.4857711392600813,-0.4888811609951864,0.5247367838665425,0.0,0.0,0.0,17,0.1111111111111111,0,1735643777088284730,map,1.008471854874497,-0.2535541036569675,0.2355768161276243,-0.5175670627235657,0.5146069436446636,-0.4578148003180486,0.5076510984388231,0.0,0.0,0.0,121,0.1111111111111111,0,1735643777088297367,map,1.009965225706693,0.2091129899333904,0.2412972119870808,-0.4858266892144314,0.4702367668802833,-0.5124851760021959,0.5293474808657547,0.0,0.0,0.0,122,0.1111111111111111,0,1735643777088310956,map,0.9998923867251334,0.2076261747933877,0.1446444044983269,-0.4658567984437953,0.4988893699153615,-0.5021213022935407,0.5310000355105347,0.0,0.0,0.0,124,0.1111111111111111,0,1735643777088322877,map,1.0108108870910726,-0.0220580184089592,0.2410262737813323,0.482141819582505,-0.5058394999972693,0.5124137037252622,-0.4990970469625552,0.0,0.0,0.0,125,0.1111111111111111,0,1735643777088343858,map,0.99791525695675,-0.017973794685984,0.1451479893439613,0.687101283336477,-0.4855503739793388,0.3183921617964104,-0.4367597647133934,0.0,0.0,0.0,126,0.1111111111111111,0,1735644242188269615,map,0.980002759117548,0.3369980415749145,0.0247522348348439,-0.4933332985176448,0.4976528389155733,-0.4792566515037794,0.5284666219188832,0.0,0.0,0.0,0,0.1111111111111111,0.9388835451979768,0.1795405658131232,0.083149290558577,1.0,0.0,0.0,0.0,0.0,0.0,0.0,0.0,0.0,0.0,0.0,0.0,0.0,0.0,0.0,0.0,0.0,0.0,0.0,0.0,0.0,0.0,0.0,0.0,0.0,0.0,0.0,0.0,0.0,0.0,0.0,0.0,0.0,0.0,0.0,0.0,0.0,0,0,0,1,1,,126
0.098572019,0,1735643777088230371,map,0.9818053949438236,-0.2190591016509173,0.0213597804665964,-0.502108567867719,0.5006632797676013,-0.4891099802974972,0.5079317803992566,0.0,0.0,0.0,1,,0,1735643777088253974,map,0.9868434209325564,-0.2483924677645319,0.1473994455613928,-0.4952418400718165,0.4935343230260471,-0.5008818711156886,0.510173248049277,0.0,0.0,0.0,16,,0,1735643777088270664,map,0.9871112633151234,0.0578968667248132,0.0248345603269115,-0.4888322754884658,0.4947498691299467,-0.4988942291421456,0.5170784481733245,0.0,0.0,0.0,17,,0,1735643777088284730,map,1.0088221688894266,-0.254099779043722,0.234951043002415,-0.5051204841519084,0.5192805302563764,-0.472630846372823,0.5018178060249625,0.0,0.0,0.0,121,,0,1735643777088297367,map,1.015471826722241,0.2108627930747895,0.2407273674245583,-0.5136948507457051,0.49587471694155,-0.4883067405528583,0.501779226897775,0.0,0.0,0.0,122,,0,1735643777088310956,map,1.0082220498853154,0.2105669168480864,0.1426460864362265,-0.4799966531606189,0.4996390132191395,-0.4865242849132417,0.532220057507858,0.0,0.0,0.0,124,,0,1735643777088322877,map,0.9982946727010804,-0.0249274314781215,0.240525582663221,-0.4645946151270593,0.4815919416410994,-0.5239694648366314,0.5269507047723814,0.0,0.0,0.0,125,,0,1735643777088343858,map,0.9963319719363372,-0.0188555740893666,0.1444890896574237,0.4874861746447251,-0.5027937940206297,0.521368988567545,-0.4875756433463922,0.0,0.0,0.0,126,,0,1735644242188269615,map,0.9761980938347504,0.3332262810386025,0.02604645448383,-0.5040304297866641,0.4911066430802859,-0.4824606429669912,0.5215355394978949,0.0,0.0,0.0,0,,0.9424359834299356,0.0814316398518814,0.0506549307776944,1.0,1.2619817391884373e-05,-0.0003485258994811,-0.0001154342060086,0.0,0.0,0.0,-0.0003485258994811,0.0096253613532684,0.0031879867379005,0.0,0.0,0.0,-0.0001154342060086,0.0031879867379005,0.0010558834175694,0.0,0.0,0.0,0.0,0.0,0.0,0.0,0.0,0.0,0.0,0.0,0.0,0.0,0.0,0.0,0.0,0.0,0.0,0.0,0.0,0.0,0,0,0,1,2,,126
0.200251971,0,1735643777088230371,map,0.9899384628786512,-0.2205222328441749,0.0175327229970513,-0.4812550222990167,0.5222904263509492,-0.5078730479256702,0.4875154164175798,0.0,0.0,0.0,1,7.927106421293205e-32,0,1735643777088253974,map,0.984843151221825,-0.2482924699982241,0.1472693660684979,-0.4739046215424851,0.6851317205778077,-0.4507171903525504,0.3207225427990205,0.0,0.0,0.0,16,0.0,0,1735643777088270664,map,0.9863625142631732,0.0570961974440216,0.0248091693813645,-0.4807406751657118,0.5005146967755628,-0.5072524367869922,0.5109485364755831,0.0,0.0,0.0,17,0.9999995007987165,0,1735643777088284730,map,1.0151416190115428,-0.2555451449657245,0.2340865901046568,-0.3813629204332995,0.5935093665972445,-0.5890892054553839,0.3940594659386664,0.0,0.0,0.0,121,0.0,0,1735643777088297367,map,1.0197162743287334,0.2118280411808233,0.2394050347329172,-0.5030761315765108,0.4695105756285304,-0.4923105074302355,0.533014624081519,0.0,0.0,0.0,122,0.0,0,1735643777088310956,map,1.0079207401520556,0.2097038260783618,0.1422439815120272,-0.4851226441131351,0.5009070565284367,-0.4819074320432323,0.5305783333591702,0.0,0.0,0.0,124,4.992012834982317e-07,0,1735643777088322877,map,1.0022940258200594,-0.0244573113049913,0.2402311887853301,0.5076722221563523,-0.5040126632176106,0.4912020441181945,-0.49695140810871,0.0,0.0,0.0,125,0.0,0,1735643777088343858,map,1.005795354312878,-0.0178517144090326,0.1423221489547044,-0.5000407266337379,0.5375181033979036,-0.5041694968533218,0.4548040002790127,0.0,0.0,0.0,126,0.0,0,1735644242188269615,map,0.9770416552988966,0.3321734385621418,0.0248383432270834,-0.4892337990561916,0.5022259258662153,-0.4956877192550222,0.5125554547837948,0.0,0.0,0.0,0,0.0,0.9448461871803928,0.0279279104625527,0.0258435577851705,1.0,2.0031375832023308e-05,-0.0004902603781292,-0.0001965570658202,0.0,0.0,0.0,-0.0004902603781292,0.0121422056859786,0.0047803264646731,0.0,0.0,0.0,-0.0001965570658202,0.0047803264646731,0.0019351307379279,0.0,0.0,0.0,0.0,0.0,0.0,0.0,0.0,0.0,0.0,0.0,0.0,0.0,0.0,0.0,0.0,0.0,0.0,0.0,0.0,0.0,0,0,0,1,3,,126
0.298955688,0,1735643777088230371,map,0.9817427047896704,-0.2199300979168529,0.0203292288718802,-0.4906827915815206,0.4991995643953609,-0.498014366404664,0.5118709640210198,0.0,0.0,0.0,1,2.2991020883057662e-29,0,1735643777088253974,map,0.9822401749589276,-0.2487431060492431,0.1472548995125456,-0.5241285804114678,0.4878296883758939,-0.4664558398587609,0.5193557314563837,0.0,0.0,0.0,16,0.0,0,1735643777088270664,map,0.9751006096861976,0.0535792307407334,0.0286008944665296,-0.472036802691324,0.4934237390074082,-0.5107908733257444,0.5223092517044134,0.0,0.0,0.0,17,0.9999934520306815,0,1735643777088284730,map,1.010758809302615,-0.2551786586321654,0.234224792605748,-0.5256078760062349,0.5417116672306395,-0.4534438850437983,0.4739973347844919,0.0,0.0,0.0,121,0.0,0,1735643777088297367,map,1.0076928679347696,0.2051790965112926,0.2396850785764343,-0.4933143619349672,0.4905672565581502,-0.5074408387515307,0.5084176455128687,0.0,0.0,0.0,122,0.0,0,1735643777088310956,map,1.0098643373645642,0.2100115239080453,0.1417858751611775,-0.4948046804506605,0.505700054978012,-0.4780234384434775,0.5205087654382299,0.0,0.0,0.0,124,6.547969318584941e-06,0,1735643777088322877,map,1.0075818900899092,-0.0242910710983338,0.2394919174395478,0.504391919061799,-0.5030195793387501,0.4941212006203126,-0.4984017795760393,0.0,0.0,0.0,125,0.0,0,1735643777088343858,map,1.002089821942784,-0.0187448709575208,0.1430517927905707,0.4811481676815134,-0.5050038577360345,0.5260162404952399,-0.486594758647994,0.0,0.0,0.0,126,0.0,0,1735644242188269615,map,0.9770416552988966,0.3321734385621418,0.0248383432270834,-0.4892337990561916,0.5022259258662153,-0.4956877192550222,0.5125554547837948,0.0,0.0,0.0,0,0.0,0.9457975247829472,0.0103465064059454,0.0153012784034092,1.0,1.773866157612072e-05,-0.0004178728359512,-0.0001775055997426,0.0,0.0,0.0,-0.0004178728359512,0.010033971570289,0.0041412890689699,0.0,0.0,0.0,-0.0001775055997426,0.0041412890689699,0.0017847670171352,0.0,0.0,0.0,0.0,0.0,0.0,0.0,0.0,0.0,0.0,0.0,0.0,0.0,0.0,0.0,0.0,0.0,0.0,0.0,0.0,0.0,0,0,0,1,4,,126
0.399748467,0,1735643777088230371,map,0.9772282686514852,-0.2185024126427369,0.0222894580329643,-0.4800688722602987,0.4883676197642336,-0.5123334109341385,0.518213683622049,0.0,0.0,0.0,1,0.00011987066144937752,0,1735643777088253974,map,0.9838761024658036,-0.2482457268951716,0.1471848274045135,-0.4956493007348962,0.492954624771692,-0.500175950868603,0.5110298687649266,0.0,0.0,0.0,16,8.644542012449733e-21,0,1735643777088270664,map,0.9878611638623912,0.0576848475243453,0.0240861792903834,-0.4973581480057371,0.4888332417773745,-0.4916057686016005,0.5215368660251702,0.0,0.0,0.0,17,0.9351957036796984,0,1735643777088284730,map,1.002340137619077,-0.2536408890689256,0.2349543971843103,0.5470495949624629,-0.5297814025821941,0.4262405807574768,-0.4882492943619861,0.0,0.0,0.0,121,1.3812848606849894e-38,0,1735643777088297367,map,1.0136007761593977,0.2100012434702225,0.2403461685182448,-0.5064806287588819,0.489591385497467,-0.4988863999507266,0.504866326746875,0.0,0.0,0.0,122,9.892396944918266e-08,0,1735643777088310956,map,1.0076525264225924,0.2103162150731568,0.1423483407484545,-0.4842744924557934,0.4984002790808809,-0.4892828629013701,0.5269512860216048,0.0,0.0,0.0,124,0.06468041484503359,0,1735643777088322877,map,1.0106415998450553,-0.0233464071606723,0.2403209298633081,-0.5021222473557255,0.5051464467588422,-0.4960472022205842,0.4966261060460703,0.0,0.0,0.0,125,4.185762361620575e-19,0,1735643777088343858,map,1.0082211377696209,-0.0172135052159367,0.1423474751408945,0.5161455688422256,-0.5150096099672536,0.4872627123976453,-0.480555826634952,0.0,0.0,0.0,126,3.91135400842646e-06,0,1735644242188269615,map,0.9770416552988966,0.3321734385621418,0.0248383432270834,-0.4892337990561916,0.5022259258662153,-0.4956877192550222,0.5125554547837948,0.0,0.0,0.0,0,5.358407416090975e-10,0.9451149327212376,0.0085182544273564,0.0259234340610962,1.0,1.6054656951732196e-05,-0.0003293064676114,-0.0001710068763148,0.0,0.0,0.0,-0.0003293064676114,0.00804054727742,0.0032353513467837,0.0,0.0,0.0,-0.0001710068763148,0.0032353513467837,0.0018791343769727,0.0,0.0,0.0,0.0,0.0,0.0,0.0,0.0,0.0,0.0,0.0,0.0,0.0,0.0,0.0,0.0,0.0,0.0,0.0,0.0,0.0,0,0,0,1,5,,126
0.499750523,0,1735643777088230371,map,0.9824545899058896,-0.2193000399309523,0.0220054365368361,-0.4993342447173786,0.4938825043038058,-0.4901845450692151,0.51620199124995,0.0,0.0,0.0,1,0.009808580513711265,0,1735643777088253974,map,0.9750603043851526,-0.2462961969292481,0.1497964455774471,-0.500736045593264,0.46951895311152,-0.4924839309139854,0.5350466737623851,0.0,0.0,0.0,16,5.884482342336845e-10,0,1735643777088270664,map,0.9921939158654626,0.0585301868277148,0.0241083340769773,0.5091430965809431,-0.5038369580815958,0.4873206684600409,-0.4994398792314364,0.0,0.0,0.0,17,0.9269481805768423,0,1735643777088284730,map,1.014358191861142,-0.2560460749571506,0.2359236437123086,-0.5133369968602525,0.5129388207693116,-0.4695137928647434,0.5029271240568045,0.0,0.0,0.0,121,3.927429951403601e-18,0,1735643777088297367,map,1.011817182305979,0.2085800758394275,0.2412704697380592,-0.5147868457407129,0.4847003866724699,-0.4946584558506341,0.5053444871247258,0.0,0.0,0.0,122,6.14632753776651e-05,0,1735643777088310956,map,1.0100888001204928,0.2114504615056137,0.1430894190967479,-0.486428075909723,0.5002947121085582,-0.4824557019743732,0.5294614467885219,0.0,0.0,0.0,124,0.05487385119808362,0,1735643777088322877,map,1.002865163772393,-0.0243945776884856,0.2414734940677895,-0.5068371777303533,0.4996142295507018,-0.4917393251402935,0.5016912726083224,0.0,0.0,0.0,125,5.828514455857753e-09,0,1735643777088343858,map,1.006989163603094,-0.0174822777830181,0.1435107654598098,-0.5144637391489192,0.4818909061325387,-0.4907045379852966,0.5121691830716785,0.0,0.0,0.0,126,0.00830733663754246,0,1735644242188269615,map,0.9770416552988966,0.3321734385621418,0.0248383432270834,-0.4892337990561916,0.5022259258662153,-0.4956877192550222,0.5125554547837948,0.0,0.0,0.0,0,5.813814800898606e-07,0.9445948477927,0.0022179501201999,0.0350557475024985,1.0,1.4731322457570782e-05,-0.000258038589766,-0.0001662536231801,0.0,0.0,0.0,-0.000258038589766,0.0068989252363306,0.0024084443537739,0.0,0.0,0.0,-0.0001662536231801,0.0024084443537739,0.001982941058104,0.0,0.0,0.0,0.0,0.0,0.0,0.0,0.0,0.0,0.0,0.0,0.0,0.0,0.0,0.0,0.0,0.0,0.0,0.0,0.0,0.0,0,0,0,1,6,,126
0.599950544,0,1735643777088230371,map,0.9854455003136984,-0.2205195624502884,0.0198960530506307,-0.5013449045523051,0.5132618581583483,-0.4940923994422164,0.4910073853341847,0.0,0.0,0.0,1,0.025359455094096563,0,1735643777088253974,map,0.971098464645772,-0.2462534626949286,0.1497422525500659,-0.5225696558438808,0.4702642547746324,-0.4652821431065423,0.5378522220635054,0.0,0.0,0.0,16,4.382188036537365e-05,0,1735643777088270664,map,0.9780689731952243,0.053996272352211,0.0282277765619057,-0.4728583897266762,0.500913653746116,-0.5119804535149034,0.5131924297712162,0.0,0.0,0.0,17,0.752042645813617,0,1735643777088284730,map,1.0089800470366512,-0.255595982529273,0.2350403021712843,-0.4803672738323888,0.4745554913482236,-0.5083747229578773,0.5344151091797331,0.0,0.0,0.0,121,1.852539019532303e-08,0,1735643777088297367,map,1.0197650234253877,0.2118385351601298,0.2407220629213117,0.5362840011064285,-0.4924500428858898,0.4745359335388558,-0.4946797683343962,0.0,0.0,0.0,122,0.0007678394741478063,0,1735643777088310956,map,1.0031446598666265,0.2075170390881948,0.1435022512643367,-0.4742454237786899,0.4952540594686526,-0.4955824896733147,0.5331160197686708,0.0,0.0,0.0,124,0.02664598373906179,0,1735643777088322877,map,1.009810507064828,-0.0244150796623014,0.2410051936837687,0.5245048835290089,-0.5157279826182997,0.474048111718199,-0.4839397306226153,0.0,0.0,0.0,125,0.0004542588770852681,0,1735643777088343858,map,1.0047580708835548,-0.0187538815655583,0.142968733676493,-0.4920030260015579,0.4913069697491832,-0.509619966584567,0.5067918443893212,0.0,0.0,0.0,126,0.19467602307090856,0,1735644242188269615,map,0.9770416552988966,0.3321734385621418,0.0248383432270834,-0.4892337990561916,0.5022259258662153,-0.4956877192550222,0.5125554547837948,0.0,0.0,0.0,0,9.953525327490089e-06,0.9438043100475506,-0.0041089245406967,0.0482489667600507,1.0,1.63765473798104e-05,-0.0001911661347156,-0.0002050815324017,0.0,0.0,0.0,-0.0001911661347156,0.0061535405461315,0.0015635498069658,0.0,0.0,0.0,-0.0002050815324017,0.0015635498069658,0.0027440299703562,0.0,0.0,0.0,0.0,0.0,0.0,0.0,0.0,0.0,0.0,0.0,0.0,0.0,0.0,0.0,0.0,0.0,0.0,0.0,0.0,0.0,0,0,0,1,7,,126
0.699293758,0,1735643777088230371,map,0.9754590861518254,-0.2199197381891104,0.0227232518334857,-0.4927775382842698,0.4876928030113023,-0.4946981953523812,0.5240226361223068,0.0,0.0,0.0,1,0.04159246836186924,0,1735643777088253974,map,0.9761101795914636,-0.2484016330381115,0.1486104291147451,-0.5045338448241365,0.4876153516286894,-0.4884741887474376,0.5187194185786153,0.0,0.0,0.0,16,0.0027762596373086044,0,1735643777088270664,map,0.983922209306575,0.0559279516892249,0.0251551606445059,-0.488436644715191,0.5022030903271723,-0.4993575138695482,0.5097683527909793,0.0,0.0,0.0,17,0.5807394960459594,0,1735643777088284730,map,1.0072085358933505,-0.2566298100616344,0.2355889800649086,-0.3629913107142291,0.6191004600151094,-0.5942027909604665,0.3631459375648283,0.0,0.0,0.0,121,3.3579610723511386e-05,0,1735643777088297367,map,1.0120546981331848,0.2096761030291044,0.2409781902794877,-0.5125159317370097,0.4848074871687108,-0.4941302579290205,0.5080594535090408,0.0,0.0,0.0,122,0.0003648173158740319,0,1735643777088310956,map,1.003005274045656,0.2088017299633957,0.143270681796538,-0.4917657260234854,0.4988662877160682,-0.4810447304006195,0.5271573437246025,0.0,0.0,0.0,124,0.012088956717034124,0,1735643777088322877,map,1.000695305211465,-0.0252128999847299,0.2413080122954344,0.5110508018815922,-0.5037246837721803,0.4880525670867121,-0.4968835000428863,0.0,0.0,0.0,125,0.006358034001154091,0,1735643777088343858,map,0.9892571919409242,-0.0211805465091896,0.1462974399856821,0.465705859933483,-0.4931482100849484,0.5449307139451147,-0.4929233326927162,0.0,0.0,0.0,126,0.35599762694683934,0,1735644242188269615,map,0.9770416552988966,0.3321734385621418,0.0248383432270834,-0.4892337990561916,0.5022259258662153,-0.4956877192550222,0.5125554547837948,0.0,0.0,0.0,0,4.8761363237689665e-05,0.9432964728314344,-0.0163061846715451,0.0584461803661023,1.0,1.6134769423843803e-05,-0.0001239108094724,-0.0002156960128404,0.0,0.0,0.0,-0.0001239108094724,0.0064257600607621,0.0004974596123552,0.0,0.0,0.0,-0.0002156960128404,0.0004974596123552,0.0031289083813538,0.0,0.0,0.0,0.0,0.0,0.0,0.0,0.0,0.0,0.0,0.0,0.0,0.0,0.0,0.0,0.0,0.0,0.0,0.0,0.0,0.0,0,0,0,1,8,,126
0.797916965,0,1735643777088230371,map,0.972023616969562,-0.2206518006748316,0.0234473842845571,-0.4937096303855787,0.4922415847043686,-0.4910366122947818,0.5223332925808296,0.0,0.0,0.0,1,0.060508226894699126,0,1735643777088253974,map,0.9733380109556272,-0.2492678729389958,0.1489630670571766,-0.492685091282086,0.4770650398537998,-0.5031804726670851,0.5258134274666093,0.0,0.0,0.0,16,0.022461581233672413,0,1735643777088270664,map,0.9926081146903514,0.0577370825453945,0.0214472791189674,-0.5091078351690278,0.4903203247355403,-0.4688668106855113,0.5296783034619569,0.0,0.0,0.0,17,0.4751272952098458,0,1735643777088284730,map,1.0037611536668076,-0.2578133954659275,0.2354833396669216,-0.497118724233582,0.5019079393170855,-0.4879483997950106,0.512706303456804,0.0,0.0,0.0,121,0.0010012760121131,0,1735643777088297367,map,1.0079819233579927,0.207195024793047,0.2412335990694616,-0.5059615661431869,0.4904208041514598,-0.4933994451139506,0.5099483464063925,0.0,0.0,0.0,122,0.00012209276913471894,0,1735643777088310956,map,0.996635364507792,0.2052345754784693,0.1439768370849988,-0.4747950179188382,0.5010756853460446,-0.4979012465056933,0.5249639961392761,0.0,0.0,0.0,124,0.007828651667898805,0,1735643777088322877,map,0.9942737826395291,-0.0273570797703765,0.2416526658789368,-0.4838937655732165,0.5349038844244559,-0.5126147960284346,0.4657797000296679,0.0,0.0,0.0,125,0.010521011810779784,0,1735643777088343858,map,0.9899578697488371,-0.021779264861647,0.145127426187425,0.4815740509371044,-0.5048220738620809,0.5287128402928025,-0.4834292499581836,0.0,0.0,0.0,126,0.42226755031198143,0,1735644242188269615,map,0.9770416552988966,0.3321734385621418,0.0248383432270834,-0.4892337990561916,0.5022259258662153,-0.4956877192550222,0.5125554547837948,0.0,0.0,0.0,0,0.00016231408987461726,0.943011646698451,-0.0315616273616393,0.0659469757550318,1.0,1.4991024673881129e-05,-7.53817517663637e-05,-0.0002088211695509,0.0,0.0,0.0,-7.53817517663637e-05,0.0075736149740435,-0.0004732373113939,0.0,0.0,0.0,-0.0002088211695509,-0.0004732373113939,0.0032313473462694,0.0,0.0,0.0,0.0,0.0,0.0,0.0,0.0,0.0,0.0,0.0,0.0,0.0,0.0,0.0,0.0,0.0,0.0,0.0,0.0,0.0,0,0,0,1,9,,126
0.898558369,0,1735643777088230371,map,0.9708491338987936,-0.2212289828702258,0.0237555609879571,-0.4878296028096944,0.4818128397737575,-0.4965680589709982,0.5322582351278916,0.0,0.0,0.0,1,0.07498184450104996,0,1735643777088253974,map,0.9748804245757804,-0.2504823150013846,0.148467588939883,-0.4987646353554415,0.4805088471893096,-0.4921369867012948,0.5273957457281234,0.0,0.0,0.0,16,0.03399522093963286,0,1735643777088270664,map,0.9749116564876092,0.0525302639255425,0.0276369773333582,-0.4772554728806464,0.4951900772261662,-0.5072272579834912,0.5193597113569384,0.0,0.0,0.0,17,0.48792848717455983,0,1735643777088284730,map,0.9969648685545094,-0.2570142780465299,0.2356554368958654,-0.4757923017794118,0.4669294149608416,-0.5112344271896603,0.5424370631398954,0.0,0.0,0.0,121,0.0013057955288337504,0,1735643777088297367,map,1.0065042096258765,0.206973086576495,0.2412299686044921,0.5225937570197806,-0.4933395930105913,0.4861920509733275,-0.4971208109327585,0.0,0.0,0.0,122,4.900359542868197e-05,0,1735643777088310956,map,0.9977095124287704,0.2061773244176534,0.1436382541141256,-0.4779950236809253,0.5042802026509735,-0.4892122573209404,0.5271561455939923,0.0,0.0,0.0,124,0.005185218613728757,0,1735643777088322877,map,1.00185552920603,-0.0268562629918766,0.2412711439001195,0.5053683198353317,-0.5032913331127443,0.4933303571811009,-0.4979215339829939,0.0,0.0,0.0,125,0.007126401549808066,0,1735643777088343858,map,0.990197759992714,-0.0223654120352621,0.1451045577222848,-0.4837842138440636,0.4889326370663679,-0.5209671495322161,0.505461116165117,0.0,0.0,0.0,126,0.3892896714604154,0,1735644242188269615,map,0.9770416552988966,0.3321734385621418,0.0248383432270834,-0.4892337990561916,0.5022259258662153,-0.4956877192550222,0.5125554547837948,0.0,0.0,0.0,0,0.0001383566365428039,0.9430411224860056,-0.0423261759993208,0.0677841540917123,1.0,1.3499741604960803e-05,-7.069921852863659e-05,-0.0001874516820906,0.0,0.0,0.0,-7.069921852863659e-05,0.0078591330429962,-0.0006039011403061,0.0,0.0,0.0,-0.0001874516820906,-0.0006039011403061,0.0029385896298093,0.0,0.0,0.0,0.0,0.0,0.0,0.0,0.0,0.0,0.0,0.0,0.0,0.0,0.0,0.0,0.0,0.0,0.0,0.0,0.0,0.0,0,0,0,1,10,,126
0.999564952,0,1735643777088230371,map,0.9734380556444758,-0.2217270424395824,0.022420625456638,-0.4923140710112191,0.492175317422717,-0.4952622563307345,0.5197168554688198,0.0,0.0,0.0,1,0.06308113754858694,0,1735643777088253974,map,0.9765908065286274,-0.250920065802369,0.1478872835430014,-0.5051822264287185,0.5072352411801362,-0.4913609001446523,0.4960522089603966,0.0,0.0,0.0,16,0.044696773596486605,0,1735643777088270664,map,0.9803256460717412,0.0539569054872705,0.0251027748413604,-0.4865013516545142,0.5039654270685793,-0.5048665271968761,0.5044254879306568,0.0,0.0,0.0,17,0.4331164052015699,0,1735643777088284730,map,1.001788619959079,-0.2583784843141715,0.2353500290693487,-0.5024374632544434,0.5166872235372039,-0.4735003792289995,0.5063480022887906,0.0,0.0,0.0,121,0.001994532250758326,0,1735643777088297367,map,1.0055257458655644,0.2070169585741967,0.2410154443019317,-0.5088794664992996,0.4826086654972547,-0.4966884952563851,0.5113033377969431,0.0,0.0,0.0,122,2.024820606021496e-05,0,1735643777088310956,map,0.999339125255058,0.2074611394098873,0.1428353241287915,-0.4887332700394056,0.5040019686224134,-0.4798067385121625,0.5262198210440601,0.0,0.0,0.0,124,0.0030274813698623784,0,1735643777088322877,map,0.990852356750294,-0.0278604208428208,0.241144521854943,-0.4699304847740775,0.4968768430479812,-0.5217553022874737,0.5099511220279638,0.0,0.0,0.0,125,0.006802698105054442,0,1735643777088343858,map,0.9995420450506176,-0.0206098260755779,0.1426257251900901,-0.5150913576835436,0.4681319678039596,-0.4788571824572048,0.5350038810783184,0.0,0.0,0.0,126,0.44718583758867303,0,1735644242188269615,map,0.9770416552988966,0.3321734385621418,0.0248383432270834,-0.4892337990561916,0.5022259258662153,-0.4956877192550222,0.5125554547837948,0.0,0.0,0.0,0,7.488613294806338e-05,0.9428532163065956,-0.0484692099494463,0.0719023450625066,1.0,1.2625579690751236e-05,-5.272887644866825e-05,-0.0001781489553964,0.0,0.0,0.0,-5.272887644866825e-05,0.0075220350638478,-0.0008019829061088,0.0,0.0,0.0,-0.0001781489553964,-0.0008019829061088,0.0028410400867278,0.0,0.0,0.0,0.0,0.0,0.0,0.0,0.0,0.0,0.0,0.0,0.0,0.0,0.0,0.0,0.0,0.0,0.0,0.0,0.0,0.0,0,0,0,1,11,,126
1.098934766,0,1735643777088230371,map,0.975308471992866,-0.2224456957773748,0.0214217351804889,-0.4833761106688438,0.5013691307461338,-0.509539229693537,0.5053180224104858,0.0,0.0,0.0,1,0.04404624130670094,0,1735643777088253974,map,0.9636750819977926,-0.2483410646595432,0.15083637805869,-0.5056063991283004,0.4717897115549876,-0.4794745832396062,0.5402599015831,0.0,0.0,0.0,16,0.04744659861984922,0,1735643777088270664,map,0.9760365753896214,0.0544171757959664,0.0268774812093451,-0.4939490049580367,0.5023194550345839,-0.4952271692990491,0.5083695470647063,0.0,0.0,0.0,17,0.38869378124793397,0,1735643777088284730,map,0.9951157041786388,-0.2574125717309596,0.236752559575209,-0.4979418398588687,0.5060860033867984,-0.4841532602145605,0.5113966189930803,0.0,0.0,0.0,121,0.0032964555489743024,0,1735643777088297367,map,0.9973859639443072,0.2053037124541172,0.2420877640896188,-0.5000838641016541,0.4932834021222835,-0.5042005248017316,0.502363857025445,0.0,0.0,0.0,122,2.136392425483924e-05,0,1735643777088310956,map,0.997297078375245,0.2079765615982659,0.1442263005276095,-0.4923393797242825,0.5019500124419342,-0.4756110612785467,0.5286229644763326,0.0,0.0,0.0,124,0.0020777893327570424,0,1735643777088322877,map,0.988440659589919,-0.0275933548496483,0.2421875712380853,-0.5115215455362255,0.5305413121900721,-0.485360105452671,0.4704223554922108,0.0,0.0,0.0,125,0.012607250962470094,0,1735643777088343858,map,0.9922063953549404,-0.0211141516822332,0.1450265782992686,-0.496917050598559,0.4720379590621044,-0.4958169266101564,0.533309652374464,0.0,0.0,0.0,126,0.5017804023047794,0,1735644242188269615,map,0.9770416552988966,0.3321734385621418,0.0248383432270834,-0.4892337990561916,0.5022259258662153,-0.4956877192550222,0.5125554547837948,0.0,0.0,0.0,0,3.011675228020171e-05,0.9424419153787684,-0.0506861950615474,0.0785389559771516,1.0,1.3434301035399435e-05,-3.830447504183682e-05,-0.0001933292956084,0.0,0.0,0.0,-3.830447504183682e-05,0.0069492640613872,-0.0008969969407848,0.0,0.0,0.0,-0.0001933292956084,-0.0008969969407848,0.0030887773949234,0.0,0.0,0.0,0.0,0.0,0.0,0.0,0.0,0.0,0.0,0.0,0.0,0.0,0.0,0.0,0.0,0.0,0.0,0.0,0.0,0.0,0,0,0,1,12,,126
1.199071307,0,1735643777088230371,map,0.9679082333228304,-0.2210189803729748,0.0251614401305243,-0.4889199190577834,0.4843792658505273,-0.4961963355174242,0.5292666966489717,0.0,0.0,0.0,1,0.03837920324163165,0,1735643777088253974,map,0.9701496697874844,-0.250019188644114,0.1503854781799352,-0.5141603353830982,0.4856324968488412,-0.4724396568624492,0.52592870063041,0.0,0.0,0.0,16,0.036075857772041336,0,1735643777088270664,map,0.9744111992670026,0.0538058495648497,0.0281677361784051,-0.4840576612602107,0.4898731193222473,-0.4994954660836456,0.5255633043722405,0.0,0.0,0.0,17,0.3064168747287101,0,1735643777088284730,map,0.9944368960279888,-0.2576121056315937,0.237542760970279,-0.4885964880914886,0.4807005398315014,-0.5016319757265857,0.5277933532728591,0.0,0.0,0.0,121,0.004887888796192488,0,1735643777088297367,map,0.9936855295030648,0.2037453756546993,0.2431439986458376,-0.4896822428871348,0.4861683071503393,-0.5094094983200915,0.5141533245490797,0.0,0.0,0.0,122,8.183289850775065e-05,0,1735643777088310956,map,0.9923388700381228,0.2066476896231101,0.1455018820248378,-0.4889810280071785,0.5048780988677537,-0.4779234431183244,0.5268632099991912,0.0,0.0,0.0,124,0.0022322889559423706,0,1735643777088322877,map,0.9797897729075216,-0.0287782777779794,0.2435086918924076,-0.5098358504937551,0.5457768642454185,-0.4842391554076803,0.4557493394134587,0.0,0.0,0.0,125,0.03888490635394701,0,1735643777088343858,map,0.9847038599950266,-0.0221721645570859,0.1470684805340757,0.6879602839952637,-0.4850038498083479,0.316371451410701,-0.4374825917091149,0.0,0.0,0.0,126,0.5730304289298239,0,1735644242188269615,map,0.9770416552988966,0.3321734385621418,0.0248383432270834,-0.4892337990561916,0.5022259258662153,-0.4956877192550222,0.5125554547837948,0.0,0.0,0.0,0,1.0718323203433714e-05,0.9418215687263666,-0.0503128364421351,0.0877616371294936,1.0,1.7018852893202717e-05,-3.813731819807018e-05,-0.0002471129238791,0.0,0.0,0.0,-3.813731819807018e-05,0.0064163780473386,-0.0007866767660812,0.0,0.0,0.0,-0.0002471129238791,-0.0007866767660812,0.0038718733054286,0.0,0.0,0.0,0.0,0.0,0.0,0.0,0.0,0.0,0.0,0.0,0.0,0.0,0.0,0.0,0.0,0.0,0.0,0.0,0.0,0.0,0,0,0,1,13,,126
1.299679129,0,1735643777088230371,map,0.9679064769111754,-0.2210193836532121,0.0258985654618774,-0.4938974791813697,0.490081796905991,-0.4932705867301215,0.5220816417636279,0.0,0.0,0.0,1,0.03214776193462262,0,1735643777088253974,map,0.9768667028924662,-0.251865275331611,0.150164015438327,-0.5010451907322501,0.5082125839942321,-0.486815365038403,0.5036710103594563,0.0,0.0,0.0,16,0.023178997235320537,0,1735643777088270664,map,0.9732634147886124,0.053860431564095,0.0290790949448061,-0.4880182113778488,0.4840228850673826,-0.4949003914629961,0.5316330262731855,0.0,0.0,0.0,17,0.23920352378502277,0,1735643777088284730,map,0.9956464623058104,-0.258310613921213,0.2384434497566889,-0.499419835759963,0.4974693367963574,-0.4810276803804328,0.5212642873866424,0.0,0.0,0.0,121,0.00422117459839072,0,1735643777088297367,map,0.999444055128936,0.207728568545667,0.2438839389575506,-0.5107482785818729,0.4831744961941615,-0.4916489710373491,0.5137702710658603,0.0,0.0,0.0,122,0.00023529998309578944,0,1735643777088310956,map,0.9899183644170202,0.2061334598985761,0.1466048001617461,-0.4847310345837153,0.5005680327214949,-0.4847047384952471,0.5287048185982303,0.0,0.0,0.0,124,0.002640961136172214,0,1735643777088322877,map,0.983932742480284,-0.028330697015776,0.244191188912384,0.5732193247515517,-0.4995641704577103,0.4299559787475618,-0.4868193727302775,0.0,0.0,0.0,125,0.08401217694828493,0,1735643777088343858,map,0.9807044699756872,-0.0224529049960311,0.1481318058893798,-0.4819652485662973,0.4859938409077149,-0.5204319108224655,0.5105586273601409,0.0,0.0,0.0,126,0.6143557036004728,0,1735644242188269615,map,0.9770416552988966,0.3321734385621418,0.0248383432270834,-0.4892337990561916,0.5022259258662153,-0.4956877192550222,0.5125554547837948,0.0,0.0,0.0,0,4.400778617781251e-06,0.9411863622332158,-0.047923008835782,0.0967801909904075,1.0,2.10485552999208e-05,-5.514766621093057e-05,-0.0003039343723716,0.0,0.0,0.0,-5.514766621093057e-05,0.0060323119175167,-0.0004502993116834,0.0,0.0,0.0,-0.0003039343723716,-0.0004502993116834,0.0046526570051181,0.0,0.0,0.0,0.0,0.0,0.0,0.0,0.0,0.0,0.0,0.0,0.0,0.0,0.0,0.0,0.0,0.0,0.0,0.0,0.0,0.0,0,0,0,1,14,,126
1.399177406,0,1735643777088230371,map,0.9721682859192404,-0.2216558045965577,0.0230828584631596,-0.4832838215865599,0.4984835685081659,-0.5107793954338213,0.5070062020531059,0.0,0.0,0.0,1,0.0242194631286926,0,1735643777088253974,map,0.9738534025840678,-0.2508179727126173,0.1499237971391823,-0.4982623802895035,0.4883199344821723,-0.4972697531861361,0.5157528812733521,0.0,0.0,0.0,16,0.017282447530381054,0,1735643777088270664,map,0.9797200772989502,0.0566357987505846,0.0256567346270152,-0.5013145424070328,0.4918908445103527,-0.4886342793275277,0.5176520720756241,0.0,0.0,0.0,17,0.18123905120486952,0,1735643777088284730,map,0.9936725424328942,-0.2577821386119671,0.2378158249117453,-0.496728539155577,0.5016414279068093,-0.4835295466995418,0.517509240173081,0.0,0.0,0.0,121,0.0032729196230601785,0,1735643777088297367,map,0.9952738719506216,0.206190569502934,0.2436174658884186,-0.5140197536107429,0.4847547162646798,-0.4919997627648319,0.5086578333186763,0.0,0.0,0.0,122,0.00039807221002631683,0,1735643777088310956,map,0.986735180704019,0.205120810864075,0.1462817459199867,-0.4780320142072325,0.5023890530179024,-0.48575626250445,0.5321010113112542,0.0,0.0,0.0,124,0.002707134430250755,0,1735643777088322877,map,0.9866463589076256,-0.0270019726325184,0.243361156003935,-0.5062403779538339,0.5060066624952543,-0.4848882594100739,0.5025547861933484,0.0,0.0,0.0,125,0.11797949611900448,0,1735643777088343858,map,0.9849561493403014,-0.0214893872887116,0.1463684102492388,-0.4902748694789756,0.4742191888894549,-0.5051454998775337,0.5287482739450577,0.0,0.0,0.0,126,0.6528994299390363,0,1735644242188269615,map,0.9770416552988966,0.3321734385621418,0.0248383432270834,-0.4892337990561916,0.5022259258662153,-0.4956877192550222,0.5125554547837948,0.0,0.0,0.0,0,1.9858146789275733e-06,0.94071453344285,-0.0455070601687138,0.1033434622115453,1.0,2.2762031983779798e-05,-6.742995305056561e-05,-0.0003270264453757,0.0,0.0,0.0,-6.742995305056561e-05,0.0057118731011489,-0.0001982879885548,0.0,0.0,0.0,-0.0003270264453757,-0.0001982879885548,0.0049455512791546,0.0,0.0,0.0,0.0,0.0,0.0,0.0,0.0,0.0,0.0,0.0,0.0,0.0,0.0,0.0,0.0,0.0,0.0,0.0,0.0,0.0,0,0,0,1,15,,126
1.500350473,0,1735643777088230371,map,0.9724369860255436,-0.2235741650105336,0.0205747185051649,-0.4864201105455796,0.5130747205205003,-0.5054142453567857,0.4946779233097709,0.0,0.0,0.0,1,0.016026011873144987,0,1735643777088253974,map,0.9689503494979184,-0.251400575414149,0.1494750459625725,-0.4985003938311219,0.4832485526809554,-0.4914425175007611,0.5257874529450963,0.0,0.0,0.0,16,0.013914028192650243,0,1735643777088270664,map,0.9667857837549308,0.052507385850878,0.0289646347611423,-0.4799917120745124,0.5003751456327172,-0.5057996527784099,0.5132244939810015,0.0,0.0,0.0,17,0.17695128625747156,0,1735643777088284730,map,0.9907897259244652,-0.2590458187201195,0.236651768126596,-0.4917888500069358,0.4843370542293456,-0.4954614085024104,0.527332283853457,0.0,0.0,0.0,121,0.002936588129607898,0,1735643777088297367,map,0.9954983905561324,0.207135250923673,0.242464561396326,0.5259750812210362,-0.4931987752820542,0.4850043775925323,-0.494849407103703,0.0,0.0,0.0,122,0.00027968595198630923,0,1735643777088310956,map,0.987243097116788,0.2049408968827613,0.1458865251552997,-0.4800840125951278,0.4994149193789545,-0.4900359338211913,0.5291208394273151,0.0,0.0,0.0,124,0.001841208758717246,0,1735643777088322877,map,0.983841711819572,-0.0281502261572478,0.2430600417352542,-0.5013959231891741,0.5061285580064669,-0.4949761913903159,0.4974279655752255,0.0,0.0,0.0,125,0.1319422724420928,0,1735643777088343858,map,0.9875045425133212,-0.0214754648023368,0.1455773568675714,-0.4921939936933672,0.4951362627757661,-0.510639834559327,0.5018287688224381,0.0,0.0,0.0,126,0.6561081154786482,0,1735644242188269615,map,0.9770416552988966,0.3321734385621418,0.0248383432270834,-0.4892337990561916,0.5022259258662153,-0.4956877192550222,0.5125554547837948,0.0,0.0,0.0,0,8.029156808062696e-07,0.9404016514478564,-0.0462380813224096,0.1081897200472905,1.0,2.2807832126659625e-05,-5.978473063064412e-05,-0.0003293318948382,0.0,0.0,0.0,-5.978473063064412e-05,0.0053628969112344,-0.000239035744183,0.0,0.0,0.0,-0.0003293318948382,-0.000239035744183,0.0049887475493652,0.0,0.0,0.0,0.0,0.0,0.0,0.0,0.0,0.0,0.0,0.0,0.0,0.0,0.0,0.0,0.0,0.0,0.0,0.0,0.0,0.0,0,0,0,1,16,,126
1.59972598,0,1735643777088230371,map,0.9682574933951804,-0.2228049559333591,0.0227793367071195,-0.4889531845616606,0.5069601028863872,-0.4992435238682002,0.5046505139837832,0.0,0.0,0.0,1,0.01448155646200853,0,1735643777088253974,map,0.9662840357740616,-0.2509142577938225,0.1502799377656992,-0.4982250580263084,0.4831620508018255,-0.4921464666980187,0.5254693897234283,0.0,0.0,0.0,16,0.013023485805950951,0,1735643777088270664,map,0.9711354672846424,0.0533499458904759,0.0274976544524113,-0.4895462072512463,0.4924257715335395,-0.4963144788582121,0.5210885803500395,0.0,0.0,0.0,17,0.1556126906620221,0,1735643777088284730,map,0.9897511717533044,-0.2593412109110538,0.2370155239016616,-0.5003824306680833,0.5038201218971702,-0.4800505819805206,0.5151059566636604,0.0,0.0,0.0,121,0.002648907420906072,0,1735643777088297367,map,0.9924588484612512,0.205196017370266,0.2426344209318591,-0.5040535356492777,0.4807725445074636,-0.5006609060648948,0.5139323406690418,0.0,0.0,0.0,122,0.00018905717655853316,0,1735643777088310956,map,0.985559146054181,0.2049978297786812,0.1450706325447212,-0.4887618542479875,0.5047875020479603,-0.477145416356674,0.5278576316186648,0.0,0.0,0.0,124,0.001274823322550712,0,1735643777088322877,map,0.9780424373289682,-0.0296434407437985,0.242609110974589,-0.4658220553661207,0.4854473284547559,-0.5229168612348023,0.5233628380645362,0.0,0.0,0.0,125,0.13233033695970692,0,1735643777088343858,map,0.980436136680746,-0.0231125121762346,0.1459360701667462,-0.4975119937984963,0.4814870116364259,-0.5029569800075754,0.5173841415367587,0.0,0.0,0.0,126,0.6804387763893621,0,1735644242188269615,map,0.9770416552988966,0.3321734385621418,0.0248383432270834,-0.4892337990561916,0.5022259258662153,-0.4956877192550222,0.5125554547837948,0.0,0.0,0.0,0,3.6580093409217254e-07,0.9402908469441024,-0.0479337144391904,0.1102101801567013,1.0,2.166263715157353e-05,-5.326184119315562e-05,-0.0003135414477124,0.0,0.0,0.0,-5.326184119315562e-05,0.0050934351337117,-0.000279790163217,0.0,0.0,0.0,-0.0003135414477124,-0.000279790163217,0.0047606079560268,0.0,0.0,0.0,0.0,0.0,0.0,0.0,0.0,0.0,0.0,0.0,0.0,0.0,0.0,0.0,0.0,0.0,0.0,0.0,0.0,0.0,0,0,0,1,17,,126
1.700235065,0,1735643777088230371,map,0.9659117436336287,-0.222672198735836,0.0238197443902712,-0.4925480779452869,0.5037117896314985,-0.4955140699254978,0.5080714815894565,0.0,0.0,0.0,1,0.013140595354119442,0,1735643777088253974,map,0.9670150102028496,-0.2514779786994692,0.1498142787722302,-0.5069782953899118,0.4948601797456453,-0.4799696912807532,0.5174123171683351,0.0,0.0,0.0,16,0.010864599140614222,0,1735643777088270664,map,0.973338743660074,0.0536370730663673,0.0260690537422386,-0.5020766849608366,0.4935942590630006,-0.4887345879012517,0.5151914327973418,0.0,0.0,0.0,17,0.14302574336004936,0,1735643777088284730,map,0.987907208072332,-0.2594845590005798,0.2367357822961726,-0.4889057932929269,0.4830703997209031,-0.500336863285329,0.5265711133701686,0.0,0.0,0.0,121,0.0020183640704918987,0,1735643777088297367,map,0.9913972339466168,0.2045767056750886,0.2424813362466895,-0.5079858904436186,0.4883124954367115,-0.4993100346046479,0.5041733146981113,0.0,0.0,0.0,122,0.00012209293229901354,0,1735643777088310956,map,0.9843607490026408,0.2042220561234254,0.1449790168482635,-0.4886121722324835,0.5047775002375665,-0.4781860782989733,0.5270634638458785,0.0,0.0,0.0,124,0.0009267240494082909,0,1735643777088322877,map,0.9800320262112238,-0.0297653237434125,0.2423498378440191,-0.4951991764404255,0.4934118092530925,-0.4994529221342026,0.5117317077472534,0.0,0.0,0.0,125,0.12403425823885411,0,1735643777088343858,map,0.9805544625579958,-0.0235095196534691,0.1453290783698506,-0.504223961890298,0.4822312115200363,-0.4918630405667399,0.5208473905243367,0.0,0.0,0.0,126,0.7058674648253984,0,1735644242188269615,map,0.9770416552988966,0.3321734385621418,0.0248383432270834,-0.4892337990561916,0.5022259258662153,-0.4956877192550222,0.5125554547837948,0.0,0.0,0.0,0,1.580287652387195e-07,0.940346990335981,-0.0486896157679814,0.1095283882320951,1.0,2.0512742677497395e-05,-5.102431071266509e-05,-0.0002967732062855,0.0,0.0,0.0,-5.102431071266509e-05,0.0048201800910929,-0.0002554850190904,0.0,0.0,0.0,-0.0002967732062855,-0.0002554850190904,0.0045040320201313,0.0,0.0,0.0,0.0,0.0,0.0,0.0,0.0,0.0,0.0,0.0,0.0,0.0,0.0,0.0,0.0,0.0,0.0,0.0,0.0,0.0,0,0,0,1,18,,126
1.798151178,0,1735643777088230371,map,0.9665329072428964,-0.2227286273748923,0.0223922786342805,-0.4921010234680538,0.5054405979389486,-0.4975542463547197,0.50478327685374,0.0,0.0,0.0,1,0.010968900518785839,0,1735643777088253974,map,0.9726674396396714,-0.2533745926180601,0.1476621552809127,-0.5022695282546865,0.502515769345734,-0.4917521633497283,0.5033716642666156,0.0,0.0,0.0,16,0.008125637256866025,0,1735643777088270664,map,0.965860479962541,0.0517090482667688,0.0284445162370401,-0.4885300046349764,0.4899750036083102,-0.4955128824607112,0.5250999083278002,0.0,0.0,0.0,17,0.1536534920081455,0,1735643777088284730,map,0.9884023635526542,-0.2599044716992541,0.2360368920684603,-0.4953830498080978,0.5003627000551608,-0.4843597002261812,0.5192576269571213,0.0,0.0,0.0,121,0.0014547686617980547,0,1735643777088297367,map,0.987323581077798,0.2033187990072597,0.2417267200396012,-0.5025959600733969,0.4865107263349805,-0.4960861447353688,0.5143959088878032,0.0,0.0,0.0,122,8.189793918629035e-05,0,1735643777088310956,map,0.9801718633806036,0.202831909233533,0.1448904282341936,-0.4829394831434275,0.505131514164842,-0.4831826118502389,0.5273956509341683,0.0,0.0,0.0,124,0.0006970496537144394,0,1735643777088322877,map,0.97586922587622,-0.0299311216955402,0.2421013540618677,0.5434155657920579,-0.5285413125966968,0.4543714020302586,-0.4678570644443832,0.0,0.0,0.0,125,0.11231864206405467,0,1735643777088343858,map,0.97548492804157,-0.0237288562675685,0.1454876497165173,0.4891870330790667,-0.496924755650427,0.5215226735423285,-0.4917071637370412,0.0,0.0,0.0,126,0.7126995396195653,0,1735644242188269615,map,0.9770416552988966,0.3321734385621418,0.0248383432270834,-0.4892337990561916,0.5022259258662153,-0.4956877192550222,0.5125554547837948,0.0,0.0,0.0,0,7.227788378972347e-08,0.9404659744048596,-0.0486240040836973,0.1077304006466719,1.0,1.9687954397482905e-05,-4.819829926223886e-05,-0.0002850043376662,0.0,0.0,0.0,-4.819829926223886e-05,0.0045665638901641,-0.0002441618810267,0.0,0.0,0.0,-0.0002850043376662,-0.0002441618810267,0.0043251673717143,0.0,0.0,0.0,0.0,0.0,0.0,0.0,0.0,0.0,0.0,0.0,0.0,0.0,0.0,0.0,0.0,0.0,0.0,0.0,0.0,0.0,0,0,0,1,19,,126
1.900126189,0,1735643777088230371,map,0.9649542725799908,-0.2241060053826786,0.0217857666028457,-0.4888764837414989,0.509148025771188,-0.499438110405236,0.5023242432659374,0.0,0.0,0.0,1,0.008135069398415256,0,1735643777088253974,map,0.966638256035989,-0.2520212854202834,0.1491184647353464,-0.5092149334982115,0.5000517820686494,-0.4824937051324504,0.507787545396636,0.0,0.0,0.0,16,0.0067939102196265325,0,1735643777088270664,map,0.9624421066268576,0.0507854971640319,0.0297252773771319,-0.4833848421542684,0.495363601688885,-0.5016672485991999,0.5189257829210432,0.0,0.0,0.0,17,0.14914777616270747,0,1735643777088284730,map,0.985930732669219,-0.260148280617177,0.2364364947762114,-0.501882963525966,0.5018933482231488,-0.4808026429589546,0.5148255786724619,0.0,0.0,0.0,121,0.001040403061477595,0,1735643777088297367,map,0.9807676733676972,0.2001567006654131,0.2421946331372788,-0.5005994601214045,0.4933133849320393,-0.5016017286999684,0.504418269433469,0.0,0.0,0.0,122,6.355239637373734e-05,0,1735643777088310956,map,0.9779599477707268,0.2024769266084839,0.1452759981620908,-0.4812118517928326,0.5049767395518433,-0.4840125899341548,0.5283611066221044,0.0,0.0,0.0,124,0.0005122640071965671,0,1735643777088322877,map,0.973341852126931,-0.0305720513343865,0.2423499148737703,-0.5946800590437101,0.4480565870738195,-0.3979612167332372,0.5359363694803069,0.0,0.0,0.0,125,0.10524793955959308,0,1735643777088343858,map,0.976641367330042,-0.0236079517518536,0.145119334566144,-0.4953762752669906,0.4816792044337484,-0.5067864229347343,0.5155143174032039,0.0,0.0,0.0,126,0.7290590533469417,0,1735644242188269615,map,0.9770416552988966,0.3321734385621418,0.0248383432270834,-0.4892337990561916,0.5022259258662153,-0.4956877192550222,0.5125554547837948,0.0,0.0,0.0,0,3.184766815231852e-08,0.940412496724762,-0.0483116272651569,0.1084661281087433,1.0,1.875789406071234e-05,-4.6105782862990674e-05,-0.0002715016757421,0.0,0.0,0.0,-4.6105782862990674e-05,0.0043400897019144,-0.000227587127101,0.0,0.0,0.0,-0.0002715016757421,-0.000227587127101,0.0041191936061991,0.0,0.0,0.0,0.0,0.0,0.0,0.0,0.0,0.0,0.0,0.0,0.0,0.0,0.0,0.0,0.0,0.0,0.0,0.0,0.0,0.0,0,0,0,1,20,,126
1.999714066,0,1735643777088230371,map,0.961894786559806,-0.2237545764773142,0.0234264931530681,-0.4884213792519393,0.5020808899997666,-0.500150307950617,0.5091257267547759,0.0,0.0,0.0,1,0.006876973813779994,0,1735643777088253974,map,0.9603722841042656,-0.2518074078466406,0.1505919109824202,-0.5146177104377234,0.4953036455066486,-0.4744542344747543,0.5145251113800319,0.0,0.0,0.0,16,0.005441425570822278,0,1735643777088270664,map,0.9645925174317326,0.0520531346565963,0.0278685286550762,-0.4864538381015545,0.4986524103327904,-0.4979181369146934,0.5165132776579568,0.0,0.0,0.0,17,0.1264177881725251,0,1735643777088284730,map,0.9807528995287268,-0.2606132507972272,0.2375815460419674,-0.5010892155803505,0.5023495596365748,-0.4785966232896541,0.517203818757895,0.0,0.0,0.0,121,0.0007929228677390116,0,1735643777088297367,map,0.9802679403929933,0.2018809481900388,0.2434073401021962,-0.5045387294279546,0.4883096362615482,-0.5003976472651591,0.506553614391244,0.0,0.0,0.0,122,4.5913997896632526e-05,0,1735643777088310956,map,0.975098118125643,0.2026780220889898,0.1460152571512784,-0.490319480683026,0.5023381263016621,-0.4788741202367927,0.5271838300762848,0.0,0.0,0.0,124,0.0003805109414302678,0,1735643777088322877,map,0.9710487090037012,-0.0310500224561981,0.2436298183956387,-0.5923759965703447,0.4435351654376288,-0.3990741590866988,0.5413936195198007,0.0,0.0,0.0,125,0.11213065641999301,0,1735643777088343858,map,0.9673965553397628,-0.0251281525637556,0.1473840843300649,-0.4799751932475065,0.4878783734309133,-0.5256863932295318,0.5052250217267068,0.0,0.0,0.0,126,0.7479137946976276,0,1735644242188269615,map,0.9770416552988966,0.3321734385621418,0.0248383432270834,-0.4892337990561916,0.5022259258662153,-0.4956877192550222,0.5125554547837948,0.0,0.0,0.0,0,1.3518186122258413e-08,0.9402094251308588,-0.0479670329644048,0.111438106570807,1.0,1.8689422455209212e-05,-4.530981567139752e-05,-0.000270643512583,0.0,0.0,0.0,-4.530981567139752e-05,0.0041357936683702,-0.0001962671080584,0.0,0.0,0.0,-0.000270643512583,-0.0001962671080584,0.0040996946492928,0.0,0.0,0.0,0.0,0.0,0.0,0.0,0.0,0.0,0.0,0.0,0.0,0.0,0.0,0.0,0.0,0.0,0.0,0.0,0.0,0.0,0,0,0,1,21,,126
2.09997837,0,1735643777088230371,map,0.963446214278483,-0.2244815603887874,0.0236009001541702,-0.4775702629819783,0.4893913910887114,-0.5190527056122466,0.5128420800209238,0.0,0.0,0.0,1,0.005263525645284481,0,1735643777088253974,map,0.9618070056781738,-0.2525780259104218,0.1509913243636211,-0.5130182160795468,0.5020730662083972,-0.4757062227037922,0.5083685039806745,0.0,0.0,0.0,16,0.003981968241363972,0,1735643777088270664,map,0.9645621478059748,0.0523946885666633,0.0283883443976497,-0.4922543728803762,0.4917183779469297,-0.4946799382511557,0.5207594721761877,0.0,0.0,0.0,17,0.11101622481258634,0,1735643777088284730,map,0.9802050667188896,-0.2609976840453224,0.2384807066286663,-0.4972144486279581,0.5021806644942385,-0.4837346196535078,0.5163266311477627,0.0,0.0,0.0,121,0.0005781925580580261,0,1735643777088297367,map,0.9802679403929933,0.2018809481900388,0.2434073401021962,-0.5045387294279546,0.4883096362615482,-0.5003976472651591,0.506553614391244,0.0,0.0,0.0,122,4.144429299770841e-05,0,1735643777088310956,map,0.975098118125643,0.2026780220889898,0.1460152571512784,-0.490319480683026,0.5023381263016621,-0.4788741202367927,0.5271838300762848,0.0,0.0,0.0,124,0.00029540908230089917,0,1735643777088322877,map,0.9685447369242716,-0.0314075977862267,0.2442471242281207,-0.5917021495966315,0.4285060706278387,-0.3950283475899913,0.5569773049219662,0.0,0.0,0.0,125,0.1212177585818958,0,1735643777088343858,map,0.9706284947463192,-0.0244331460594042,0.1474167776272414,-0.4981992065689007,0.4824212395224826,-0.4978342750710133,0.5207958648033112,0.0,0.0,0.0,126,0.7576054711017549,0,1735644242188269615,map,0.9770416552988966,0.3321734385621418,0.0248383432270834,-0.4892337990561916,0.5022259258662153,-0.4956877192550222,0.5125554547837948,0.0,0.0,0.0,0,5.68375781336617e-09,0.939993497387264,-0.0472983410643987,0.1145342350435641,1.0,1.8819023852231907e-05,-4.628245039112134e-05,-0.0002723808754734,0.0,0.0,0.0,-4.628245039112134e-05,0.0039571931730804,-0.0001438683992206,0.0,0.0,0.0,-0.0002723808754734,-0.0001438683992206,0.004114651134423,0.0,0.0,0.0,0.0,0.0,0.0,0.0,0.0,0.0,0.0,0.0,0.0,0.0,0.0,0.0,0.0,0.0,0.0,0.0,0.0,0.0,0,0,0,1,22,,126
2.200518184,0,1735643777088230371,map,0.963446214278483,-0.2244815603887874,0.0236009001541702,-0.4775702629819783,0.4893913910887114,-0.5190527056122466,0.5128420800209238,0.0,0.0,0.0,1,0.004120355499374529,0,1735643777088253974,map,0.9644889802995708,-0.2541307244614422,0.1493839075890904,-0.5056092696595095,0.5030657509071756,-0.4835026380270417,0.5074537572227329,0.0,0.0,0.0,16,0.0028374662735875153,0,1735643777088270664,map,0.9645621478059748,0.0523946885666633,0.0283883443976497,-0.4922543728803762,0.4917183779469297,-0.4946799382511557,0.5207594721761877,0.0,0.0,0.0,17,0.09970165306631384,0,1735643777088284730,map,0.9777012892982804,-0.2607837364225859,0.2377191207506774,-0.4999328277491995,0.5014308386234777,-0.4801754389350789,0.5177507408585226,0.0,0.0,0.0,121,0.0004305322972126428,0,1735643777088297367,map,0.9802679403929933,0.2018809481900388,0.2434073401021962,-0.5045387294279546,0.4883096362615482,-0.5003976472651591,0.506553614391244,0.0,0.0,0.0,122,3.2917954527039566e-05,0,1735643777088310956,map,0.975098118125643,0.2026780220889898,0.1460152571512784,-0.490319480683026,0.5023381263016621,-0.4788741202367927,0.5271838300762848,0.0,0.0,0.0,124,0.0002286025812949183,0,1735643777088322877,map,0.964999248566584,-0.0317141810409965,0.243508559218048,-0.4725860947803089,0.4895369656885969,-0.5197664773258625,0.5165837311539745,0.0,0.0,0.0,125,0.12354594120402429,0,1735643777088343858,map,0.966022576568906,-0.0251893349815206,0.1475110064869552,0.4987314844023484,-0.498322009561653,0.5049742574766679,-0.4979388321251451,0.0,0.0,0.0,126,0.7691025285744203,0,1735644242188269615,map,0.9770416552988966,0.3321734385621418,0.0248383432270834,-0.4892337990561916,0.5022259258662153,-0.4956877192550222,0.5125554547837948,0.0,0.0,0.0,0,2.549244919871687e-09,0.9398730454198612,-0.04657106658542,0.1161863571404413,1.0,1.831999630580113e-05,-4.619740605970146e-05,-0.0002649162585668,0.0,0.0,0.0,-4.619740605970146e-05,0.003796777715681,-0.0001111792342097,0.0,0.0,0.0,-0.0002649162585668,-0.0001111792342097,0.003995802422319,0.0,0.0,0.0,0.0,0.0,0.0,0.0,0.0,0.0,0.0,0.0,0.0,0.0,0.0,0.0,0.0,0.0,0.0,0.0,0.0,0.0,0,0,0,1,23,,126
2.300742773,0,1735643777088230371,map,0.963446214278483,-0.2244815603887874,0.0236009001541702,-0.4775702629819783,0.4893913910887114,-0.5190527056122466,0.5128420800209238,0.0,0.0,0.0,1,0.003211279730507992,0,1735643777088253974,map,0.9555638232916368,-0.2524166845069411,0.1509416210371074,-0.5041791614017497,0.4929341625640183,-0.4858211618173644,0.5165240394366607,0.0,0.0,0.0,16,0.002379626203152792,0,1735643777088270664,map,0.9645621478059748,0.0523946885666633,0.0283883443976497,-0.4922543728803762,0.4917183779469297,-0.4946799382511557,0.5207594721761877,0.0,0.0,0.0,17,0.0881707125911056,0,1735643777088284730,map,0.973656144890266,-0.2613510024364882,0.2376933926708708,-0.4937868378897139,0.4968620227471395,-0.4884582203134573,0.520299198622013,0.0,0.0,0.0,121,0.0003112987555917765,0,1735643777088297367,map,0.9802679403929933,0.2018809481900388,0.2434073401021962,-0.5045387294279546,0.4883096362615482,-0.5003976472651591,0.506553614391244,0.0,0.0,0.0,122,2.6162730228995643e-05,0,1735643777088310956,map,0.975098118125643,0.2026780220889898,0.1460152571512784,-0.490319480683026,0.5023381263016621,-0.4788741202367927,0.5271838300762848,0.0,0.0,0.0,124,0.0001708814293567844,0,1735643777088322877,map,0.9624058249089208,-0.0320425281210096,0.2434637404635753,-0.4743811737169469,0.4957557601049058,-0.5150140327060824,0.5137599385525873,0.0,0.0,0.0,125,0.12770613732734923,0,1735643777088343858,map,0.9616347021215677,-0.0261476187825427,0.1476686925168783,-0.4909299135866534,0.4912688328062987,-0.511453592347175,0.5060217156744441,0.0,0.0,0.0,126,0.7780239001571919,0,1735644242188269615,map,0.9770416552988966,0.3321734385621418,0.0248383432270834,-0.4892337990561916,0.5022259258662153,-0.4956877192550222,0.5125554547837948,0.0,0.0,0.0,0,1.075514800770486e-09,0.9397241075583892,-0.0461294637118377,0.1183260929016021,1.0,1.8066860317727976e-05,-4.578525605560374e-05,-0.0002612078974993,0.0,0.0,0.0,-4.578525605560374e-05,0.0036430639454473,-8.481375651842153e-05,0.0,0.0,0.0,-0.0002612078974993,-8.481375651842153e-05,0.003934615444657,0.0,0.0,0.0,0.0,0.0,0.0,0.0,0.0,0.0,0.0,0.0,0.0,0.0,0.0,0.0,0.0,0.0,0.0,0.0,0.0,0.0,0,0,0,1,24,,126
2.399840354,0,1735643777088230371,map,0.963446214278483,-0.2244815603887874,0.0236009001541702,-0.4775702629819783,0.4893913910887114,-0.5190527056122466,0.5128420800209238,0.0,0.0,0.0,1,0.002448792053794937,0,1735643777088253974,map,0.9555063080960008,-0.2534949967016623,0.1501404375200118,-0.5033401014107671,0.4972613259195478,-0.4877602917283395,0.5113411912506347,0.0,0.0,0.0,16,0.0018597228257463832,0,1735643777088270664,map,0.9645621478059748,0.0523946885666633,0.0283883443976497,-0.4922543728803762,0.4917183779469297,-0.4946799382511557,0.5207594721761877,0.0,0.0,0.0,17,0.07827152325553939,0,1735643777088284730,map,0.972784958119952,-0.2623771438517435,0.2374848098626417,-0.494302717849767,0.5035416894080905,-0.4883202514262027,0.513472416203082,0.0,0.0,0.0,121,0.0002648722235927878,0,1735643777088297367,map,0.9802679403929933,0.2018809481900388,0.2434073401021962,-0.5045387294279546,0.4883096362615482,-0.5003976472651591,0.506553614391244,0.0,0.0,0.0,122,1.8019611617582977e-05,0,1735643777088310956,map,0.975098118125643,0.2026780220889898,0.1460152571512784,-0.490319480683026,0.5023381263016621,-0.4788741202367927,0.5271838300762848,0.0,0.0,0.0,124,0.00011618200420334817,0,1735643777088322877,map,0.9590409104929342,-0.0331898538203576,0.2433107724488236,-0.4634338923031279,0.4976800744924042,-0.5267154034467327,0.5100141710677799,0.0,0.0,0.0,125,0.1363395660089012,0,1735643777088343858,map,0.9599101166715822,-0.0270133345807349,0.1472657090633515,-0.4910761087791717,0.4908270038210752,-0.511708702708595,0.5060507003044471,0.0,0.0,0.0,126,0.7806813215459577,0,1735644242188269615,map,0.9770416552988966,0.3321734385621418,0.0248383432270834,-0.4892337990561916,0.5022259258662153,-0.4956877192550222,0.5125554547837948,0.0,0.0,0.0,0,4.706467156314386e-10,0.9395561053767572,-0.0466570964859738,0.1209569006609097,1.0,1.8021579497815408e-05,-4.182640284164709e-05,-0.0002613671362317,0.0,0.0,0.0,-4.182640284164709e-05,0.0035040228998936,-0.0001147356157679,0.0,0.0,0.0,-0.0002613671362317,-0.0001147356157679,0.0039433384140651,0.0,0.0,0.0,0.0,0.0,0.0,0.0,0.0,0.0,0.0,0.0,0.0,0.0,0.0,0.0,0.0,0.0,0.0,0.0,0.0,0.0,0,0,0,1,25,,126
