%time,field.boxes0.header.seq,field.boxes0.header.stamp,field.boxes0.header.frame_id,field.boxes0.pose.position.x,field.boxes0.pose.position.y,field.boxes0.pose.position.z,field.boxes0.pose.orientation.x,field.boxes0.pose.orientation.y,field.boxes0.pose.orientation.z,field.boxes0.pose.orientation.w,field.boxes0.scale.x,field.boxes0.scale.y,field.boxes0.scale.z,field.boxes0.id,field.boxes0.pdf,field.boxes1.header.seq,field.boxes1.header.stamp,field.boxes1.header.frame_id,field.boxes1.pose.position.x,field.boxes1.pose.position.y,field.boxes1.pose.position.z,field.boxes1.pose.orientation.x,field.boxes1.pose.orientation.y,field.boxes1.pose.orientation.z,field.boxes1.pose.orientation.w,field.boxes1.scale.x,field.boxes1.scale.y,field.boxes1.scale.z,field.boxes1.id,field.boxes1.pdf,field.boxes2.header.seq,field.boxes2.header.stamp,field.boxes2.header.frame_id,field.boxes2.pose.position.x,field.boxes2.pose.position.y,field.boxes2.pose.position.z,field.boxes2.pose.orientation.x,field.boxes2.pose.orientation.y,field.boxes2.pose.orientation.z,field.boxes2.pose.orientation.w,field.boxes2.scale.x,field.boxes2.scale.y,field.boxes2.scale.z,field.boxes2.id,field.boxes2.pdf,field.boxes3.header.seq,field.boxes3.header.stamp,field.boxes3.header.frame_id,field.boxes3.pose.position.x,field.boxes3.pose.position.y,field.boxes3.pose.position.z,field.boxes3.pose.orientation.x,field.boxes3.pose.orientation.y,field.boxes3.pose.orientation.z,field.boxes3.pose.orientation.w,field.boxes3.scale.x,field.boxes3.scale.y,field.boxes3.scale.z,field.boxes3.id,field.boxes3.pdf,field.boxes4.header.seq,field.boxes4.header.stamp,field.boxes4.header.frame_id,field.boxes4.pose.position.x,field.boxes4.pose.position.y,field.boxes4.pose.position.z,field.boxes4.pose.orientation.x,field.boxes4.pose.orientation.y,field.boxes4.pose.orientation.z,field.boxes4.pose.orientation.w,field.boxes4.scale.x,field.boxes4.scale.y,field.boxes4.scale.z,field.boxes4.id,field.boxes4.pdf,field.boxes5.header.seq,field.boxes5.header.stamp,field.boxes5.header.frame_id,field.boxes5.pose.position.x,field.boxes5.pose.position.y,field.boxes5.pose.position.z,field.boxes5.pose.orientation.x,field.boxes5.pose.orientation.y,field.boxes5.pose.orientation.z,field.boxes5.pose.orientation.w,field.boxes5.scale.x,field.boxes5.scale.y,field.boxes5.scale.z,field.boxes5.id,field.boxes5.pdf,field.boxes6.header.seq,field.boxes6.header.stamp,field.boxes6.header.frame_id,field.boxes6.pose.position.x,field.boxes6.pose.position.y,field.boxes6.pose.position.z,field.boxes6.pose.orientation.x,field.boxes6.pose.orientation.y,field.boxes6.pose.orientation.z,field.boxes6.pose.orientation.w,field.boxes6.scale.x,field.boxes6.scale.y,field.boxes6.scale.z,field.boxes6.id,field.boxes6.pdf,field.boxes7.header.seq,field.boxes7.header.stamp,field.boxes7.header.frame_id,field.boxes7.pose.position.x,field.boxes7.pose.position.y,field.boxes7.pose.position.z,field.boxes7.pose.orientation.x,field.boxes7.pose.orientation.y,field.boxes7.pose.orientation.z,field.boxes7.pose.orientation.w,field.boxes7.scale.x,field.boxes7.scale.y,field.boxes7.scale.z,field.boxes7.id,field.boxes7.pdf,field.boxes8.header.seq,field.boxes8.header.stamp,field.boxes8.header.frame_id,field.boxes8.pose.position.x,field.boxes8.pose.position.y,field.boxes8.pose.position.z,field.boxes8.pose.orientation.x,field.boxes8.pose.orientation.y,field.boxes8.pose.orientation.z,field.boxes8.pose.orientation.w,field.boxes8.scale.x,field.boxes8.scale.y,field.boxes8.scale.z,field.boxes8.id,field.boxes8.pdf,field.pose.pose.position.x,field.pose.pose.position.y,field.pose.pose.position.z,field.pose.pose.orientation.w,field.pose.covariance0,field.pose.covariance1,field.pose.covariance2,field.pose.covariance3,field.pose.covariance4,field.pose.covariance5,field.pose.covariance6,field.pose.covariance7,field.pose.covariance8,field.pose.covariance9,field.pose.covariance10,field.pose.covariance11,field.pose.covariance12,field.pose.covariance13,field.pose.covariance14,field.pose.covariance15,field.pose.covariance16,field.pose.covariance17,field.pose.covariance18,field.pose.covariance19,field.pose.covariance20,field.pose.covariance21,field.pose.covariance22,field.pose.covariance23,field.pose.covariance24,field.pose.covariance25,field.pose.covariance26,field.pose.covariance27,field.pose.covariance28,field.pose.covariance29,field.pose.covariance30,field.pose.covariance31,field.pose.covariance32,field.pose.covariance33,field.pose.covariance34,field.pose.covariance35,field.buttons0,field.buttons1,field.buttons2,field.buttons3,intersection_length,vacuum,desired_box
0.0,0,1735643777088230371,map,0.9831536995277383,-0.2201268885950693,0.0216297961005041,-0.4984625438965872,0.4986802356156541,-0.4943510522295465,0.5083995988373695,0.0,0.0,0.0,1,0.1111111111111111,0,1735643777088253974,map,0.9850073443921104,-0.2493160483592661,0.148136256356703,-0.4862855209509554,0.5027218210411823,-0.5057572197224659,0.5049819773626542,0.0,0.0,0.0,16,0.1111111111111111,0,1735643777088270664,map,0.9880162007625918,0.0569848968480385,0.0262749699378587,0.7423717096124147,-0.4725342648120646,0.2461566576238431,-0.4062050138207552,0.0,0.0,0.0,17,0.1111111111111111,0,1735643777088284730,map,1.0147131329306291,-0.256969805673656,0.2373343793273833,-0.4850210725735714,0.5195986147293439,-0.4985609488588207,0.4961943359248689,0.0,0.0,0.0,121,0.1111111111111111,0,1735643777088297367,map,1.0315273608145257,0.2104771233765009,0.2452553809569117,0.5401433694817342,-0.4948343422230782,0.4732970494260757,-0.4892586403592099,0.0,0.0,0.0,122,0.1111111111111111,0,1735643777088310956,map,1.0236938273355864,0.2106089560562365,0.1465939707093729,-0.5028907656494689,0.5041265238514633,-0.4631163196525543,0.5277126114140194,0.0,0.0,0.0,124,0.1111111111111111,0,1735643777088322877,map,1.0002913604439274,-0.0255857563776277,0.2435450874151027,-0.4776305525932794,0.5465704438574376,-0.5139134642160944,0.457190065977308,0.0,0.0,0.0,125,0.1111111111111111,0,1735643777088343858,map,0.9996644773296512,-0.0201854113990902,0.1463846164072255,0.5084576556647632,-0.4996707056105409,0.492045173923022,-0.4996914499664973,0.0,0.0,0.0,126,0.1111111111111111,0,1735644242188269615,map,0.977966536883237,0.3327626862714051,0.0277227797063168,-0.5065418405057475,0.4922017984403075,-0.4801858004222664,0.5201676176983762,0.0,0.0,0.0,0,0.1111111111111111,0.924578208082701,0.7586360843482902,0.1750389529393921,1.0,0.0,0.0,0.0,0.0,0.0,0.0,0.0,0.0,0.0,0.0,0.0,0.0,0.0,0.0,0.0,0.0,0.0,0.0,0.0,0.0,0.0,0.0,0.0,0.0,0.0,0.0,0.0,0.0,0.0,0.0,0.0,0.0,0.0,0.0,0.0,0.0,0,0,0,1,1,,124
0.099773362,0,1735643777088230371,map,0.9781369082230936,-0.2187022817163849,0.0224253098318811,-0.4912188687618729,0.4955335275040374,-0.4968237175014524,0.5160588530582029,0.0,0.0,0.0,1,,0,1735643777088253974,map,0.994459953711264,-0.2509175913180457,0.146914016634449,-0.505353637343678,0.5062188544746281,-0.4925418897893587,0.4957445505506208,0.0,0.0,0.0,16,,0,1735643777088270664,map,0.9882038832456168,0.0574358461069849,0.0253570836359749,-0.4868598752855869,0.5044238292457447,-0.5055455055254952,0.5029391654752429,0.0,0.0,0.0,17,,0,1735643777088284730,map,1.01880025233587,-0.2576716529709888,0.2369667165279315,-0.4667324395975931,0.4960548530231945,-0.5243542638993773,0.5110215441152726,0.0,0.0,0.0,121,,0,1735643777088297367,map,1.0312106490422734,0.2098302943293955,0.2447248571885367,0.5448490848040243,-0.4984353941936293,0.4709272960811868,-0.4826273038369468,0.0,0.0,0.0,122,,0,1735643777088310956,map,1.0199028207080236,0.2088813770316505,0.1466096171341753,-0.4839191391753459,0.4966956607344761,-0.4854852816579209,0.5323717954971539,0.0,0.0,0.0,124,,0,1735643777088322877,map,1.0043975207010516,-0.0255926359346724,0.2432498446562023,-0.5037213267671105,0.496102229327533,-0.494339994499376,0.5057423977229811,0.0,0.0,0.0,125,,0,1735643777088343858,map,1.0050901893361388,-0.0193095652360705,0.1451321323734175,-0.5017421392053052,0.4556455186454853,-0.4921640680749923,0.5462751295637069,0.0,0.0,0.0,126,,0,1735644242188269615,map,0.9791736853228268,0.3337746684877986,0.0275239836824474,-0.5061621994876511,0.4939342588556412,-0.4798120309651399,0.5192390496482896,0.0,0.0,0.0,0,,0.9323452696333348,0.6402030838564814,0.083651971722531,1.0,6.032724513133535e-05,-0.0009198764044461,-0.0007098083080379,0.0,0.0,0.0,-0.0009198764044461,0.0140263756054927,0.0108232343914014,0.0,0.0,0.0,-0.0007098083080379,0.0108232343914014,0.0083515803359309,0.0,0.0,0.0,0.0,0.0,0.0,0.0,0.0,0.0,0.0,0.0,0.0,0.0,0.0,0.0,0.0,0.0,0.0,0.0,0.0,0.0,0,0,0,1,2,,124
0.200671487,0,1735643777088230371,map,0.9858329886184964,-0.220359044457242,0.020166854512623,-0.4974246758347608,0.4942275532345704,-0.4943507986918807,0.5137364161972094,0.0,0.0,0.0,1,1.0565527559099668e-08,0,1735643777088253974,map,0.9828824337164566,-0.2484639786665942,0.1483584185945738,-0.5272695709959024,0.4951847461236459,-0.4648228687940535,0.5106060784541482,0.0,0.0,0.0,16,5.783770458331499e-14,0,1735643777088270664,map,0.9857774413863548,0.05664698180188,0.0260994643710204,-0.5040007399457556,0.4843663886673572,-0.4841428137647499,0.5262871759252967,0.0,0.0,0.0,17,0.0019413917854692818,0,1735643777088284730,map,1.012921261256675,-0.256363966723795,0.2368461989909986,0.3243344071088047,-0.592226155182489,0.6426393721523661,-0.3620635453104321,0.0,0.0,0.0,121,1.4007227638396725e-18,0,1735643777088297367,map,1.0293862149874322,0.2087546576104893,0.2445281103066466,-0.51271754306998,0.4910387162853893,-0.4875707484647675,0.5082090764425468,0.0,0.0,0.0,122,2.486277343130485e-06,0,1735643777088310956,map,1.0167942488085622,0.2072213290602189,0.1468358287715454,-0.4730689193025871,0.4952606078832804,-0.4918491999367699,0.5375937986905402,0.0,0.0,0.0,124,0.001876970071352512,0,1735643777088322877,map,1.002594236041571,-0.0262646448539037,0.2425577983166765,-0.5550914987214217,0.4392081971266355,-0.4321751841329692,0.5587434096645887,0.0,0.0,0.0,125,9.30103508463416e-12,0,1735643777088343858,map,1.0046477461490797,-0.019759644102644,0.145368256514812,0.5063890147481729,-0.5062883283547027,0.4949185562242357,-0.492237663145653,0.0,0.0,0.0,126,1.0908366445345735e-07,0,1735644242188269615,map,0.968640400682394,0.3261943163824542,0.0305330676318711,-0.493085962990151,0.4995458469184814,-0.4916506316874845,0.5153637902393513,0.0,0.0,0.0,0,0.9961790322072842,0.933440610476904,0.5612899405101618,0.083936061140644,1.0,4.2617706548071245e-05,-0.0007861245143007,-0.0004725831892062,0.0,0.0,0.0,-0.0007861245143007,0.0218054854559221,0.0071706528163181,0.0,0.0,0.0,-0.0004725831892062,0.0071706528163181,0.0055678816375489,0.0,0.0,0.0,0.0,0.0,0.0,0.0,0.0,0.0,0.0,0.0,0.0,0.0,0.0,0.0,0.0,0.0,0.0,0.0,0.0,0.0,0,0,0,1,3,,124
0.301124211,0,1735643777088230371,map,0.988440642327408,-0.2210994162762934,0.0201338236377161,-0.4907474320538468,0.5234528512968032,-0.5003707968143163,0.4845545749419854,0.0,0.0,0.0,1,1.0857851132903211e-07,0,1735643777088253974,map,0.980758382142912,-0.2478161838773054,0.1493838346911967,-0.5029909476952955,0.4796552475724163,-0.4897059071374384,0.5264210050212006,0.0,0.0,0.0,16,4.39716912780248e-09,0,1735643777088270664,map,0.9954434258229534,0.0586018127302571,0.0237381472264857,-0.5109563002828542,0.4914185567700286,-0.4716017680736906,0.5244265759980982,0.0,0.0,0.0,17,0.0038217973500235362,0,1735643777088284730,map,1.0130908277655974,-0.2570249529833384,0.2378358622178819,-0.4913437346706599,0.4942432306894516,-0.4915354003665113,0.5222048577944054,0.0,0.0,0.0,121,2.3205961341616227e-10,0,1735643777088297367,map,1.0273494697284464,0.2074834941759792,0.2456198092538159,-0.632340011989799,0.278197948749349,-0.294869725020964,0.6601544181587039,0.0,0.0,0.0,122,0.017066125145147455,0,1735643777088310956,map,1.0180226171054172,0.207475455850742,0.1474847180421467,-0.4714952403484813,0.4984112678005541,-0.4968498982928837,0.5314307339856468,0.0,0.0,0.0,124,0.08685708027379907,0,1735643777088322877,map,1.0087805448088123,-0.0256328246059649,0.2440456458742932,0.4868342678868009,-0.5037465418924466,0.5106547460255457,-0.4984611795356883,0.0,0.0,0.0,125,9.750919483890933e-06,0,1735643777088343858,map,1.0077789600448308,-0.0195567548544602,0.1458323920641214,-0.5059971357516144,0.508775788211687,-0.495388662357817,0.4895959243581098,0.0,0.0,0.0,126,0.0001109846187340518,0,1735644242188269615,map,0.9746363872384544,0.3301942822354745,0.0293483275390158,-0.491749025628513,0.4977233332022647,-0.4906048321867895,0.5193854811355508,0.0,0.0,0.0,0,0.8921341484850719,0.930992165582494,0.5460481226158649,0.1238761563803916,1.0,4.994792711394095e-05,-0.000477637132111,-0.0006478107587206,0.0,0.0,0.0,-0.000477637132111,0.0170510531301103,0.0035517106372633,0.0,0.0,0.0,-0.0006478107587206,0.0035517106372633,0.008961544851442,0.0,0.0,0.0,0.0,0.0,0.0,0.0,0.0,0.0,0.0,0.0,0.0,0.0,0.0,0.0,0.0,0.0,0.0,0.0,0.0,0.0,0,0,0,1,4,,124
0.39922559,0,1735643777088230371,map,0.9908932892565414,-0.2211949245008493,0.0194768197034221,-0.491826241541028,0.5156831925495398,-0.4976872786460593,0.4944544121831866,0.0,0.0,0.0,1,2.204162593591575e-09,0,1735643777088253974,map,0.98250585516331,-0.2476856583725657,0.1489511577684318,-0.5135245403811494,0.4958554071642778,-0.4726203021037716,0.5167688183816993,0.0,0.0,0.0,16,3.932180534068312e-11,0,1735643777088270664,map,0.985655051774082,0.0574845560256624,0.026963559601482,-0.4878768183028536,0.4920494314624783,-0.5014773998627547,0.5180578969449529,0.0,0.0,0.0,17,0.0009794062384822285,0,1735643777088284730,map,1.0129773623780352,-0.2569421048455014,0.2380484022036652,-0.501064960573339,0.4996786118505424,-0.4823706424267162,0.5163078088404155,0.0,0.0,0.0,121,1.4703567211357419e-12,0,1735643777088297367,map,1.0261595986551018,0.2073674532427668,0.2455879973166669,-0.5941248357377028,0.27567157958013,-0.3087725599221437,0.6896958503649057,0.0,0.0,0.0,122,0.011554075068880499,0,1735643777088310956,map,1.0227634163412165,0.2097418597131967,0.1473014037159405,-0.7063431048968702,0.3246106746893387,-0.2370619779290513,0.5826739625749099,0.0,0.0,0.0,124,0.0555304923286313,0,1735643777088322877,map,1.0131629531228574,-0.0249286875617448,0.2443378752842507,-0.4974144121694061,0.5096531650848886,-0.500779987661382,0.491987761883348,0.0,0.0,0.0,125,1.0040766217134316e-06,0,1735643777088343858,map,1.0042613987866826,-0.0194539186150472,0.1460766075259887,-0.5061503620193328,0.5509382997225002,-0.4969009299957947,0.4397365878521972,0.0,0.0,0.0,126,1.2267175379167978e-05,0,1735644242188269615,map,0.9776156748318384,0.3329335816385264,0.0285950415225177,-0.497468638152992,0.499937630589,-0.4864570561476465,0.5157003510755351,0.0,0.0,0.0,0,0.9319227528670504,0.9287191911147532,0.5599386234095476,0.1550170649544774,1.0,6.062399341515898e-05,-0.0005084007202815,-0.0008013785673411,0.0,0.0,0.0,-0.0005084007202815,0.0144126265532854,0.004571619770868,0.0,0.0,0.0,-0.0008013785673411,0.004571619770868,0.0110482606284318,0.0,0.0,0.0,0.0,0.0,0.0,0.0,0.0,0.0,0.0,0.0,0.0,0.0,0.0,0.0,0.0,0.0,0.0,0.0,0.0,0.0,0,0,0,1,5,,124
0.498416626,0,1735643777088230371,map,0.9932338785924344,-0.221707394766542,0.0188160620631734,-0.4908028028150497,0.5220978604332517,-0.5022723603281462,0.4839926744593403,0.0,0.0,0.0,1,1.48462376365662e-07,0,1735643777088253974,map,0.9740997614150404,-0.2451018388353668,0.1502049895586313,-0.5247948784352207,0.4757930591049156,-0.4625894410210658,0.5331250411784891,0.0,0.0,0.0,16,5.343684073131778e-08,0,1735643777088270664,map,0.9858696092602732,0.0569023160654436,0.0272436377636911,-0.4814137732458676,0.5060261982810799,-0.5108518454446154,0.5012072002557467,0.0,0.0,0.0,17,0.00355792189934587,0,1735643777088284730,map,1.008023123799374,-0.25593879545402,0.2376964519447612,-0.5141740633375415,0.487379476820006,-0.4665950175064617,0.5295048326538332,0.0,0.0,0.0,121,1.2312421681153735e-08,0,1735643777088297367,map,1.021998008700014,0.2055176932856336,0.2452859532958154,-0.4899433778968246,0.49826954278418,-0.5104383929363862,0.5011343095470645,0.0,0.0,0.0,122,0.10774404355456656,0,1735643777088310956,map,1.017487191219146,0.2071905198495842,0.147699562857564,-0.4796090822832743,0.4952027977950956,-0.491620784122829,0.5320322564147402,0.0,0.0,0.0,124,0.19673629940123474,0,1735643777088322877,map,1.0059362971305386,-0.0256584717593698,0.2439215970944791,0.4280339129676114,-0.5148892755918342,0.5629398653311475,-0.484535562421481,0.0,0.0,0.0,125,0.00017540239385764687,0,1735643777088343858,map,0.9996542874598012,-0.0206535988635759,0.1466951245660408,0.506834214813722,-0.5064813639902642,0.4940973537964785,-0.4924058403350196,0.0,0.0,0.0,126,0.0004694049079878579,0,1735644242188269615,map,0.9820946904163516,0.3352972516462722,0.027826718459391,-0.5124097838368458,0.5005932941660459,-0.4753716120931747,0.5107488596954473,0.0,0.0,0.0,0,0.6913167136313686,0.9282697507626052,0.5295388504773632,0.1681926235773805,1.0,5.152997766332648e-05,-0.000355352843642,-0.0006974236113203,0.0,0.0,0.0,-0.000355352843642,0.0166312530993797,0.0018070131904353,0.0,0.0,0.0,-0.0006974236113203,0.0018070131904353,0.0100748605821543,0.0,0.0,0.0,0.0,0.0,0.0,0.0,0.0,0.0,0.0,0.0,0.0,0.0,0.0,0.0,0.0,0.0,0.0,0.0,0.0,0.0,0,0,0,1,6,,124
0.599029744,0,1735643777088230371,map,0.9831532692797844,-0.2209571129331331,0.0209546566124772,-0.4954384352264372,0.5116705845725535,-0.4896150597576288,0.5030020507334879,0.0,0.0,0.0,1,2.5600439083563154e-05,0,1735643777088253974,map,0.9824367220205534,-0.2494520809275331,0.1483753012608354,-0.5203598647758231,0.4881778317424061,-0.4769553630217011,0.5132461372583407,0.0,0.0,0.0,16,2.639368111299964e-05,0,1735643777088270664,map,0.9877860074023416,0.0560801970781756,0.025330036054773,0.4817566567319668,-0.5104007223616414,0.5113254595546884,-0.4959313467793093,0.0,0.0,0.0,17,0.01485381660034298,0,1735643777088284730,map,1.0078751243821014,-0.2579164998393917,0.2369951160875122,-0.4995834479818162,0.4751604104490186,-0.4850443072502493,0.5379321359136726,0.0,0.0,0.0,121,1.2368391528770086e-05,0,1735643777088297367,map,1.025543091017224,0.2061876637657264,0.2446380906634612,-0.5066785752857059,0.4825403749697423,-0.493553882052318,0.5165618775922152,0.0,0.0,0.0,122,0.24750345307175262,0,1735643777088310956,map,1.023755816729527,0.2091617175476842,0.1466998891106261,-0.5098541360156913,0.5072878666464117,-0.4683900985391518,0.5131456868487826,0.0,0.0,0.0,124,0.3615144559761689,0,1735643777088322877,map,1.0064318647804975,-0.0261315047080032,0.2434321827463407,-0.4511738145154701,0.5496010002617474,-0.5402163764213049,0.4500524372260213,0.0,0.0,0.0,125,0.0050817951316311505,0,1735643777088343858,map,1.0063576143015251,-0.020870937727597,0.1454937916808169,-0.5132292287915721,0.4987347273554525,-0.4874141962157247,0.5002867495457675,0.0,0.0,0.0,126,0.008935644238358569,0,1735644242188269615,map,0.9805510228074744,0.3337494304901149,0.0269695132268795,-0.5057662428242022,0.4918243504548184,-0.4819913963007576,0.5196090932722714,0.0,0.0,0.0,0,0.36204647247002053,0.9286999709237242,0.4883300141168721,0.1704667680505696,1.0,4.527908860505088e-05,-0.0004109613850043,-0.000591921370036,0.0,0.0,0.0,-0.0004109613850043,0.0244443689645827,0.0009865793642099,0.0,0.0,0.0,-0.000591921370036,0.0009865793642099,0.0086666251832133,0.0,0.0,0.0,0.0,0.0,0.0,0.0,0.0,0.0,0.0,0.0,0.0,0.0,0.0,0.0,0.0,0.0,0.0,0.0,0.0,0.0,0,0,0,1,7,,124
0.699886842,0,1735643777088230371,map,0.9825236120834872,-0.2209358340098018,0.0205528005996619,-0.5071950760526621,0.4983681290160285,-0.4768464682579053,0.5167202420255669,0.0,0.0,0.0,1,0.00033411921209051184,0,1735643777088253974,map,0.986915884309944,-0.2509311806252238,0.147231786383685,-0.5165605657277644,0.4901777681864849,-0.4764525155306692,0.5156393487266333,0.0,0.0,0.0,16,0.00017691585647634575,0,1735643777088270664,map,0.9829954740187116,0.0549850790407261,0.0264731569161688,-0.488925191040442,0.507770778612829,-0.5048910398172634,0.4982028019443802,0.0,0.0,0.0,17,0.042451096156905295,0,1735643777088284730,map,1.00937759238988,-0.2588154754819091,0.2362588502686696,-0.5078264108614188,0.5056892089732146,-0.4665985870356354,0.5183401575567952,0.0,0.0,0.0,121,4.56111955700914e-05,0,1735643777088297367,map,1.0311470105987386,0.2072326287767038,0.2441510721869714,-0.5380658164156721,0.4750342955360379,-0.4642057431636338,0.5189803688805729,0.0,0.0,0.0,122,0.2025298906851269,0,1735643777088310956,map,1.013163171037647,0.2039954754870441,0.1464488251316783,-0.4790575398273808,0.4957322915962207,-0.4900985607043224,0.5334386275841382,0.0,0.0,0.0,124,0.38714962079959475,0,1735643777088322877,map,1.0106679167639836,-0.0277908733414783,0.2425090202539647,0.4813425302572302,-0.5133537589274106,0.5166820733310705,-0.4876647638070358,0.0,0.0,0.0,125,0.007319926633821854,0,1735643777088343858,map,0.9974860052031234,-0.0228702431724729,0.1455261530600928,0.6261755440046077,-0.525675335207903,0.3750289801897362,-0.436947244026597,0.0,0.0,0.0,126,0.02125786859766464,0,1735644242188269615,map,0.980802619076594,0.3334342153609839,0.0261969508899873,-0.4972482770120149,0.4966581701900461,-0.4786299886943385,0.5262966339570444,0.0,0.0,0.0,0,0.33873495086274963,0.9298229351384736,0.455001023064531,0.1606852453697994,1.0,4.844654292267335e-05,-0.0006215820617372,-0.0005948212983354,0.0,0.0,0.0,-0.0006215820617372,0.0291645743559791,0.0031453149170233,0.0,0.0,0.0,-0.0005948212983354,0.0031453149170233,0.0082530443369926,0.0,0.0,0.0,0.0,0.0,0.0,0.0,0.0,0.0,0.0,0.0,0.0,0.0,0.0,0.0,0.0,0.0,0.0,0.0,0.0,0.0,0,0,0,1,8,,124
0.799894147,0,1735643777088230371,map,0.9904397562140396,-0.2233076072607936,0.017635697817462,-0.5021328642584806,0.5062830020145869,-0.4922285510167689,0.499250600466944,0.0,0.0,0.0,1,0.001312428479851988,0,1735643777088253974,map,0.9797478593821616,-0.2483964239647321,0.1477616969851146,-0.5212934443251886,0.4829857093279281,-0.4686441525953342,0.5247386089538113,0.0,0.0,0.0,16,0.00023237078467528463,0,1735643777088270664,map,0.9921424924671328,0.0567732196118095,0.0230727859983748,-0.5113954548634337,0.4910665972162998,-0.4725476518016914,0.5234758854237069,0.0,0.0,0.0,17,0.09084040939506961,0,1735643777088284730,map,1.0087119953802834,-0.2591178083754428,0.2358261364939908,-0.5033675517636986,0.4776737752745612,-0.4811739038491249,0.535649649025332,0.0,0.0,0.0,121,2.5383982535549947e-05,0,1735643777088297367,map,1.023870153763811,0.20497222410534,0.2433362905550329,-0.5122655288276226,0.4924528760056718,-0.4882147850342612,0.5066759482772484,0.0,0.0,0.0,122,0.12051212690893058,0,1735643777088310956,map,1.0191828800336815,0.2062933108863329,0.1451448544548054,-0.5008614692479428,0.5043983607330337,-0.4672681708889649,0.5257190683118711,0.0,0.0,0.0,124,0.35572904815042045,0,1735643777088322877,map,1.0037811439416808,-0.0280678923300677,0.2417374784015526,-0.4907123999590537,0.5277996018095258,-0.505185254319163,0.4747807701188143,0.0,0.0,0.0,125,0.004148351255114298,0,1735643777088343858,map,1.00042948195341,-0.0224473297247627,0.1446138485186262,0.475286986014551,-0.5168025295160443,0.5314604970348864,-0.4738851828264456,0.0,0.0,0.0,126,0.023228310956156042,0,1735644242188269615,map,0.9763181265251808,0.330823877765302,0.0270935380073807,-0.5004681960230599,0.4960319356625594,-0.4805116658377403,0.5221038618571201,0.0,0.0,0.0,0,0.40397157008724616,0.9313905965625108,0.425856497125376,0.1433497847632455,1.0,6.272409243235562e-05,-0.0009180273805041,-0.0007461391058512,0.0,0.0,0.0,-0.0009180273805041,0.0327192932319482,0.0068377057323178,0.0,0.0,0.0,-0.0007461391058512,0.0068377057323178,0.0097401849661911,0.0,0.0,0.0,0.0,0.0,0.0,0.0,0.0,0.0,0.0,0.0,0.0,0.0,0.0,0.0,0.0,0.0,0.0,0.0,0.0,0.0,0,0,0,1,9,,124
0.900077544,0,1735643777088230371,map,0.9794305144203128,-0.2200612235995628,0.0200968368977632,-0.5030345103680767,0.492369841764546,-0.4812128806499601,0.5224580210850176,0.0,0.0,0.0,1,0.0018333317324694528,0,1735643777088253974,map,0.9734427574195764,-0.2463134240745165,0.1473818250836336,-0.5138582370114718,0.4618488139104393,-0.4797987149982415,0.5407759040776673,0.0,0.0,0.0,16,0.00015131016332126614,0,1735643777088270664,map,0.9859726809216288,0.0558359129608385,0.0239270487242199,-0.4914253917478617,0.5060683008285082,-0.5002463370539336,0.5021449606499395,0.0,0.0,0.0,17,0.12106417424280086,0,1735643777088284730,map,1.0130887945861229,-0.2613892861478968,0.2350349090295407,-0.5004826675006394,0.4774192551081326,-0.4940646285669564,0.5267713898670233,0.0,0.0,0.0,121,8.994962871880868e-06,0,1735643777088297367,map,1.0163906537956795,0.2017152290346721,0.2424586541558928,-0.5109755076129149,0.4922671029073118,-0.4890633793788996,0.5073402615261835,0.0,0.0,0.0,122,0.08312341022787785,0,1735643777088310956,map,1.0164429524117982,0.2051353151683659,0.1448241279096048,-0.4976655700866191,0.5034682421933893,-0.4722265134856183,0.5252150315958942,0.0,0.0,0.0,124,0.324129932736581,0,1735643777088322877,map,0.9983363450698844,-0.0288331527698242,0.2408547065271887,0.4470258274841566,-0.5178167184757415,0.5487615298346556,-0.4805148686592833,0.0,0.0,0.0,125,0.002225027520146181,0,1735643777088343858,map,0.9965888324254456,-0.0234734718457497,0.144022985112557,0.5921972827689319,-0.5158308619391041,0.4065995173340285,-0.4667951720572844,0.0,0.0,0.0,126,0.01870423605986184,0,1735644242188269615,map,0.978403294061733,0.3319273372653776,0.0257782248120251,-0.5088222191707044,0.4981276514418059,-0.478467040388718,0.5138463616772344,0.0,0.0,0.0,0,0.4487595823540698,0.932665601436768,0.4046505273943906,0.1287217259545114,1.0,7.108242005353909e-05,-0.0010695640753869,-0.0008393828118046,0.0,0.0,0.0,-0.0010695640753869,0.0334946022788366,0.0089457547099758,0.0,0.0,0.0,-0.0008393828118046,0.0089457547099758,0.0106919874101781,0.0,0.0,0.0,0.0,0.0,0.0,0.0,0.0,0.0,0.0,0.0,0.0,0.0,0.0,0.0,0.0,0.0,0.0,0.0,0.0,0.0,0,0,0,1,10,,124
1.000354288,0,1735643777088230371,map,0.9775061394885428,-0.2216188371222492,0.0209811449016752,-0.5011851020173836,0.4999800443863816,-0.4802094978365483,0.5179114662939863,0.0,0.0,0.0,1,0.0013511405469999915,0,1735643777088253974,map,0.9802659824933172,-0.251196911158982,0.1477721979710267,-0.5201579598406908,0.491014956792717,-0.473266682314507,0.5141582017543198,0.0,0.0,0.0,16,6.68027264922388e-05,0,1735643777088270664,map,0.986632304506918,0.0550103827162673,0.0238927046631389,-0.4877463593102699,0.5185913940322778,-0.5004560438060331,0.4926562729056127,0.0,0.0,0.0,17,0.12462996892925167,0,1735643777088284730,map,1.0062545345575424,-0.2617579628433162,0.2364608980006548,-0.504071549843975,0.4979259220725708,-0.4726612133418055,0.5239971623666732,0.0,0.0,0.0,121,2.9167012426461917e-06,0,1735643777088297367,map,1.0208714572081914,0.2033600216879304,0.2442510383273272,-0.5371232946519813,0.4776411933362399,-0.4652583703049813,0.5166160137197514,0.0,0.0,0.0,122,0.06571816318996385,0,1735643777088310956,map,1.0118926710301444,0.2035314784068185,0.1461905254667018,-0.4900010821065272,0.5004380964609486,-0.478325585962094,0.5297785244411047,0.0,0.0,0.0,124,0.3054514551509405,0,1735643777088322877,map,0.9949330868912571,-0.0304522406515067,0.2424063849132029,-0.5612821426359503,0.4608063675148598,-0.4311541179514866,0.5354679958589798,0.0,0.0,0.0,125,0.0011745346733045836,0,1735643777088343858,map,0.9909025117012316,-0.0249674801616292,0.1456105211599404,-0.5802137996635719,0.474041604601758,-0.4125178510363448,0.5181365904497648,0.0,0.0,0.0,126,0.013560480136648533,0,1735644242188269615,map,0.976911561097286,0.3315221839776509,0.0265721090821278,0.8549820898702898,-0.2314877029169625,0.1109027786818439,-0.4506879664245607,0.0,0.0,0.0,0,0.488044537945156,0.9333107169606164,0.3942682439883458,0.1212468142587196,1.0,6.878212225795741e-05,-0.0010393086996068,-0.0008112970992023,0.0,0.0,0.0,-0.0010393086996068,0.0315275565225404,0.0089085707984049,0.0,0.0,0.0,-0.0008112970992023,0.0089085707984049,0.0102787316033062,0.0,0.0,0.0,0.0,0.0,0.0,0.0,0.0,0.0,0.0,0.0,0.0,0.0,0.0,0.0,0.0,0.0,0.0,0.0,0.0,0.0,0,0,0,1,11,,124
1.099402484,0,1735643777088230371,map,0.9859039483628044,-0.2244460097423609,0.0184166644067882,-0.4945147179079454,0.5132568856877441,-0.4832416650623301,0.5084290080378283,0.0,0.0,0.0,1,0.0008022119358074085,0,1735643777088253974,map,0.9852416936995364,-0.2530541283861475,0.1472935432353015,-0.5065913674819189,0.4894921558339102,-0.4867907719242168,0.51652430740411,0.0,0.0,0.0,16,3.018987263673624e-05,0,1735643777088270664,map,0.9850839113982712,0.0553609681848586,0.0247383262063738,-0.4862871152502364,0.5034955979545511,-0.5059216493896382,0.5040439554848963,0.0,0.0,0.0,17,0.11678184280414977,0,1735643777088284730,map,1.006632259882352,-0.2624734869868719,0.2371495621760397,-0.4958594758030158,0.4815611962316107,-0.4911815481710899,0.530059318639518,0.0,0.0,0.0,121,9.722679095950616e-07,0,1735643777088297367,map,1.0154273554647508,0.2023546963536169,0.2445897747959216,-0.4910208121842119,0.4828399324694565,-0.5070394591978326,0.5183388355421743,0.0,0.0,0.0,122,0.05575982934919272,0,1735643777088310956,map,1.0103408647888992,0.2036237048388952,0.1469822597411852,-0.4996985513669436,0.5063766328578281,-0.4693277469173051,0.5230827175799947,0.0,0.0,0.0,124,0.3053197169836584,0,1735643777088322877,map,0.9922119428039048,-0.0299582743733063,0.2432272006049836,0.3986552276199689,-0.5354180748033073,0.5860380997527916,-0.4593047357728064,0.0,0.0,0.0,125,0.000697314617249799,0,1735643777088343858,map,0.9955667633220756,-0.0243285705128661,0.1452043560236551,-0.4925282905689188,0.5248142465061877,-0.5113386962091808,0.4695941092182654,0.0,0.0,0.0,126,0.010561130380733622,0,1735644242188269615,map,0.9781182221877248,0.334282442025459,0.0259912310485444,-0.513448045372778,0.4940772347275969,-0.4685184922035891,0.5222539739342157,0.0,0.0,0.0,0,0.5100467917886621,0.9333342684795756,0.3940193859355808,0.1209463632302618,1.0,6.305638015095897e-05,-0.0009527641121429,-0.0007437668444611,0.0,0.0,0.0,-0.0009527641121429,0.0289009413792967,0.0081670123647746,0.0,0.0,0.0,-0.0007437668444611,0.0081670123647746,0.0094231636153895,0.0,0.0,0.0,0.0,0.0,0.0,0.0,0.0,0.0,0.0,0.0,0.0,0.0,0.0,0.0,0.0,0.0,0.0,0.0,0.0,0.0,0,0,0,1,12,,124
1.200053724,0,1735643777088230371,map,0.980912472727172,-0.2238218367159725,0.0199382566766228,-0.4945701516972772,0.4965795564428922,-0.4974508070488126,0.5112257854799557,0.0,0.0,0.0,1,0.0005148402075729378,0,1735643777088253974,map,0.969397365338476,-0.2474207285659278,0.1495178000360713,-0.5277316949840392,0.4894101697015228,-0.4639070800570343,0.516495077396635,0.0,0.0,0.0,16,2.0293821232287042e-05,0,1735643777088270664,map,0.9832568484925116,0.0548272096423262,0.0250996782672694,-0.5049587919416912,0.4884631349011903,-0.4777876409086108,0.5273891869182318,0.0,0.0,0.0,17,0.10482976047677389,0,1735643777088284730,map,0.9993253361920889,-0.2610204928603798,0.2373495573604543,-0.508664857682559,0.4944446830835445,-0.468772051933214,0.5263433112100118,0.0,0.0,0.0,121,5.707020143409081e-07,0,1735643777088297367,map,1.00941364559845,0.1995377079264112,0.2446964774373789,0.53728268943101,-0.4994942954655685,0.4738664788054171,-0.4871173582410006,0.0,0.0,0.0,122,0.05618317418864979,0,1735643777088310956,map,1.0083974143109342,0.2026057002211581,0.1472195516313689,-0.4883401730703349,0.5041588699016295,-0.4807363221772094,0.5255856712322718,0.0,0.0,0.0,124,0.31719544645917896,0,1735643777088322877,map,0.9912428549918036,-0.0310195153377424,0.2433892821156088,0.4309377435740367,-0.5452943791070775,0.5542741462789358,-0.457959465503555,0.0,0.0,0.0,125,0.0005710925940448332,0,1735643777088343858,map,0.9965175617547914,-0.0253163434384304,0.1454340779350935,0.5760813788283343,-0.5443390281584419,0.4201666476914141,-0.4419109135997064,0.0,0.0,0.0,126,0.009014409760803052,0,1735644242188269615,map,0.9743819570948516,0.3319213035715564,0.0271298424286225,-0.5144121094647662,0.5022274283974497,-0.4782574902199754,0.5043982205061633,0.0,0.0,0.0,0,0.51167041178973,0.9330135906189116,0.3938001548639505,0.1258011554591907,1.0,5.943990085395548e-05,-0.0008786309344424,-0.0007052359029031,0.0,0.0,0.0,-0.0008786309344424,0.0266783687895809,0.0075260087887726,0.0,0.0,0.0,-0.0007052359029031,0.0075260087887726,0.008981132966777,0.0,0.0,0.0,0.0,0.0,0.0,0.0,0.0,0.0,0.0,0.0,0.0,0.0,0.0,0.0,0.0,0.0,0.0,0.0,0.0,0.0,0,0,0,1,13,,124
1.300262819,0,1735643777088230371,map,0.9737034511002992,-0.2229923134733558,0.0211636581534023,-0.4994127406063404,0.4942838822725781,-0.488274255336256,0.5175505867269755,0.0,0.0,0.0,1,0.0003045403497666146,0,1735643777088253974,map,0.9715081097473508,-0.2503301413161873,0.1484874393786049,-0.5113705137553756,0.4819466844110724,-0.483687645871179,0.5217986702535129,0.0,0.0,0.0,16,8.762374870219703e-06,0,1735643777088270664,map,0.9762894343389596,0.0529397737721375,0.026303569465632,-0.4900831213193789,0.5013217177824735,-0.4952499430590784,0.5130522033647889,0.0,0.0,0.0,17,0.09236200441079404,0,1735643777088284730,map,0.9993198540984608,-0.2629294538348803,0.236927907902896,0.2256131321432179,-0.6646037687627682,0.6714240524822368,-0.2378871305875596,0.0,0.0,0.0,121,1.9340939038475979e-07,0,1735643777088297367,map,1.0089298270955889,0.1988190485866184,0.2443106669621055,0.4887805466567998,-0.5036873192480115,0.5105958376141463,-0.4966734865580607,0.0,0.0,0.0,122,0.0471695260410105,0,1735643777088310956,map,1.0037486469459689,0.2001056793299141,0.1470313812201506,-0.4861137189820463,0.5052524176596686,-0.4824693260110154,0.5250112342845441,0.0,0.0,0.0,124,0.2991482810650323,0,1735643777088322877,map,0.9888045528737852,-0.0309744331185474,0.2425683504206165,-0.5682708727562165,0.4608015397683383,-0.4209524498853927,0.5362174848505994,0.0,0.0,0.0,125,0.0003489753054315128,0,1735643777088343858,map,0.9923346057764776,-0.0252773423474541,0.1452305188413588,0.5193594500796933,-0.5079779175571514,0.4803297501855962,-0.4914341542606306,0.0,0.0,0.0,126,0.006589254463599256,0,1735644242188269615,map,0.9696624631076138,0.3290719007156226,0.0277982673850285,-0.5058578108878444,0.4978534232871858,-0.4751140073024787,0.520112030383809,0.0,0.0,0.0,0,0.5540684625801051,0.9331160226595272,0.3953596391788795,0.1239350619238694,1.0,5.533059384838186e-05,-0.0008137949468934,-0.000657346830833,0.0,0.0,0.0,-0.0008137949468934,0.0248043869061672,0.0069506048656509,0.0,0.0,0.0,-0.000657346830833,0.0069506048656509,0.0083848934352234,0.0,0.0,0.0,0.0,0.0,0.0,0.0,0.0,0.0,0.0,0.0,0.0,0.0,0.0,0.0,0.0,0.0,0.0,0.0,0.0,0.0,0,0,0,1,14,,124
1.397358885,0,1735643777088230371,map,0.9757481731539616,-0.2239616006492918,0.0198803134591161,-0.4961559907716278,0.5074645395049915,-0.49041571942521,0.5057681248428622,0.0,0.0,0.0,1,0.00019191714998354511,0,1735643777088253974,map,0.9774564204552684,-0.253183680049183,0.1473204437282489,-0.5055557470230838,0.4973034315624829,-0.4803567477548826,0.5161008414006536,0.0,0.0,0.0,16,3.483069756262646e-06,0,1735643777088270664,map,0.9801915691803342,0.0530196155412698,0.0244327149679639,-0.4905872585980198,0.5161612410542631,-0.4943924847740984,0.4984754617165174,0.0,0.0,0.0,17,0.08791992745469071,0,1735643777088284730,map,0.9994826076097918,-0.2641938491208634,0.2364147600091683,-0.4945445785713626,0.4984799849477703,-0.4865364314511219,0.5198323434367583,0.0,0.0,0.0,121,5.948977919516345e-08,0,1735643777088297367,map,1.0127986781160687,0.1994124345001188,0.244348042654582,-0.5175795457209642,0.4697279435653319,-0.4849546267368623,0.5256292256825864,0.0,0.0,0.0,122,0.03682956909848998,0,1735643777088310956,map,1.0059701861798958,0.2004739945903729,0.1461337615030249,-0.4988585610820671,0.5069525583206886,-0.4732355795048975,0.519795465484167,0.0,0.0,0.0,124,0.27041468256073,0,1735643777088322877,map,0.992302671527481,-0.0331173582418649,0.2424925721495936,0.4152409021257816,-0.5254113710467626,0.5800916194664704,-0.4636934304055813,0.0,0.0,0.0,125,0.00017932666099039764,0,1735643777088343858,map,0.9845421900712206,-0.0272744407010056,0.1453981654419835,-0.4835876423437188,0.4831573923063282,-0.5207250240861827,0.5114170272122708,0.0,0.0,0.0,126,0.004190491932278996,0,1735644242188269615,map,0.966660881996064,0.3265954775536489,0.0281322336203701,-0.493870850034307,0.4998235241864577,-0.4845724397503923,0.5210159103046403,0.0,0.0,0.0,0,0.6002705425833009,0.9336750528987228,0.3894360658623871,0.1168069169105089,1.0,5.601709490851397e-05,-0.000805902342946,-0.0006693115893432,0.0,0.0,0.0,-0.000805902342946,0.0236420032041248,0.0070783684623021,0.0,0.0,0.0,-0.0006693115893432,0.0070783684623021,0.0085372468581828,0.0,0.0,0.0,0.0,0.0,0.0,0.0,0.0,0.0,0.0,0.0,0.0,0.0,0.0,0.0,0.0,0.0,0.0,0.0,0.0,0.0,0,0,0,1,15,,124
1.499466402,0,1735643777088230371,map,0.9783799162066495,-0.2258232318452332,0.0179797546639896,-0.4887121457808455,0.5048806962143937,-0.4982881183137058,0.5079024239986825,0.0,0.0,0.0,1,0.0001375797622218776,0,1735643777088253974,map,0.9696856358429108,-0.2500521065274307,0.1471196059918174,-0.5091221319064426,0.4793418580866377,-0.4883719436455785,0.522033411333919,0.0,0.0,0.0,16,1.874257503998955e-06,0,1735643777088270664,map,0.979136909522413,0.0523669994585275,0.0237712026366596,-0.4914928015479818,0.4978867216342881,-0.4982008659659093,0.5121909171369555,0.0,0.0,0.0,17,0.09002149688162707,0,1735643777088284730,map,0.9999637621000942,-0.2648803263061766,0.2355187250629894,0.2163919628934692,-0.6692371012126289,0.6739501941159377,-0.2260251238396279,0.0,0.0,0.0,121,2.0715166538368878e-08,0,1735643777088297367,map,1.0146638455632044,0.199358047125349,0.2432551286577998,-0.5436910676245607,0.4868837045479401,-0.4644077708734668,0.501666924944507,0.0,0.0,0.0,122,0.031072158164667563,0,1735643777088310956,map,0.99970331840004,0.1976814945263719,0.1459338935108083,-0.4836985874885479,0.5036584190173039,-0.4914413269786096,0.5204318356442821,0.0,0.0,0.0,124,0.250732619604317,0,1735643777088322877,map,0.9896060421713796,-0.0336622194654384,0.2417834508904754,-0.4467502688837569,0.5664827548457997,-0.5381284177122806,0.435808778898592,0.0,0.0,0.0,125,0.000103689533673906,0,1735643777088343858,map,0.9886136624440572,-0.0285256881473611,0.1441893603440864,-0.5082439802839953,0.5102283831988135,-0.4922610369137394,0.4889111627075179,0.0,0.0,0.0,126,0.0031400207927908294,0,1735644242188269615,map,0.97559250372753,0.3319018828221409,0.0238385380954685,-0.519997310105654,0.4950181431055471,-0.4649863614008322,0.5180227014238233,0.0,0.0,0.0,0,0.6247905402880313,0.934147262850815,0.3830828542974833,0.111071556997514,1.0,5.586076005955766e-05,-0.0008005341924423,-0.0006681040254555,0.0,0.0,0.0,-0.0008005341924423,0.0227698274616934,0.0071825397573301,0.0,0.0,0.0,-0.0006681040254555,0.0071825397573301,0.0084970842295202,0.0,0.0,0.0,0.0,0.0,0.0,0.0,0.0,0.0,0.0,0.0,0.0,0.0,0.0,0.0,0.0,0.0,0.0,0.0,0.0,0.0,0,0,0,1,16,,124
1.601025875,0,1735643777088230371,map,0.973846567104904,-0.2229792945701841,0.0206583082496149,-0.4993672007956615,0.5028017499336228,-0.4817338637446041,0.5155145813213116,0.0,0.0,0.0,1,9.414722295759152e-05,0,1735643777088253974,map,0.9752520160297448,-0.2519726022722076,0.1472886773753859,-0.5136447060741596,0.4938871117113606,-0.4803988032225945,0.5113331855744349,0.0,0.0,0.0,16,8.254155251802063e-07,0,1735643777088270664,map,0.9748478627282507,0.0528585569742797,0.0262378386128239,-0.4852475440683217,0.5109783597591533,-0.5091973896594637,0.494119373428624,0.0,0.0,0.0,17,0.08348587651531365,0,1735643777088284730,map,0.9952718738998078,-0.2628461902767743,0.236474951936757,-0.5059525130442112,0.4953084210200236,-0.4721962295693963,0.5250831775931734,0.0,0.0,0.0,121,7.4372837540946815e-09,0,1735643777088297367,map,1.0057111411425492,0.1975080170051531,0.2440589428687772,0.5265883657535978,-0.5150047047793298,0.4864291494330908,-0.469959072356211,0.0,0.0,0.0,122,0.023096968583284867,0,1735643777088310956,map,1.0013227577504495,0.1990930758323812,0.1467852702491317,-0.4883716536421495,0.508412986373836,-0.4807488015140739,0.5214306790437746,0.0,0.0,0.0,124,0.23563184646661053,0,1735643777088322877,map,0.9893907957517388,-0.0334434575980466,0.2426794759401026,-0.5393785169268944,0.4819393713724317,-0.4556712788503283,0.5188149414095504,0.0,0.0,0.0,125,5.766214563315384e-05,0,1735643777088343858,map,0.9895997774484996,-0.02763682741678,0.1451621223686375,0.562132540990393,-0.5538782640601443,0.4313987299556302,-0.437173890750665,0.0,0.0,0.0,126,0.0022925015183481315,0,1735644242188269615,map,0.9700669327418416,0.3294342717356916,0.0269208955699884,-0.500094341237176,0.4975208388630568,-0.484303072673343,0.5175221720455209,0.0,0.0,0.0,0,0.6553401646950431,0.9343510842934984,0.3796189833446235,0.1087487714634882,1.0,5.323952388519217e-05,-0.0007647401246261,-0.0006363787246414,0.0,0.0,0.0,-0.0007647401246261,0.0216224002779487,0.0068887706881202,0.0,0.0,0.0,-0.0006363787246414,0.0068887706881202,0.0080835810676241,0.0,0.0,0.0,0.0,0.0,0.0,0.0,0.0,0.0,0.0,0.0,0.0,0.0,0.0,0.0,0.0,0.0,0.0,0.0,0.0,0.0,0,0,0,1,17,,124
1.700566121,0,1735643777088230371,map,0.9783090384690069,-0.225457904682143,0.0195372348078962,-0.4986256440155407,0.5099569911456907,-0.4836785440586684,0.5073178494090348,0.0,0.0,0.0,1,6.076487196875677e-05,0,1735643777088253974,map,0.9747989573152738,-0.2522123451217471,0.1485812270162173,-0.5156154015405513,0.502094600601289,-0.4696726588683722,0.5113211938231413,0.0,0.0,0.0,16,5.44662056971441e-07,0,1735643777088270664,map,0.9767356841154888,0.0531558270622753,0.0263696143534198,-0.4900162043608802,0.4893076384261591,-0.4930202022422036,0.5266813406820373,0.0,0.0,0.0,17,0.07672491133311289,0,1735643777088284730,map,0.9945772094632503,-0.2635339340840604,0.2374857674318315,-0.5010606646647742,0.4892596486880392,-0.4828159282624749,0.5257870157272775,0.0,0.0,0.0,121,4.8051278526189565e-09,0,1735643777088297367,map,1.0132105379888328,0.1999980846344627,0.2456197239294848,-0.5310654290096861,0.4858851881799504,-0.4769568228639061,0.5043781152485319,0.0,0.0,0.0,122,0.025709843705184875,0,1735643777088310956,map,1.0008824377243708,0.198954292792565,0.1478042788483081,-0.4925441816667091,0.5118430547085135,-0.4799488342677733,0.5148456399134943,0.0,0.0,0.0,124,0.2439069737186798,0,1735643777088322877,map,0.989873037564262,-0.0340153050891841,0.2439457475551341,-0.5284584160135787,0.4561805155929848,-0.4688282292855407,0.5411387355962637,0.0,0.0,0.0,125,5.0834675994237395e-05,0,1735643777088343858,map,0.9884101380040328,-0.0283947789899819,0.1459332240496875,0.5187448701986705,-0.5058163687355595,0.4802039935032473,-0.4944266228524415,0.0,0.0,0.0,126,0.002020007316324906,0,1735644242188269615,map,0.969775689302407,0.3296933697422864,0.0279011544297921,-0.5052771675666456,0.4947065799614075,-0.4826173639623953,0.516759967180803,0.0,0.0,0.0,0,0.6515261149115498,0.9341032202838888,0.3792120081810066,0.1125515136064185,1.0,5.132619420165211e-05,-0.0007205396957172,-0.0006170479206062,0.0,0.0,0.0,-0.0007205396957172,0.0204239715073873,0.006479751638148,0.0,0.0,0.0,-0.0006170479206062,0.006479751638148,0.0078803276432293,0.0,0.0,0.0,0.0,0.0,0.0,0.0,0.0,0.0,0.0,0.0,0.0,0.0,0.0,0.0,0.0,0.0,0.0,0.0,0.0,0.0,0,0,0,1,18,,124
1.801313604,0,1735643777088230371,map,0.9725063727312202,-0.2253657255170466,0.0210171492009426,-0.4928258804654279,0.5059255552250869,-0.495714112848949,0.5054003387771345,0.0,0.0,0.0,1,4.61021061930416e-05,0,1735643777088253974,map,0.97021233989692,-0.2524831494286943,0.148966307570968,-0.5015032101851068,0.4869395187792652,-0.4922254842788768,0.5187470557521028,0.0,0.0,0.0,16,6.127417032507998e-07,0,1735643777088270664,map,0.9737839899917105,0.0513327026266815,0.0264989750023588,-0.4927475847216297,0.4981213920041165,-0.5028232868576871,0.5062051350712611,0.0,0.0,0.0,17,0.06767048947646238,0,1735643777088284730,map,0.9930393275780898,-0.2658841477128358,0.2375195324239721,-0.5000014349691493,0.5042514340485399,-0.4793637139166423,0.5156932092521925,0.0,0.0,0.0,121,7.314737807973603e-09,0,1735643777088297367,map,1.0073405735276657,0.1970959136910764,0.2454610405449754,-0.5118212363570743,0.4969732655832282,-0.490697995306441,0.5002719987283893,0.0,0.0,0.0,122,0.03507481256379671,0,1735643777088310956,map,0.9968924335179288,0.1966999646869452,0.1478664346183374,-0.481913443691889,0.5016722113207163,-0.4877832772436433,0.527401080411349,0.0,0.0,0.0,124,0.2658666631565617,0,1735643777088322877,map,0.9820980485638836,-0.0354469540417289,0.2436192849208872,-0.5406150229076794,0.4783620129613686,-0.4526600493994559,0.5234539724175936,0.0,0.0,0.0,125,7.965244284618281e-05,0,1735643777088343858,map,0.9881316213071024,-0.0301596932957417,0.1457431634477389,-0.4790887771458301,0.621539975457168,-0.496586720997338,0.3708957145219232,0.0,0.0,0.0,126,0.002252609116423245,0,1735644242188269615,map,0.9682156091012608,0.3285764558831626,0.027597890633645,-0.5149625552334477,0.49956879551325,-0.4748948978718535,0.509626746974843,0.0,0.0,0.0,0,0.6290090510812757,0.933723929131891,0.3782916488126277,0.1184336255984854,1.0,5.1214327563171663e-05,-0.0006763330388658,-0.0006247303088642,0.0,0.0,0.0,-0.0006763330388658,0.0193642727431827,0.0060412662544459,0.0,0.0,0.0,-0.0006247303088642,0.0060412662544459,0.0080883599035135,0.0,0.0,0.0,0.0,0.0,0.0,0.0,0.0,0.0,0.0,0.0,0.0,0.0,0.0,0.0,0.0,0.0,0.0,0.0,0.0,0.0,0,0,0,1,19,,124
1.900647892,0,1735643777088230371,map,0.9694856988497093,-0.2241117521948145,0.0218850444954007,-0.4959792344900667,0.5002715730359865,-0.4986173464335492,0.5050878082099327,0.0,0.0,0.0,1,3.6623268884088685e-05,0,1735643777088253974,map,0.9673594960888596,-0.2510892885310337,0.1487957828460759,-0.5042612074781672,0.4785718560650945,-0.4970554597649392,0.519254738190165,0.0,0.0,0.0,16,4.94941028283013e-07,0,1735643777088270664,map,0.9713514432272448,0.0511721023690848,0.027142454434906,-0.491740710213982,0.4974174494031362,-0.496326320794128,0.5142247934848064,0.0,0.0,0.0,17,0.06324692529872109,0,1735643777088284730,map,0.9920661265393874,-0.2661065293297737,0.2371569045673718,-0.4985688249491015,0.5012889223084285,-0.4811436882713973,0.5183042488696418,0.0,0.0,0.0,121,5.239058452026649e-09,0,1735643777088297367,map,1.0127225302614975,0.1981931489852662,0.2451972992265687,-0.5099339854840637,0.4851667162464071,-0.4926083319760931,0.5117788772143191,0.0,0.0,0.0,122,0.03655395044037534,0,1735643777088310956,map,0.9983168100455604,0.1968065472233714,0.1474018645868956,-0.4996296079364227,0.5055351986238481,-0.472190970337605,0.5213828778903988,0.0,0.0,0.0,124,0.27401991110086155,0,1735643777088322877,map,0.9858974688336228,-0.0362536189269015,0.2435342420659433,-0.5067659883569176,0.4937024016107101,-0.4927111351409937,0.5066378479708438,0.0,0.0,0.0,125,7.016042146145519e-05,0,1735643777088343858,map,0.9842952222221396,-0.030419483739241,0.1460178063450473,0.5108731275885464,-0.5048479685820765,0.4891175434136608,-0.4948749385970492,0.0,0.0,0.0,126,0.0020548249344536145,0,1735644242188269615,map,0.962639095864482,0.3250387053656981,0.029233182819951,-0.501888434088741,0.4991125124907735,-0.4852222592648272,0.513375163712695,0.0,0.0,0.0,0,0.6240171043551561,0.9336666805245432,0.3756000711456712,0.119861915485948,1.0,4.871588184283502e-05,-0.0006395886945355,-0.000595047377953,0.0,0.0,0.0,-0.0006395886945355,0.0185337063224315,0.005666160231626,0.0,0.0,0.0,-0.000595047377953,0.005666160231626,0.0077227021363877,0.0,0.0,0.0,0.0,0.0,0.0,0.0,0.0,0.0,0.0,0.0,0.0,0.0,0.0,0.0,0.0,0.0,0.0,0.0,0.0,0.0,0,0,0,1,20,,124
1.998920165,0,1735643777088230371,map,0.9663824170153688,-0.2221259315854589,0.0228281520098926,-0.4955903054728374,0.5006978205807825,-0.4909435069545377,0.5125099165539871,0.0,0.0,0.0,1,3.980696783065744e-05,0,1735643777088253974,map,0.968305317931934,-0.2513401092520571,0.1486366280658357,-0.5053005891252853,0.4924205768417615,-0.4864665604819487,0.5153092039400516,0.0,0.0,0.0,16,4.50410157166615e-07,0,1735643777088270664,map,0.9734041978351602,0.0511830360770998,0.0262237542112823,-0.4955583808034706,0.4952328430605949,-0.4999187159915687,0.5091636276983115,0.0,0.0,0.0,17,0.0665613500846075,0,1735643777088284730,map,0.993029341259983,-0.2670193143663172,0.2367008173865469,-0.4962770802703506,0.495998264605877,-0.4869198939017056,0.5201959227339708,0.0,0.0,0.0,121,3.997774081679723e-09,0,1735643777088297367,map,1.0068876265579751,0.1959562802712594,0.2445849268204223,-0.5061280999028143,0.4848610368876765,-0.4934843680591742,0.514992524099343,0.0,0.0,0.0,122,0.03348858525216775,0,1735643777088310956,map,0.997231723691127,0.1962740128081944,0.1471805622508337,-0.4928819730483094,0.5051017869751163,-0.4768362375901984,0.5239911716425905,0.0,0.0,0.0,124,0.2804039979764253,0,1735643777088322877,map,0.980138535105376,-0.0356504504290185,0.2427942225740677,-0.5339234421346208,0.492078840985841,-0.4591009721081882,0.5118695826111054,0.0,0.0,0.0,125,6.439506444521243e-05,0,1735643777088343858,map,0.9852129232070724,-0.0308902564948989,0.1452775219167331,0.4835538377069807,-0.5082176180480662,0.5213057072520175,-0.485933018358369,0.0,0.0,0.0,126,0.0020746459428891586,0,1735644242188269615,map,0.9618726899145722,0.3244410299588596,0.0297391329131888,-0.5035392750540881,0.4972537835425815,-0.4839489364039222,0.5147623725410634,0.0,0.0,0.0,0,0.6173667643037032,0.933819215449908,0.3701858853597803,0.1187210761392048,1.0,4.686141601467741e-05,-0.000625649138529,-0.0005701921454188,0.0,0.0,0.0,-0.000625649138529,0.0182374170329891,0.0055198774012415,0.0,0.0,0.0,-0.0005701921454188,0.0055198774012415,0.0073809847039089,0.0,0.0,0.0,0.0,0.0,0.0,0.0,0.0,0.0,0.0,0.0,0.0,0.0,0.0,0.0,0.0,0.0,0.0,0.0,0.0,0.0,0,0,0,1,21,,124
2.100018569,0,1735643777088230371,map,0.9688220026450898,-0.226434929668503,0.0203219449176502,-0.4909007179162663,0.514629694794244,-0.4921191902698859,0.5019875147385541,0.0,0.0,0.0,1,4.067764660239178e-05,0,1735643777088253974,map,0.9665638039183732,-0.253425419758495,0.1476247397064243,-0.5100389981274561,0.5016757477929037,-0.48628749034615,0.5017032401713338,0.0,0.0,0.0,16,4.191765761535099e-07,0,1735643777088270664,map,0.9697451966950856,0.0502227450513316,0.0266054284928879,-0.487280861013053,0.4981186249697897,-0.5019143017401442,0.5123643543976173,0.0,0.0,0.0,17,0.07295462834274515,0,1735643777088284730,map,0.9911410903748256,-0.2675035399806025,0.2360681597102151,-0.4900027691084292,0.49729959947122,-0.4968118888383824,0.5155272463611154,0.0,0.0,0.0,121,3.2775631833184523e-09,0,1735643777088297367,map,1.0009487620767437,0.1932505602099463,0.2436133888398999,-0.5087514969646717,0.4897889881825457,-0.4912424974971296,0.5098622069187972,0.0,0.0,0.0,122,0.030771280619985127,0,1735643777088310956,map,0.9950122376636772,0.1947047925883196,0.146701046363163,-0.4945084552328994,0.5063358773415327,-0.4788142529218399,0.5194442012563547,0.0,0.0,0.0,124,0.28882615611126616,0,1735643777088322877,map,0.9780879489122972,-0.0368563289953296,0.2419719163642751,-0.5334619365691711,0.4941453488799112,-0.4601786615916541,0.5093862344311381,0.0,0.0,0.0,125,5.6991660215827975e-05,0,1735643777088343858,map,0.9780756913352237,-0.0311216063983032,0.1457187078301164,0.4910041134377731,-0.497702084165654,0.5166305392039026,-0.494267621806482,0.0,0.0,0.0,126,0.0021095293108156204,0,1735644242188269615,map,0.9621447188954592,0.324281275076889,0.0279705914645537,-0.5024720099681574,0.4968390547603529,-0.4782966708328637,0.521445229658493,0.0,0.0,0.0,0,0.6052403138542305,0.934020399654964,0.3642218136959215,0.1169671955264882,1.0,4.558132842201927e-05,-0.0006224079586716,-0.0005516842352406,0.0,0.0,0.0,-0.0006224079586716,0.0181554166985341,0.0054886395459492,0.0,0.0,0.0,-0.0005516842352406,0.0054886395459492,0.0071100834404627,0.0,0.0,0.0,0.0,0.0,0.0,0.0,0.0,0.0,0.0,0.0,0.0,0.0,0.0,0.0,0.0,0.0,0.0,0.0,0.0,0.0,0,0,0,1,22,,124
2.199568043,0,1735643777088230371,map,0.9689915883209032,-0.2265239168168115,0.0199692821443195,-0.491211767301132,0.5022193572425481,-0.4984722767983318,0.5079489207974236,0.0,0.0,0.0,1,4.049642344528903e-05,0,1735643777088253974,map,0.9665175057775326,-0.2531321109053578,0.1476362923517848,-0.5052807252047266,0.4942034064124721,-0.4897779933598455,0.5104624364704003,0.0,0.0,0.0,16,3.487130856903685e-07,0,1735643777088270664,map,0.970262168793754,0.0496242724403441,0.0255603951382064,-0.4908561738902026,0.5046093229628276,-0.4884450748618887,0.515607463654311,0.0,0.0,0.0,17,0.07625224953993937,0,1735643777088284730,map,0.9886031016279258,-0.2680981900378187,0.2359457774493628,-0.4916730778642438,0.4880257207454871,-0.5020014406980756,0.5177673550267585,0.0,0.0,0.0,121,2.1045120635280054e-09,0,1735643777088297367,map,1.0019341181920067,0.1934064850043804,0.2438688152376204,-0.5394136385959442,0.4812156272719132,-0.463986957519405,0.5120356919374555,0.0,0.0,0.0,122,0.027950565608004956,0,1735643777088310956,map,0.9936119082207152,0.1941067307533574,0.1464763294741822,-0.4999011047870992,0.5115162317991588,-0.4737854609135197,0.5137872780301106,0.0,0.0,0.0,124,0.2910067843173997,0,1735643777088322877,map,0.9808373727666738,-0.0382480686276868,0.2423070937548541,-0.5139433367391181,0.4917305457849115,-0.4778321176671393,0.5154995482920152,0.0,0.0,0.0,125,4.327175044610427e-05,0,1735643777088343858,map,0.9819683191802347,-0.0327460273574963,0.1444774905831488,0.4800801624900794,-0.5008271663674312,0.5250717094967786,-0.4929451155027287,0.0,0.0,0.0,126,0.0019913316195533564,0,1735644242188269615,map,0.9611533280230932,0.3241712254655873,0.0279368551570212,-0.5059995341789898,0.4952209211687668,-0.4766317308694922,0.5210977871530021,0.0,0.0,0.0,0,0.6027149499236135,0.9341985928386146,0.3593098476538752,0.1153352920593648,1.0,4.429809336949463e-05,-0.0006146028781515,-0.0005340954337759,0.0,0.0,0.0,-0.0006146028781515,0.0178968537838803,0.0054263518410684,0.0,0.0,0.0,-0.0005340954337759,0.0054263518410684,0.0068595377742061,0.0,0.0,0.0,0.0,0.0,0.0,0.0,0.0,0.0,0.0,0.0,0.0,0.0,0.0,0.0,0.0,0.0,0.0,0.0,0.0,0.0,0,0,0,1,23,,124
2.300618626,0,1735643777088230371,map,0.9628587392708994,-0.2221123196167465,0.0230334669182107,-0.4942218731471267,0.5007915872069001,-0.4910615538746892,0.5136254244017862,0.0,0.0,0.0,1,3.4567449469736254e-05,0,1735643777088253974,map,0.9662467687900688,-0.2524107776783429,0.147931420420426,-0.5068684103710162,0.4929451674217209,-0.4875194466777526,0.5122638632526684,0.0,0.0,0.0,16,2.164591584780017e-07,0,1735643777088270664,map,0.969239538157447,0.0502943218978199,0.0264599954133248,-0.4918450134628019,0.500081723024484,-0.5018497687781579,0.5061161552508958,0.0,0.0,0.0,17,0.07569258871704135,0,1735643777088284730,map,0.9875910086805472,-0.2671402351431996,0.2363755371398475,-0.4924798122226934,0.4932198818809897,-0.4929916120500039,0.5207274268931317,0.0,0.0,0.0,121,1.035298975354265e-09,0,1735643777088297367,map,0.9987513196281196,0.1930325211398188,0.2443829162544695,-0.5082801477005147,0.4948528505732341,-0.4923344373824118,0.5043597421488274,0.0,0.0,0.0,122,0.02417425345014992,0,1735643777088310956,map,0.9919561131449768,0.1941872863309208,0.1472682998444018,-0.4918812345024688,0.5071620846308329,-0.4812298859599684,0.5189000558066946,0.0,0.0,0.0,124,0.2867436821564404,0,1735643777088322877,map,0.9774049835830204,-0.0374235453934812,0.2425894953251057,-0.5335779428143197,0.4982818148962818,-0.4583200481904829,0.5069048681087795,0.0,0.0,0.0,125,3.0569539452259906e-05,0,1735643777088343858,map,0.973257369122324,-0.0306944870078801,0.1465276363130992,-0.4614712594070609,0.6647192575091971,-0.4868427160585621,0.328902349122661,0.0,0.0,0.0,126,0.001654683913834344,0,1735644242188269615,map,0.963168074506802,0.3258444098177867,0.0279233852010625,-0.511878205919205,0.4995273717317188,-0.4765675908486492,0.5112107574655013,0.0,0.0,0.0,0,0.6116694372791545,0.9343027762901456,0.3570013854378406,0.1142618875783686,1.0,4.27019858852762e-05,-0.0005945260068073,-0.0005144135699941,0.0,0.0,0.0,-0.0005945260068073,0.0172737184923511,0.0052572458624893,0.0,0.0,0.0,-0.0005144135699941,0.0052572458624893,0.0066002242354168,0.0,0.0,0.0,0.0,0.0,0.0,0.0,0.0,0.0,0.0,0.0,0.0,0.0,0.0,0.0,0.0,0.0,0.0,0.0,0.0,0.0,0,0,0,1,24,,124
2.398901661,0,1735643777088230371,map,0.965762084601106,-0.2238047165450619,0.021329697211863,-0.492574381002099,0.5100829553401847,-0.487616843746341,0.5093286478754937,0.0,0.0,0.0,1,2.176540146948393e-05,0,1735643777088253974,map,0.9619888993914938,-0.2493699507479642,0.1485327182067878,-0.5046315947021196,0.490873703374462,-0.4898114190401347,0.5142710712666286,0.0,0.0,0.0,16,1.2833898466536052e-07,0,1735643777088270664,map,0.9670649701048928,0.0509279443231483,0.0269580876803283,-0.4917908275189169,0.5011632960784432,-0.4973960543101282,0.5094843449888973,0.0,0.0,0.0,17,0.0694694354487168,0,1735643777088284730,map,0.9858043738046888,-0.2663962584254037,0.2364332571999131,-0.4948859299126691,0.5008032163681637,-0.4862180415964731,0.5175674553870879,0.0,0.0,0.0,121,4.5134579711711913e-10,0,1735643777088297367,map,0.9949041284683834,0.1928333437624286,0.2438224504643134,0.4855708775907795,-0.501160515300223,0.5135207317940912,-0.4993551028650816,0.0,0.0,0.0,122,0.021041399795673585,0,1735643777088310956,map,0.9915046040826316,0.1946910533673034,0.1470946764020814,-0.4963656584914362,0.50860953392774,-0.4768232199625665,0.5172785438936163,0.0,0.0,0.0,124,0.2780448605698665,0,1735643777088322877,map,0.9744594453415384,-0.0365372771366002,0.2422435846874793,-0.5259413023380816,0.4848470822909571,-0.4651112758248844,0.5215175494548738,0.0,0.0,0.0,125,2.076486424415586e-05,0,1735643777088343858,map,0.9784764289876364,-0.0319190296397475,0.1451823587981736,0.506602159046565,-0.4984314238763468,0.4949929639095368,-0.4999023242814623,0.0,0.0,0.0,126,0.0012843607927743945,0,1735644242188269615,map,0.9587152159426487,0.3242953840634164,0.0291475395391784,-0.5038090213322209,0.4965530194939752,-0.4791949205892201,0.5195996506322698,0.0,0.0,0.0,0,0.6301172843369245,0.9342962095332978,0.3575801599245162,0.1142378097745191,1.0,4.09949413849571e-05,-0.0005708361826467,-0.0004938332324804,0.0,0.0,0.0,-0.0005708361826467,0.0165908092704113,0.0050466215731442,0.0,0.0,0.0,-0.0004938332324804,0.0050466215731442,0.0063362291797754,0.0,0.0,0.0,0.0,0.0,0.0,0.0,0.0,0.0,0.0,0.0,0.0,0.0,0.0,0.0,0.0,0.0,0.0,0.0,0.0,0.0,0,0,0,1,25,,124
