%time,field.boxes0.header.seq,field.boxes0.header.stamp,field.boxes0.header.frame_id,field.boxes0.pose.position.x,field.boxes0.pose.position.y,field.boxes0.pose.position.z,field.boxes0.pose.orientation.x,field.boxes0.pose.orientation.y,field.boxes0.pose.orientation.z,field.boxes0.pose.orientation.w,field.boxes0.scale.x,field.boxes0.scale.y,field.boxes0.scale.z,field.boxes0.id,field.boxes0.pdf,field.boxes1.header.seq,field.boxes1.header.stamp,field.boxes1.header.frame_id,field.boxes1.pose.position.x,field.boxes1.pose.position.y,field.boxes1.pose.position.z,field.boxes1.pose.orientation.x,field.boxes1.pose.orientation.y,field.boxes1.pose.orientation.z,field.boxes1.pose.orientation.w,field.boxes1.scale.x,field.boxes1.scale.y,field.boxes1.scale.z,field.boxes1.id,field.boxes1.pdf,field.boxes2.header.seq,field.boxes2.header.stamp,field.boxes2.header.frame_id,field.boxes2.pose.position.x,field.boxes2.pose.position.y,field.boxes2.pose.position.z,field.boxes2.pose.orientation.x,field.boxes2.pose.orientation.y,field.boxes2.pose.orientation.z,field.boxes2.pose.orientation.w,field.boxes2.scale.x,field.boxes2.scale.y,field.boxes2.scale.z,field.boxes2.id,field.boxes2.pdf,field.boxes3.header.seq,field.boxes3.header.stamp,field.boxes3.header.frame_id,field.boxes3.pose.position.x,field.boxes3.pose.position.y,field.boxes3.pose.position.z,field.boxes3.pose.orientation.x,field.boxes3.pose.orientation.y,field.boxes3.pose.orientation.z,field.boxes3.pose.orientation.w,field.boxes3.scale.x,field.boxes3.scale.y,field.boxes3.scale.z,field.boxes3.id,field.boxes3.pdf,field.boxes4.header.seq,field.boxes4.header.stamp,field.boxes4.header.frame_id,field.boxes4.pose.position.x,field.boxes4.pose.position.y,field.boxes4.pose.position.z,field.boxes4.pose.orientation.x,field.boxes4.pose.orientation.y,field.boxes4.pose.orientation.z,field.boxes4.pose.orientation.w,field.boxes4.scale.x,field.boxes4.scale.y,field.boxes4.scale.z,field.boxes4.id,field.boxes4.pdf,field.boxes5.header.seq,field.boxes5.header.stamp,field.boxes5.header.frame_id,field.boxes5.pose.position.x,field.boxes5.pose.position.y,field.boxes5.pose.position.z,field.boxes5.pose.orientation.x,field.boxes5.pose.orientation.y,field.boxes5.pose.orientation.z,field.boxes5.pose.orientation.w,field.boxes5.scale.x,field.boxes5.scale.y,field.boxes5.scale.z,field.boxes5.id,field.boxes5.pdf,field.boxes6.header.seq,field.boxes6.header.stamp,field.boxes6.header.frame_id,field.boxes6.pose.position.x,field.boxes6.pose.position.y,field.boxes6.pose.position.z,field.boxes6.pose.orientation.x,field.boxes6.pose.orientation.y,field.boxes6.pose.orientation.z,field.boxes6.pose.orientation.w,field.boxes6.scale.x,field.boxes6.scale.y,field.boxes6.scale.z,field.boxes6.id,field.boxes6.pdf,field.boxes7.header.seq,field.boxes7.header.stamp,field.boxes7.header.frame_id,field.boxes7.pose.position.x,field.boxes7.pose.position.y,field.boxes7.pose.position.z,field.boxes7.pose.orientation.x,field.boxes7.pose.orientation.y,field.boxes7.pose.orientation.z,field.boxes7.pose.orientation.w,field.boxes7.scale.x,field.boxes7.scale.y,field.boxes7.scale.z,field.boxes7.id,field.boxes7.pdf,field.boxes8.header.seq,field.boxes8.header.stamp,field.boxes8.header.frame_id,field.boxes8.pose.position.x,field.boxes8.pose.position.y,field.boxes8.pose.position.z,field.boxes8.pose.orientation.x,field.boxes8.pose.orientation.y,field.boxes8.pose.orientation.z,field.boxes8.pose.orientation.w,field.boxes8.scale.x,field.boxes8.scale.y,field.boxes8.scale.z,field.boxes8.id,field.boxes8.pdf,field.pose.pose.position.x,field.pose.pose.position.y,field.pose.pose.position.z,field.pose.pose.orientation.w,field.pose.covariance0,field.pose.covariance1,field.pose.covariance2,field.pose.covariance3,field.pose.covariance4,field.pose.covariance5,field.pose.covariance6,field.pose.covariance7,field.pose.covariance8,field.pose.covariance9,field.pose.covariance10,field.pose.covariance11,field.pose.covariance12,field.pose.covariance13,field.pose.covariance14,field.pose.covariance15,field.pose.covariance16,field.pose.covariance17,field.pose.covariance18,field.pose.covariance19,field.pose.covariance20,field.pose.covariance21,field.pose.covariance22,field.pose.covariance23,field.pose.covariance24,field.pose.covariance25,field.pose.covariance26,field.pose.covariance27,field.pose.covariance28,field.pose.covariance29,field.pose.covariance30,field.pose.covariance31,field.pose.covariance32,field.pose.covariance33,field.pose.covariance34,field.pose.covariance35,field.buttons0,field.buttons1,field.buttons2,field.buttons3,intersection_length,vacuum,desired_box
0.0,0,1735643777088230371,map,0.96975590541512,-0.2180538563854119,0.0253523611544146,-0.4966091873394624,0.4790308293482365,-0.4841431137640642,0.538065260892037,0.0,0.0,0.0,1,0.1111111111111111,0,1735643777088253974,map,0.9891475567917376,-0.2511609573433419,0.1476639730337614,-0.5044400442667777,0.5085740706337649,-0.4933635767089148,0.4934420306339135,0.0,0.0,0.0,16,0.1111111111111111,0,1735643777088270664,map,0.991611253951108,0.0569015562564709,0.0237147909017068,-0.497228420007604,0.483873824082757,-0.4922399132408557,0.5256708937319109,0.0,0.0,0.0,17,0.1111111111111111,0,1735643777088284730,map,1.017336736774827,-0.2588970387988467,0.2362601021113584,-0.4935652724991148,0.5052883345815199,-0.5018409324002517,0.4992321096307353,0.0,0.0,0.0,121,0.1111111111111111,0,1735643777088297367,map,1.011229661784535,0.2081928475908375,0.2410916029419156,-0.4753841677782635,0.46307213566232,-0.5210667618283445,0.5367154925252569,0.0,0.0,0.0,122,0.1111111111111111,0,1735643777088310956,map,1.0104257438181734,0.2072936293926439,0.1429981475661838,-0.4930172399720934,0.5001983783802912,-0.4695751692430757,0.5350091062648966,0.0,0.0,0.0,124,0.1111111111111111,0,1735643777088322877,map,0.9994355257164084,-0.0267861877465462,0.2414983081499284,-0.5001348484292261,0.4981588642109789,-0.4981898108043984,0.5034975588872113,0.0,0.0,0.0,125,0.1111111111111111,0,1735643777088343858,map,0.9965575344238448,-0.0221568493518931,0.1455769128044962,-0.5154642953946779,0.4935567847291277,-0.4850217750735285,0.5054227321021852,0.0,0.0,0.0,126,0.1111111111111111,0,1735644242188269615,map,0.9714088556699942,0.3292127429384158,0.0263248669912371,-0.4940153676139809,0.4979012169700661,-0.4952872223148056,0.512575615994982,0.0,0.0,0.0,0,0.1111111111111111,0.9220388327874712,0.2097587201760828,0.329327785123386,1.0,0.0,0.0,0.0,0.0,0.0,0.0,0.0,0.0,0.0,0.0,0.0,0.0,0.0,0.0,0.0,0.0,0.0,0.0,0.0,0.0,0.0,0.0,0.0,0.0,0.0,0.0,0.0,0.0,0.0,0.0,0.0,0.0,0.0,0.0,0.0,0.0,0,0,0,1,1,,124
0.097325653,0,1735643777088230371,map,0.973971911144189,-0.2184645284626306,0.0244463699500687,-0.4962595490302196,0.4836289740817699,-0.4870419244660639,0.5316198258505134,0.0,0.0,0.0,1,,0,1735643777088253974,map,0.991352940702154,-0.2510551258018851,0.1474510147104338,-0.5049453779096584,0.5087169746991664,-0.492596886230812,0.4935438305321103,0.0,0.0,0.0,16,,0,1735643777088270664,map,0.9857658007281844,0.055199949076858,0.0266583050408048,0.7425759119203582,-0.4941902099833665,0.2396966935066993,-0.3832786799630261,0.0,0.0,0.0,17,,0,1735643777088284730,map,1.0114552595501305,-0.2564585162234032,0.2368066410895253,0.3307488390238882,-0.5912615764437119,0.6397170506803989,-0.3630110862968496,0.0,0.0,0.0,121,,0,1735643777088297367,map,1.0113280661258623,0.2080220533480799,0.241769294750252,0.5112866944009891,-0.5019418972420842,0.492675835444369,-0.4938732318021696,0.0,0.0,0.0,122,,0,1735643777088310956,map,1.0099934965680442,0.207067469641366,0.1434269235631693,-0.489875233717735,0.5027773476900853,-0.4810254117713081,0.5252159053855476,0.0,0.0,0.0,124,,0,1735643777088322877,map,1.0171737597362585,-0.0249486042686653,0.2419999698399085,-0.4965692674403295,0.5120282919544313,-0.5023926834767217,0.4887203520021039,0.0,0.0,0.0,125,,0,1735643777088343858,map,1.0073945616735478,-0.0210281426166855,0.1447939397802347,0.6368725776033783,-0.5085586617382505,0.3653554246013434,-0.4497519551732936,0.0,0.0,0.0,126,,0,1735644242188269615,map,0.9752977435359113,0.3313801130321397,0.0260250843485498,-0.4849772985263883,0.5002921185403363,-0.489994468345899,0.5238418053486068,0.0,0.0,0.0,0,,0.9220250554791668,0.1927254676750587,0.3331407747046169,1.0,1.8981422410920123e-10,2.3467237113003387e-07,-5.253273302135006e-08,0.0,0.0,0.0,2.3467237113003387e-07,0.0002901316907636,-6.494761432087875e-05,0.0,0.0,0.0,-5.253273302135006e-08,-6.494761432087875e-05,1.4538889546574647e-05,0.0,0.0,0.0,0.0,0.0,0.0,0.0,0.0,0.0,0.0,0.0,0.0,0.0,0.0,0.0,0.0,0.0,0.0,0.0,0.0,0.0,0,0,0,1,2,,124
0.198888697,0,1735643777088230371,map,0.9795541303852424,-0.2185872897321828,0.024099786008253,-0.472307278150727,0.7662804823422523,-0.3680591165093383,0.2329646843226299,0.0,0.0,0.0,1,0.0,0,1735643777088253974,map,0.9798722313852252,-0.2469128108019137,0.1498229894534485,-0.5262713853686173,0.4960553627246945,-0.4673785355028299,0.5084533514546824,0.0,0.0,0.0,16,0.0,0,1735643777088270664,map,0.9914907321654888,0.0569085561092459,0.0254026582359628,-0.4839425972212517,0.4948463657258366,-0.505004618978829,0.5156519870345977,0.0,0.0,0.0,17,0.0,0,1735643777088284730,map,1.00812842668101,-0.2548277870392782,0.2374541221354297,-0.3382234365450661,0.6452366383308957,-0.5977432514203773,0.3346305319430461,0.0,0.0,0.0,121,0.0,0,1735643777088297367,map,1.0077159500567696,0.2070487149689062,0.2421585636744501,-0.5035495853390369,0.5096826687770721,-0.5004817917089935,0.4859828890207157,0.0,0.0,0.0,122,0.0,0,1735643777088310956,map,1.010433081908272,0.2074852331819291,0.1442388549202715,-0.4766062581747939,0.49824525581943,-0.4926204697301573,0.5309644173811388,0.0,0.0,0.0,124,0.0,0,1735643777088322877,map,1.0056490050626867,-0.0256158934630748,0.2424117292584323,-0.4461082152850529,0.4553082801681516,-0.5419884779456856,0.5476589450010144,0.0,0.0,0.0,125,1.0,0,1735643777088343858,map,1.0048707081454142,-0.0207968545081586,0.1456242612788894,0.5915590327199692,-0.565124069542804,0.4069779020352096,-0.4062778409977757,0.0,0.0,0.0,126,0.0,0,1735644242188269615,map,0.9681741766742892,0.3271156183106611,0.0292775128188432,-0.4778859826036633,0.4930882090987457,-0.4940429922616901,0.5333015352273411,0.0,0.0,0.0,0,0.0,0.9213572847638052,0.2128976378978183,0.3388825999116117,1.0,8.919619994054961e-07,-2.6784320832681392e-05,-7.70346727392805e-06,0.0,0.0,0.0,-2.6784320832681392e-05,0.0010072540301677,0.0001883517413824,0.0,0.0,0.0,-7.70346727392805e-06,0.0001883517413824,7.562970644641146e-05,0.0,0.0,0.0,0.0,0.0,0.0,0.0,0.0,0.0,0.0,0.0,0.0,0.0,0.0,0.0,0.0,0.0,0.0,0.0,0.0,0.0,0,0,0,1,3,,124
0.299251016,0,1735643777088230371,map,0.9820182824220698,-0.2198602835932316,0.0218937646208463,-0.4935360348008124,0.4904776027369602,-0.4964332720764255,0.5190451906549078,0.0,0.0,0.0,1,0.0,0,1735643777088253974,map,0.9874775716137189,-0.2497745196909821,0.1481107654956494,-0.505027753380494,0.5114413361858912,-0.4800155390557792,0.5029511012224059,0.0,0.0,0.0,16,0.0,0,1735643777088270664,map,0.9866054334032052,0.0564623955494181,0.0258284434127163,-0.47909713479824,0.4912312472624974,-0.4973371610179922,0.5308611357140506,0.0,0.0,0.0,17,0.0,0,1735643777088284730,map,1.0145228985494428,-0.2575567115832856,0.2366128158027782,0.3286038109433326,-0.6214516916011048,0.6239541228147655,-0.3413188876433596,0.0,0.0,0.0,121,0.9999999999999999,0,1735643777088297367,map,1.0067339717927868,0.2068264180189832,0.2412880482972052,-0.4857126915481153,0.5002659510916606,-0.5127068907758442,0.5009479050743781,0.0,0.0,0.0,122,0.0,0,1735643777088310956,map,1.0059545836450552,0.2061406138238465,0.143853235420851,-0.4822260894883326,0.5074999679005066,-0.4856144479759967,0.5235268752554575,0.0,0.0,0.0,124,0.0,0,1735643777088322877,map,1.0080656430882444,-0.0254264858680771,0.2422887011565287,-0.5024325445612033,0.4951283358862739,-0.4956704344925834,0.5066757242439954,0.0,0.0,0.0,125,9.031418365973969e-17,0,1735643777088343858,map,1.0071745365089213,-0.0206628812060806,0.1442009758975352,-0.5036144785617561,0.4611535767758617,-0.4918347892144475,0.5401929060328171,0.0,0.0,0.0,126,0.0,0,1735644242188269615,map,0.9759929490189893,0.3327794181010756,0.0255656698072979,-0.4961367340590883,0.4929517307056321,-0.4868169438836958,0.5233127128775316,0.0,0.0,0.0,0,0.0,0.9194093280197788,0.2827741263151872,0.3532962898460083,1.0,1.2052577929346912e-05,-0.0004284373712089,-9.000933399748226e-05,0.0,0.0,0.0,-0.0004284373712089,0.0154036114232538,0.003162797919294,0.0,0.0,0.0,-9.000933399748226e-05,0.003162797919294,0.0006799856524095,0.0,0.0,0.0,0.0,0.0,0.0,0.0,0.0,0.0,0.0,0.0,0.0,0.0,0.0,0.0,0.0,0.0,0.0,0.0,0.0,0.0,0,0,0,1,4,,124
0.398281114,0,1735643777088230371,map,0.9840837561831974,-0.2188415307474439,0.0218215265554464,-0.4588915159135121,0.7817866039753315,-0.3610647717684248,0.2187704574551426,0.0,0.0,0.0,1,0.0,0,1735643777088253974,map,0.9820254905350132,-0.2471065453408417,0.1489058266205918,-0.5040310590904421,0.4713515444860407,-0.491685194917803,0.5310612790266613,0.0,0.0,0.0,16,0.0,0,1735643777088270664,map,0.978554298445212,0.0562818437556175,0.0289746793244736,-0.4740552422635599,0.4989570034171732,-0.515178818925732,0.5107879408851392,0.0,0.0,0.0,17,0.0,0,1735643777088284730,map,1.008227918832756,-0.2552111865686355,0.2369151940617639,-0.5344466064565199,0.514740906016647,-0.4387529619193882,0.5068574384649353,0.0,0.0,0.0,121,0.9999999999999997,0,1735643777088297367,map,1.013674967085196,0.2107484675639126,0.2413845260135486,-0.5138308398953346,0.4912298303014541,-0.4863827305726168,0.508038346185783,0.0,0.0,0.0,122,0.0,0,1735643777088310956,map,1.006870159038826,0.2075238222273583,0.1438644560470757,-0.4805048085452401,0.4993992804041445,-0.4908594805167466,0.5279890700417527,0.0,0.0,0.0,124,0.0,0,1735643777088322877,map,1.0111281746618304,-0.0244196087970215,0.2423043737980645,-0.4924265152608854,0.5150155925454337,-0.5063428635345304,0.4856871122963313,0.0,0.0,0.0,125,2.999402682120256e-16,0,1735643777088343858,map,1.009546823319153,-0.0196710112973457,0.1440065926302003,0.5064703876345347,-0.5050176993197913,0.4950389191650171,-0.4933369419929962,0.0,0.0,0.0,126,0.0,0,1735644242188269615,map,0.9692789867847946,0.3299154646957032,0.0282362120987803,-0.488747064432434,0.4901995755166723,-0.491937141626379,0.5280421686384723,0.0,0.0,0.0,0,0.0,0.9173451515734432,0.3653841472229124,0.3667565872633901,1.0,2.6685359949905974e-05,-0.0010248365345232,-0.0001831451827565,0.0,0.0,0.0,-0.0010248365345232,0.0396205513561023,0.0069780601397316,0.0,0.0,0.0,-0.0001831451827565,0.0069780601397316,0.0012687069481851,0.0,0.0,0.0,0.0,0.0,0.0,0.0,0.0,0.0,0.0,0.0,0.0,0.0,0.0,0.0,0.0,0.0,0.0,0.0,0.0,0.0,0,0,0,1,5,,124
0.500533176,0,1735643777088230371,map,0.9825240672492864,-0.2183126142585852,0.0213437475795936,-0.5056052407302696,0.4997927360269208,-0.482805671003128,0.5113406355923905,0.0,0.0,0.0,1,1.6322452524686778e-06,0,1735643777088253974,map,0.982596196930372,-0.246636475582049,0.148028006714599,-0.5065152586926387,0.4793613561297236,-0.487330686545648,0.5255128779696544,0.0,0.0,0.0,16,0.0006445544408079729,0,1735643777088270664,map,0.9899659209270916,0.0587062713302527,0.0242113119112754,-0.4972632025698921,0.4866068430546161,-0.4935544482884862,0.5218688477357147,0.0,0.0,0.0,17,3.254772511747683e-05,0,1735643777088284730,map,1.0120103209079412,-0.2561771744116008,0.2358923877140775,-0.487916445871349,0.465740521164476,-0.5031250443027555,0.5402670622840743,0.0,0.0,0.0,121,0.006015242877197798,0,1735643777088297367,map,1.0129716614044009,0.2106301023001101,0.2407296863012063,-0.5078170712344761,0.4961873753834858,-0.4920319887259871,0.5038099172736055,0.0,0.0,0.0,122,0.7972776299475641,0,1735643777088310956,map,1.0034938941786629,0.20634642659661,0.1433101940386249,-0.4647034145115907,0.4993911608949273,-0.5039031656339951,0.5298497943996242,0.0,0.0,0.0,124,0.03835747527503269,0,1735643777088322877,map,0.9973145645882622,-0.0249376020846365,0.2413774754156263,-0.4724468003452836,0.5582672960307022,-0.5190647751524314,0.4423837770782604,0.0,0.0,0.0,125,0.14872768371523723,0,1735643777088343858,map,1.0046772163825513,-0.0196862403263009,0.1439934082938548,0.630442222243185,-0.5299398213995209,0.3674814638426991,-0.4320460205118727,0.0,0.0,0.0,126,0.008865961666359784,0,1735644242188269615,map,0.979763584647464,0.3368854948806798,0.0238099095369328,-0.5119486320364883,0.5008874103595041,-0.4798152007746742,0.5067521814505362,0.0,0.0,0.0,0,7.727210743045094e-05,0.9186722155474008,0.399273338958219,0.3396827754029307,1.0,3.1043293913136485e-05,-0.0006291648181437,-0.000332264387419,0.0,0.0,0.0,-0.0006291648181437,0.0387595127124471,0.0012275021107194,0.0,0.0,0.0,-0.000332264387419,0.0012275021107194,0.004722212233432,0.0,0.0,0.0,0.0,0.0,0.0,0.0,0.0,0.0,0.0,0.0,0.0,0.0,0.0,0.0,0.0,0.0,0.0,0.0,0.0,0.0,0,0,0,1,6,,124
0.59886174,0,1735643777088230371,map,0.9920934988792264,-0.2209095011378601,0.016630751915982,-0.4891334021913047,0.5094765817321069,-0.4930634000289445,0.508006506926067,0.0,0.0,0.0,1,0.00011425429828195455,0,1735643777088253974,map,0.9895701989429032,-0.2488148459409727,0.1461404036680517,-0.5047625238706744,0.4911187682471304,-0.4899234138419014,0.5138017113056603,0.0,0.0,0.0,16,0.0006651839234441834,0,1735643777088270664,map,0.9903002612305324,0.0586050799284794,0.0230199228717459,-0.5016594830940134,0.509197300706286,-0.494628754072379,0.4943665316544854,0.0,0.0,0.0,17,0.009062204180529136,0,1735643777088284730,map,1.017234000663629,-0.2582321073062547,0.2345951902572753,-0.4988275335239414,0.4934114455796837,-0.4909757583299384,0.5163903967946437,0.0,0.0,0.0,121,0.0012807992627259794,0,1735643777088297367,map,1.0158326038421412,0.2112747832226932,0.2394065321696497,0.5114886868295692,-0.4993564460573332,0.4909433047493068,-0.497993106928381,0.0,0.0,0.0,122,0.5924111631468629,0,1735643777088310956,map,1.0001937771482816,0.2046737205643149,0.1426854632610738,-0.4638003585092701,0.5055812570564137,-0.5082056579076241,0.5205802812541095,0.0,0.0,0.0,124,0.2430037273909736,0,1735643777088322877,map,1.0016068366711497,-0.0249107546765779,0.2400736049057892,-0.4445385224705949,0.5528495978559077,-0.5495696577687117,0.4412663769767674,0.0,0.0,0.0,125,0.06314003074929135,0,1735643777088343858,map,1.0048536119516016,-0.0200993447484169,0.142763214781987,-0.4884626491634674,0.5670957708557062,-0.5110971374594366,0.4225947741401322,0.0,0.0,0.0,126,0.02713956520492538,0,1735644242188269615,map,0.974661237762264,0.3333780689611823,0.0244773516305221,-0.4847257858114147,0.5024016367384654,-0.4869591831998344,0.5248849987086385,0.0,0.0,0.0,0,0.06318307184296545,0.9211889545159434,0.407600500473282,0.3001826733939126,1.0,6.461238785451921e-05,-0.0004135403785436,-0.0008812667222842,0.0,0.0,0.0,-0.0004135403785436,0.0336384891811995,-0.0009213977094124,0.0,0.0,0.0,-0.0008812667222842,-0.0009213977094124,0.0134091588381359,0.0,0.0,0.0,0.0,0.0,0.0,0.0,0.0,0.0,0.0,0.0,0.0,0.0,0.0,0.0,0.0,0.0,0.0,0.0,0.0,0.0,0,0,0,1,7,,124
0.699435017,0,1735643777088230371,map,0.98441082836703,-0.2202358585743485,0.0187909726715566,-0.4989976080279078,0.4983879847463683,-0.4846920398448481,0.5173822864709623,0.0,0.0,0.0,1,0.0002337485339966827,0,1735643777088253974,map,0.9809378301014738,-0.2473589332664226,0.1468533861669289,-0.5183564048937124,0.4908404141455372,-0.4731064070755567,0.5162873743673786,0.0,0.0,0.0,16,0.00045856180014461643,0,1735643777088270664,map,0.996312682178842,0.0581345834063704,0.0205899843989421,-0.5125733136938885,0.5038295663472176,-0.4788851471077009,0.5040767620540324,0.0,0.0,0.0,17,0.022712798688477486,0,1735643777088284730,map,1.0026129850650825,-0.2553265165879173,0.234552098415928,-0.4889065222831835,0.4590116262722534,-0.4991967624795166,0.5487087859200306,0.0,0.0,0.0,121,0.0005476416879640381,0,1735643777088297367,map,1.005007254087123,0.2058502996828228,0.2392646982596782,-0.4968656142786111,0.4901717354522446,-0.502081760099269,0.510656574702504,0.0,0.0,0.0,122,0.4503780205085229,0,1735643777088310956,map,0.999917545619973,0.2033834865274097,0.1423532005515369,-0.4774072019068903,0.5040680508825668,-0.4935301750669442,0.5238565929195467,0.0,0.0,0.0,124,0.2927872055730052,0,1735643777088322877,map,1.001083142651794,-0.0266154665214341,0.2393885249071764,-0.5597703135625647,0.4708761618529102,-0.434204711896721,0.5257367253858396,0.0,0.0,0.0,125,0.037775101733251756,0,1735643777088343858,map,1.0056431441673657,-0.021686634157594,0.1424090974760479,-0.5591980420482768,0.584403376925785,-0.4327893199251313,0.398074926823902,0.0,0.0,0.0,126,0.02680104122558385,0,1735644242188269615,map,0.9739855017154222,0.3321475428589945,0.0243267143910808,-0.49708958255119,0.4961386112917142,-0.4838862918105272,0.5221134760782092,0.0,0.0,0.0,0,0.16830588024905357,0.9233811621800686,0.4038132642519099,0.2681136769389434,1.0,9.01762604712492e-05,-0.000419964689118,-0.0012632216806644,0.0,0.0,0.0,-0.000419964689118,0.0295340801409248,4.3947058965330175e-05,0.0,0.0,0.0,-0.0012632216806644,4.3947058965330175e-05,0.0189319577187707,0.0,0.0,0.0,0.0,0.0,0.0,0.0,0.0,0.0,0.0,0.0,0.0,0.0,0.0,0.0,0.0,0.0,0.0,0.0,0.0,0.0,0,0,0,1,8,,124
0.79944933,0,1735643777088230371,map,0.9892118004300848,-0.2214166523556201,0.0171483004728631,-0.4946592730734241,0.5029086974226515,-0.4929960103057921,0.5092641548761262,0.0,0.0,0.0,1,9.489782347828461e-05,0,1735643777088253974,map,0.9856474512937092,-0.2489407083907401,0.1460674844618992,-0.5125253837707688,0.4913424949872688,-0.4764505125420238,0.518551051207839,0.0,0.0,0.0,16,0.0001721247796620042,0,1735643777088270664,map,0.9959909902602678,0.0583433681548745,0.0204188713592351,-0.5094544859661577,0.5203185136100655,-0.4763073663506548,0.4928042855776245,0.0,0.0,0.0,17,0.019581108557969098,0,1735643777088284730,map,1.0121240996424583,-0.2589466264409856,0.2344016136843925,-0.5044380276472794,0.4785040276172317,-0.4899697835854783,0.5258381718652705,0.0,0.0,0.0,121,0.00019327403324416283,0,1735643777088297367,map,1.012280277438192,0.2083779730997282,0.2391063747829256,-0.5065380038359915,0.4945868792590627,-0.492783711638948,0.5059320933465016,0.0,0.0,0.0,122,0.4310773045041527,0,1735643777088310956,map,1.0058852742546978,0.2056932442239182,0.1414029896167847,-0.4891652030967842,0.5061246530042904,-0.4803487436203838,0.5232784385037159,0.0,0.0,0.0,124,0.29549982773863925,0,1735643777088322877,map,0.9996356383073752,-0.0266416627866395,0.2397520493401364,0.4489936175338559,-0.5301338265730127,0.5467786311457503,-0.4673285630681011,0.0,0.0,0.0,125,0.025221751089513852,0,1735643777088343858,map,1.012908467882506,-0.0215758042595123,0.1411159642852654,0.5152572352455438,-0.5152189372424513,0.4860053360267469,-0.4825538742849403,0.0,0.0,0.0,126,0.01833369382971643,0,1735644242188269615,map,0.9809694553696008,0.3366843016251462,0.0219194561043174,-0.5000408163092204,0.4947144124714986,-0.4758809873955319,0.5279717018489175,0.0,0.0,0.0,0,0.20982601764362413,0.9244880916816562,0.4099887245187769,0.2502084088686077,1.0,8.995901934632354e-05,-0.0003186155526405,-0.0012814226718332,0.0,0.0,0.0,-0.0003186155526405,0.0265576061568833,-0.000845522119874,0.0,0.0,0.0,-0.0012814226718332,-0.000845522119874,0.0193931958584942,0.0,0.0,0.0,0.0,0.0,0.0,0.0,0.0,0.0,0.0,0.0,0.0,0.0,0.0,0.0,0.0,0.0,0.0,0.0,0.0,0.0,0,0,0,1,9,,124
0.899378092,0,1735643777088230371,map,0.9832350304100572,-0.2192948334915733,0.0195492713467708,-0.5000960697110723,0.5001995815229298,-0.4811507316408384,0.51787862781284,0.0,0.0,0.0,1,6.238395414810107e-05,0,1735643777088253974,map,0.9770222266581624,-0.2454119067882517,0.1473498822293799,-0.5117116567368928,0.4663607714859772,-0.4828780331986353,0.5361787166913718,0.0,0.0,0.0,16,9.3814576269174e-05,0,1735643777088270664,map,0.9877740072366716,0.0576123061819356,0.0230749656072791,-0.5001187818163801,0.4938254108234985,-0.4825505205185449,0.522649655932905,0.0,0.0,0.0,17,0.01980105372584451,0,1735643777088284730,map,1.0034970803455208,-0.2558127405784818,0.2344727021843788,-0.505418151126378,0.470936208712122,-0.481342911816736,0.5395188421914775,0.0,0.0,0.0,121,9.142952204443921e-05,0,1735643777088297367,map,1.0039478804064954,0.2056856242754002,0.2390424778060791,-0.4904605694400863,0.5109203495231891,-0.5087500025388424,0.4894714099764522,0.0,0.0,0.0,122,0.39629976467848543,0,1735643777088310956,map,1.0037050758210475,0.2050524352391532,0.1415619221128245,-0.4842931285550196,0.5112416882839917,-0.4879118781671261,0.5157849367113705,0.0,0.0,0.0,124,0.29971062144503713,0,1735643777088322877,map,0.9964660255660044,-0.0265949735671898,0.2398749760256492,0.4381312715783957,-0.5399051436454181,0.5571906291941852,-0.4539625837759169,0.0,0.0,0.0,125,0.017882938761928372,0,1735643777088343858,map,1.0096304575586788,-0.0221120792706189,0.1415408641364239,-0.5590594535848322,0.5702403389686456,-0.4405519174496419,0.4101127786375313,0.0,0.0,0.0,126,0.01433733552575452,0,1735644242188269615,map,0.9715451702555932,0.3313006290296667,0.0248883297221206,-0.493216609802285,0.4993450599150281,-0.4846905655230421,0.5219836612831392,0.0,0.0,0.0,0,0.2517206578104883,0.9254724017256898,0.4079464555267568,0.2358816658915841,1.0,8.968291377675852e-05,-0.0003048460303096,-0.001280198017745,0.0,0.0,0.0,-0.0003048460303096,0.0239393833049168,-0.0004976383414391,0.0,0.0,0.0,-0.001280198017745,-0.0004976383414391,0.019301176351612,0.0,0.0,0.0,0.0,0.0,0.0,0.0,0.0,0.0,0.0,0.0,0.0,0.0,0.0,0.0,0.0,0.0,0.0,0.0,0.0,0.0,0,0,0,1,10,,124
0.998741739,0,1735643777088230371,map,0.9872774140202336,-0.2236261453457438,0.0181342488891033,-0.3946935929919619,0.8087625796486043,-0.3904145827764637,0.1941558934637584,0.0,0.0,0.0,1,3.681594195173397e-05,0,1735643777088253974,map,0.985083666514176,-0.2516199842223997,0.1468543220881084,-0.5172165993175398,0.496737827034425,-0.4761208667001841,0.5089670331919176,0.0,0.0,0.0,16,4.551368366489963e-05,0,1735643777088270664,map,0.986925901724926,0.0550243914365589,0.0234010855988009,-0.4965801588427084,0.4944977419648758,-0.4922169791850418,0.5163357187308872,0.0,0.0,0.0,17,0.018781422201185602,0,1735643777088284730,map,1.004110536399609,-0.2599107979634676,0.2353257009159884,-0.5054377697321497,0.492031667017443,-0.4690317092965191,0.5314571998332623,0.0,0.0,0.0,121,4.241053800151301e-05,0,1735643777088297367,map,1.0065952991670697,0.2043622551828565,0.2402330123581788,-0.4986787043779671,0.4904647147449253,-0.5009688816478639,0.5097000029532861,0.0,0.0,0.0,122,0.38221507000400434,0,1735643777088310956,map,1.0027540496889658,0.2027237176389361,0.1423743444074685,-0.4923817606166636,0.5086265564322674,-0.4761051446245515,0.5217117203647267,0.0,0.0,0.0,124,0.3042530366379285,0,1735643777088322877,map,0.994352968289434,-0.0280607197476099,0.2407016307668123,-0.5521616308144557,0.4432686740896461,-0.4400630724984549,0.5522453333893809,0.0,0.0,0.0,125,0.013632508869093543,0,1735643777088343858,map,1.0069598626191028,-0.0237063737879838,0.1421714515395651,0.4883758917821528,-0.5137406135289628,0.5175366822771267,-0.4792862952708502,0.0,0.0,0.0,126,0.011944151188436775,0,1735644242188269615,map,0.9737020613211284,0.3313667509225517,0.0244079450279933,-0.5061145683197815,0.4983947569483716,-0.4866987512214821,0.5085027389703073,0.0,0.0,0.0,0,0.2690490709357331,0.9261421837781249,0.4030141691682301,0.2268829802426266,1.0,8.601600159287676e-05,-0.000310168323631,-0.0012240879612,0.0,0.0,0.0,-0.000310168323631,0.0220063502189677,-8.557547507129675e-06,0.0,0.0,0.0,-0.0012240879612,-8.557547507129675e-06,0.0183562873900984,0.0,0.0,0.0,0.0,0.0,0.0,0.0,0.0,0.0,0.0,0.0,0.0,0.0,0.0,0.0,0.0,0.0,0.0,0.0,0.0,0.0,0,0,0,1,11,,124
1.101088922,0,1735643777088230371,map,0.976773884023164,-0.2204842897652234,0.022089899881342,-0.498497053249245,0.4909621361829495,-0.4869028401966236,0.5228599171336007,0.0,0.0,0.0,1,2.3185134552300297e-05,0,1735643777088253974,map,0.9868689889573656,-0.2530132797813662,0.146791196980616,-0.5062462136393969,0.4900231136212513,-0.4861615396025617,0.5169517160276919,0.0,0.0,0.0,16,2.2486480002103075e-05,0,1735643777088270664,map,0.986298114643082,0.0549811052654476,0.0238087662280411,-0.4874408483355825,0.5130797663952972,-0.5052294959101694,0.4938559801723485,0.0,0.0,0.0,17,0.01605472398870845,0,1735643777088284730,map,1.0045779242015225,-0.2605197386717454,0.2357951558524348,-0.2421989461941326,0.6801542265695705,-0.6489554323881027,0.2399723844861571,0.0,0.0,0.0,121,2.0512980654278173e-05,0,1735643777088297367,map,1.0125886820639345,0.2067503311499981,0.2405262391818612,-0.5040752412859173,0.4916380937705217,-0.495284529093144,0.5088156553381733,0.0,0.0,0.0,122,0.3861142335571306,0,1735643777088310956,map,0.9982989366520622,0.2011688682825678,0.1433455204158941,-0.4804617880472229,0.5091472947263153,-0.4857311317602659,0.5234412766855815,0.0,0.0,0.0,124,0.3014080506916558,0,1735643777088322877,map,0.9989019764756224,-0.0303371831728391,0.2410567058414887,-0.5185747732143323,0.4886985785029158,-0.4800951757833838,0.5116273313110384,0.0,0.0,0.0,125,0.010026459345643467,0,1735643777088343858,map,0.9977263003963134,-0.0250015934409655,0.1442207789921832,0.4714085218257833,-0.5356417449933788,0.5372802591976673,-0.4496574803636268,0.0,0.0,0.0,126,0.009381489046304406,0,1735644242188269615,map,0.9649318654959824,0.3267005021570849,0.0280400839769844,-0.4914604594373738,0.4989843911737313,-0.4933246598796278,0.5158604211695602,0.0,0.0,0.0,0,0.2769488587753486,0.926441202084549,0.3997067074842049,0.2230996578652516,1.0,7.983153288348208e-05,-0.000295199870833,-0.0011345247402493,0.0,0.0,0.0,-0.000295199870833,0.0202928200314246,0.0001298007132681,0.0,0.0,0.0,-0.0011345247402493,0.0001298007132681,0.0169840455845795,0.0,0.0,0.0,0.0,0.0,0.0,0.0,0.0,0.0,0.0,0.0,0.0,0.0,0.0,0.0,0.0,0.0,0.0,0.0,0.0,0.0,0,0,0,1,12,,124
1.19874025,0,1735643777088230371,map,0.984327403109076,-0.2236951690704796,0.0179133228457746,-0.4960564902641113,0.5042872447019319,-0.4930489100735524,0.506483075307623,0.0,0.0,0.0,1,1.609556211876412e-05,0,1735643777088253974,map,0.981861209928626,-0.2508988979932043,0.1463851571763051,-0.5156544758329143,0.499190882173722,-0.4766450559415781,0.5076597436812896,0.0,0.0,0.0,16,1.7767801600904504e-05,0,1735643777088270664,map,0.9866879059612904,0.054992676889767,0.0226894349483612,-0.4993886016558314,0.5081211925256852,-0.4783373388661411,0.5134367229649304,0.0,0.0,0.0,17,0.016247346442468676,0,1735643777088284730,map,1.0058262091978472,-0.2620875053229404,0.2347599549452263,-0.4951375473430309,0.4801364058593328,-0.49272387648272,0.5305949703148823,0.0,0.0,0.0,121,1.3048021886082603e-05,0,1735643777088297367,map,0.9913781131369216,0.1991406165106047,0.2394834865251613,-0.4938806743353346,0.5129642896032326,-0.5075311970663415,0.4851408054517085,0.0,0.0,0.0,122,0.36924146231903016,0,1735643777088310956,map,0.9928111839773672,0.1990959558047922,0.142985580711539,-0.4671683917171372,0.5022376286793139,-0.5085047886197754,0.5205131487962243,0.0,0.0,0.0,124,0.3149437637405191,0,1735643777088322877,map,1.0056198020256706,-0.0308110594812598,0.2400401706729601,-0.5132835541821659,0.4926169093110802,-0.4858381674837583,0.5077694838043594,0.0,0.0,0.0,125,0.008858922721332678,0,1735643777088343858,map,0.9913427408661556,-0.0254661381535094,0.1438893541234763,-0.4989292700752581,0.4623625835996217,-0.5115998005717484,0.524934347137049,0.0,0.0,0.0,126,0.008885756362545596,0,1735644242188269615,map,0.9672134206737548,0.3277962880620195,0.0258499744045886,-0.4860969449067979,0.4988385916636649,-0.4962804107024464,0.5182427747420116,0.0,0.0,0.0,0,0.28177583702849796,0.9268431891976078,0.3935407329626291,0.2183776047004501,1.0,7.562976940738209e-05,-0.0003022358960266,-0.0010700320606171,0.0,0.0,0.0,-0.0003022358960266,0.0191880647767698,0.000469208757061,0.0,0.0,0.0,-0.0010700320606171,0.000469208757061,0.0159451539727064,0.0,0.0,0.0,0.0,0.0,0.0,0.0,0.0,0.0,0.0,0.0,0.0,0.0,0.0,0.0,0.0,0.0,0.0,0.0,0.0,0.0,0,0,0,1,13,,124
1.297774247,0,1735643777088230371,map,0.9855522752963248,-0.2237744158936762,0.01710053269822,-0.500834419435045,0.5079632825934851,-0.4933420057784894,0.4977467761628088,0.0,0.0,0.0,1,1.224429373790295e-05,0,1735643777088253974,map,0.9749326777156408,-0.2472653662189683,0.1475630312972996,-0.5147898468657023,0.4858443339249563,-0.475707962417673,0.5221576689558703,0.0,0.0,0.0,16,1.3799349424849577e-05,0,1735643777088270664,map,0.9791694399999248,0.0548137290715699,0.025369588681301,-0.4839484876684296,0.4916709844268268,-0.5011683909967443,0.5223827602648559,0.0,0.0,0.0,17,0.016438885834422698,0,1735643777088284730,map,1.0052223387410049,-0.2612183547303773,0.2347824487645323,-0.2228934789225296,0.6914343004839152,-0.6515993286889594,0.2183012139687463,0.0,0.0,0.0,121,8.164055448816513e-06,0,1735643777088297367,map,1.009255298428285,0.2054612614180952,0.2392678502335478,-0.5047231291950761,0.4934696807972639,-0.4976311274490769,0.504088779862375,0.0,0.0,0.0,122,0.3752330446163766,0,1735643777088310956,map,0.9996091952881908,0.2015217639552432,0.1416194109434282,-0.4866873847404333,0.5022243518808801,-0.4794716798374995,0.5301065913060822,0.0,0.0,0.0,124,0.3188291343531093,0,1735643777088322877,map,0.9981717166593168,-0.0304922870087942,0.2398452330592657,-0.5179088702513486,0.490188119334964,-0.4808587708563592,0.5101576739286927,0.0,0.0,0.0,125,0.007323740896452395,0,1735643777088343858,map,1.0005687542027493,-0.0256282660848832,0.1419166054274587,-0.4728121667102439,0.543891112257522,-0.5355558798179195,0.4402397217545167,0.0,0.0,0.0,126,0.007758191706222518,0,1735644242188269615,map,0.9718060493216368,0.331098430788696,0.0241589350869851,-0.5026048003698931,0.4883041574831643,-0.4770649117225462,0.5304305180067944,0.0,0.0,0.0,0,0.2743827948948049,0.9272593772133016,0.3881581745595922,0.2132767467025754,1.0,7.247940505843366e-05,-0.0003097696496535,-0.0010211991067346,0.0,0.0,0.0,-0.0003097696496535,0.0181941238757936,0.0007926175048714,0.0,0.0,0.0,-0.0010211991067346,0.0007926175048714,0.0151444581833156,0.0,0.0,0.0,0.0,0.0,0.0,0.0,0.0,0.0,0.0,0.0,0.0,0.0,0.0,0.0,0.0,0.0,0.0,0.0,0.0,0.0,0,0,0,1,14,,124
1.398878757,0,1735643777088230371,map,0.9836305648527852,-0.2255196403771201,0.0169230203855838,-0.5032275516121655,0.5118457312673864,-0.4814818485024936,0.5029425496459822,0.0,0.0,0.0,1,6.900775071327638e-06,0,1735643777088253974,map,0.9681912482471392,-0.2465096116771725,0.1484412769403252,-0.5111899325951165,0.4724378470682468,-0.479171006305548,0.534679792200012,0.0,0.0,0.0,16,8.145275886587739e-06,0,1735643777088270664,map,0.9830376263039338,0.0536305564138063,0.0226534591366698,-0.4944168843069026,0.498180164405508,-0.4985349513015133,0.5087547254187943,0.0,0.0,0.0,17,0.014007945712741053,0,1735643777088284730,map,1.002611300076004,-0.2610546693678111,0.2347388394413906,-0.5065319580790612,0.4809678570218423,-0.4811077655337924,0.5297458012098732,0.0,0.0,0.0,121,4.365180118026579e-06,0,1735643777088297367,map,0.99246551314177,0.2002857530434998,0.2394752113057036,-0.4934653883536804,0.5159618123452047,-0.5082618513570802,0.4816069031414273,0.0,0.0,0.0,122,0.35924315327762085,0,1735643777088310956,map,0.9942439187452085,0.2001279677424079,0.1424666599059089,-0.476728948928663,0.5005672540915748,-0.4934677907461768,0.5278744859156205,0.0,0.0,0.0,124,0.32555328606236067,0,1735643777088322877,map,0.9986452702057336,-0.0305251054006886,0.2399899287147602,0.5480768662398074,-0.5197881536387332,0.4463793191068276,-0.4797682018468022,0.0,0.0,0.0,125,0.005891327929304772,0,1735643777088343858,map,0.9956254900361428,-0.0255022993986868,0.1428568659107031,-0.4837802737346994,0.538529353246053,-0.5236063030681616,0.449198421440748,0.0,0.0,0.0,126,0.006558446501044539,0,1735644242188269615,map,0.9628134965518158,0.3262334322341753,0.026565743091734,-0.4863587572309107,0.493950927912944,-0.4922393004748284,0.5264675784384034,0.0,0.0,0.0,0,0.2887264292858521,0.9274883408680548,0.385562385248459,0.2103931718523202,1.0,6.838138569397633e-05,-0.0002974391193837,-0.0009623624399962,0.0,0.0,0.0,-0.0002974391193837,0.0170755159941431,0.000844568476718,0.0,0.0,0.0,-0.0009623624399962,0.000844568476718,0.0142512376925996,0.0,0.0,0.0,0.0,0.0,0.0,0.0,0.0,0.0,0.0,0.0,0.0,0.0,0.0,0.0,0.0,0.0,0.0,0.0,0.0,0.0,0,0,0,1,15,,124
1.497113856,0,1735643777088230371,map,0.9816504337790506,-0.2245931447631819,0.0177486751425299,-0.5003623248706182,0.5018170123897906,-0.4871322134272726,0.5104110466748362,0.0,0.0,0.0,1,4.091505061444917e-06,0,1735643777088253974,map,0.973594859648852,-0.2488146435654369,0.1477064604976115,-0.5101922565755515,0.4805707395181849,-0.4775421702438026,0.5298198762675213,0.0,0.0,0.0,16,3.991440338951729e-06,0,1735643777088270664,map,0.984095441366622,0.0542766628527509,0.0225612104708031,0.668962325806337,-0.6355066810622688,0.2559518006514917,-0.288286906952528,0.0,0.0,0.0,17,0.012457253347262142,0,1735643777088284730,map,1.002611300076004,-0.2610546693678111,0.2347388394413906,-0.5065319580790612,0.4809678570218423,-0.4811077655337924,0.5297458012098732,0.0,0.0,0.0,121,2.1865386284262567e-06,0,1735643777088297367,map,0.9972274680125428,0.2011996835987991,0.2391804028686324,-0.5045922595895033,0.4995760676173512,-0.4950955676808455,0.5006903065659707,0.0,0.0,0.0,122,0.36028184602559016,0,1735643777088310956,map,0.9930186521549004,0.1991990910040443,0.1421438287190133,-0.4868623815183073,0.5164763581960856,-0.4880600504807645,0.5079513559501,0.0,0.0,0.0,124,0.32573930149911207,0,1735643777088322877,map,0.991503573839406,-0.0315324831137332,0.2399405920875285,0.3789916505347883,-0.5839617432082205,0.6032696317768701,-0.3891269235993997,0.0,0.0,0.0,125,0.0044660693666639766,0,1735643777088343858,map,1.0017798522251464,-0.028348320901102,0.1414863765757714,0.5540169723966456,-0.5307850003013048,0.4426723891453155,-0.4640836493995203,0.0,0.0,0.0,126,0.004895864155098642,0,1735644242188269615,map,0.9650394434332116,0.3280232858253018,0.0256130969270406,-0.4931687124980661,0.4897620963658172,-0.4862977777029016,0.5295584777695282,0.0,0.0,0.0,0,0.2921493961222442,0.9277053263686936,0.3838062017112791,0.2075114347606852,1.0,6.481378970041388e-05,-0.0002845651698826,-0.0009115942149795,0.0,0.0,0.0,-0.0002845651698826,0.0160545589537531,0.0008676958355053,0.0,0.0,0.0,-0.0009115942149795,0.0008676958355053,0.0134851014667917,0.0,0.0,0.0,0.0,0.0,0.0,0.0,0.0,0.0,0.0,0.0,0.0,0.0,0.0,0.0,0.0,0.0,0.0,0.0,0.0,0.0,0,0,0,1,16,,124
1.599588169,0,1735643777088230371,map,0.9823294859258522,-0.2250392636676612,0.0170718529621505,-0.50247679963825,0.5084942607018674,-0.4820547131924836,0.5065312489348274,0.0,0.0,0.0,1,1.982623633804206e-06,0,1735643777088253974,map,0.973594859648852,-0.2488146435654369,0.1477064604976115,-0.5101922565755515,0.4805707395181849,-0.4775421702438026,0.5298198762675213,0.0,0.0,0.0,16,1.9484719961276497e-06,0,1735643777088270664,map,0.9824693876865096,0.0542684159977905,0.0228666036539672,-0.5052105520152811,0.4965606440198309,-0.4748014051593093,0.5222580306723597,0.0,0.0,0.0,17,0.010383119665459312,0,1735643777088284730,map,1.0012177196654457,-0.2636165012186902,0.2348441016443685,-0.1704559896816814,0.702210487543894,-0.6720621187779252,0.1617952263471678,0.0,0.0,0.0,121,9.123060404151602e-07,0,1735643777088297367,map,0.9940499724630252,0.200183825881882,0.2395706032599651,-0.5046059501940455,0.4988185798974092,-0.4950514233508458,0.5014747726617945,0.0,0.0,0.0,122,0.35398125924637447,0,1735643777088310956,map,0.99346634120742,0.1993144040984412,0.1420981505010695,-0.4891002332255318,0.5164143750919111,-0.4830353959095201,0.510660318955462,0.0,0.0,0.0,124,0.326794874033424,0,1735643777088322877,map,0.9825929654613472,-0.031400021210171,0.2401768390808363,-0.5538350116617033,0.4475254366383095,-0.4393159522152891,0.5477127509457356,0.0,0.0,0.0,125,0.0033764306944995453,0,1735643777088343858,map,0.9952733210760032,-0.0280393339661654,0.1425445350246869,0.5310767583606137,-0.4941668817155738,0.4737923903651366,-0.4992768175839716,0.0,0.0,0.0,126,0.003812927044300348,0,1735644242188269615,map,0.9631916678974868,0.3273079308189126,0.0266197647281432,-0.4968713466770424,0.4970694153117947,-0.4871961108158353,0.5183442975656789,0.0,0.0,0.0,0,0.3016465459142721,0.927812943684798,0.3841039179288896,0.2058347420159897,1.0,6.11865176232918e-05,-0.0002673134115177,-0.0008608580846329,0.0,0.0,0.0,-0.0002673134115177,0.0151115912920838,0.0008086680460522,0.0,0.0,0.0,-0.0008608580846329,0.0008086680460522,0.012736840981001,0.0,0.0,0.0,0.0,0.0,0.0,0.0,0.0,0.0,0.0,0.0,0.0,0.0,0.0,0.0,0.0,0.0,0.0,0.0,0.0,0.0,0,0,0,1,17,,124
1.699614486,0,1735643777088230371,map,0.9765244618577054,-0.2224290343782872,0.0199188590585267,-0.5047143701011524,0.5005321131323646,-0.4833093149381012,0.5110216379280917,0.0,0.0,0.0,1,1.1362852383442611e-06,0,1735643777088253974,map,0.9780435954638942,-0.2514191190315877,0.1469228088641138,-0.5067992406776889,0.4903759771417453,-0.4823400217364155,0.519647990587966,0.0,0.0,0.0,16,8.382007262754688e-07,0,1735643777088270664,map,0.981292227793052,0.0543827320584755,0.023512199318218,-0.5013792600762634,0.490416153807534,-0.4744686044681083,0.5319683985201464,0.0,0.0,0.0,17,0.008705079301269361,0,1735643777088284730,map,0.9962508314796834,-0.262748360032234,0.2353036282424226,-0.5152798261530531,0.496096632058801,-0.462930931594458,0.5235167475761218,0.0,0.0,0.0,121,4.391912355831663e-07,0,1735643777088297367,map,0.9953334037653402,0.200553575221506,0.2401388250376069,-0.5007821890873263,0.508479735294487,-0.5044383893095173,0.4860117995260749,0.0,0.0,0.0,122,0.3550652608955287,0,1735643777088310956,map,0.989423464149188,0.198230154505901,0.1431431747900342,-0.4789038281990398,0.511145639514598,-0.4932946854047026,0.5157922177514823,0.0,0.0,0.0,124,0.32681979394708827,0,1735643777088322877,map,0.9899334522118118,-0.03289729217478,0.2404484229921547,-0.5342454208107981,0.4697597216264455,-0.4619804258559273,0.5296052496021104,0.0,0.0,0.0,125,0.0024289084025404684,0,1735643777088343858,map,0.9931830044234948,-0.0283365265005258,0.1428518105230146,0.4979925507391771,-0.494221889271084,0.5078506093550984,-0.4998358752143186,0.0,0.0,0.0,126,0.0028970226480466935,0,1735644242188269615,map,0.9689679472900355,0.3313973371250707,0.0243139589826547,-0.5045762906817509,0.4934340676983244,-0.4773481846167465,0.5235115073803318,0.0,0.0,0.0,0,0.30408152112832637,0.9279189950096552,0.3851360462118779,0.2040260351963335,1.0,5.79784636637877e-05,-0.0002506018707122,-0.0008162935033132,0.0,0.0,0.0,-0.0002506018707122,0.0142901683519968,0.0007320061466023,0.0,0.0,0.0,-0.0008162935033132,0.0007320061466023,0.0120848528503898,0.0,0.0,0.0,0.0,0.0,0.0,0.0,0.0,0.0,0.0,0.0,0.0,0.0,0.0,0.0,0.0,0.0,0.0,0.0,0.0,0.0,0,0,0,1,18,,124
1.798836657,0,1735643777088230371,map,0.979922045248732,-0.2254227525087222,0.0174393958233886,-0.4984177981009028,0.5050600690685307,-0.4918354226911852,0.5045710476780467,0.0,0.0,0.0,1,5.118513252114612e-07,0,1735643777088253974,map,0.9724464545007688,-0.2493231767409788,0.147600862264813,-0.5023830442404139,0.4862257748346764,-0.4888933230737524,0.5217078602053608,0.0,0.0,0.0,16,4.6516729002105347e-07,0,1735643777088270664,map,0.9804558069245404,0.0537359765847921,0.0232622522819531,-0.504756722300357,0.4933538231331941,-0.4793231641990768,0.5216051770780715,0.0,0.0,0.0,17,0.007422226226280347,0,1735643777088284730,map,0.9937255957810168,-0.2628793403173897,0.2349885437946844,-0.5027135283775559,0.4901266805811576,-0.4823925560512149,0.5237865664896915,0.0,0.0,0.0,121,2.0591015254262746e-07,0,1735643777088297367,map,0.9838207974899646,0.1969399568715507,0.2397017731590885,-0.4691776900448469,0.4950577123156789,-0.5311607208190646,0.5026514152968431,0.0,0.0,0.0,122,0.3352609296130168,0,1735643777088310956,map,0.9884700616987364,0.1974822778095183,0.1427252748919045,-0.4829007124322791,0.5128382466642433,-0.4913626317279307,0.512217335544341,0.0,0.0,0.0,124,0.3270800078404266,0,1735643777088322877,map,0.9893691556076324,-0.0337801002604844,0.2403376141552322,-0.5501716353116263,0.4877828169859716,-0.4416971103171372,0.5140843879065493,0.0,0.0,0.0,125,0.0017856470293040265,0,1735643777088343858,map,0.9878219660238836,-0.0284230898285309,0.1433612746135657,-0.5275848076199516,0.4836311767980331,-0.4727514612346674,0.5140634313954409,0.0,0.0,0.0,126,0.0022751131699008517,0,1735644242188269615,map,0.962934821256314,0.3279022285360455,0.0262650504629882,-0.489674772277625,0.4989550765338638,-0.491441260432143,0.5193726374587028,0.0,0.0,0.0,0,0.32617489319230347,0.928101338701509,0.3847221880465439,0.2013795244358643,1.0,5.552545157148008e-05,-0.0002387706582333,-0.000782017029116,0.0,0.0,0.0,-0.0002387706582333,0.0135411372426657,0.000713194548889,0.0,0.0,0.0,-0.000782017029116,0.000713194548889,0.0115748803092222,0.0,0.0,0.0,0.0,0.0,0.0,0.0,0.0,0.0,0.0,0.0,0.0,0.0,0.0,0.0,0.0,0.0,0.0,0.0,0.0,0.0,0,0,0,1,19,,124
1.899171825,0,1735643777088230371,map,0.9688133105063782,-0.2225561114281342,0.020822248081574,-0.4933319512278443,0.4993528516977524,-0.497973844738962,0.5092075857201527,0.0,0.0,0.0,1,3.267484585150434e-07,0,1735643777088253974,map,0.9697953978542776,-0.2511873000503017,0.1469733626459273,-0.5089714999074627,0.495505177662948,-0.4835676439880154,0.5114537758967455,0.0,0.0,0.0,16,2.1202454252631705e-07,0,1735643777088270664,map,0.9709476877990106,0.0516567614377185,0.0256567762987738,-0.4970727017906928,0.4959341001445944,-0.4956629573927573,0.5111617455531452,0.0,0.0,0.0,17,0.0064199213761876196,0,1735643777088284730,map,0.9903846895318494,-0.2650918302809566,0.2344506353864357,-0.5012768613282682,0.4978652863178814,-0.4765435873487358,0.5232187633612656,0.0,0.0,0.0,121,8.664521070789745e-08,0,1735643777088297367,map,0.982456658028857,0.194586876995627,0.2392720706408037,0.4910047636837159,-0.5077664084196413,0.5109981824589059,-0.4898657510422741,0.0,0.0,0.0,122,0.32318490918299214,0,1735643777088310956,map,0.9827260874503154,0.1941833499269328,0.1427279685531916,-0.4770012480074734,0.5107427956207586,-0.4959628422786279,0.5153954454588341,0.0,0.0,0.0,124,0.3187598356336252,0,1735643777088322877,map,0.9882885099820156,-0.0367585113027212,0.2397263259975756,0.521133502808866,-0.5012539092698882,0.4777511832054326,-0.4989170248023473,0.0,0.0,0.0,125,0.0012273800551485731,0,1735643777088343858,map,0.9882428465726592,-0.031610636903964,0.1421693290540805,0.5104641173623163,-0.5092504425154817,0.4888304642566966,-0.4910551383479046,0.0,0.0,0.0,126,0.0016015844098789013,0,1735644242188269615,map,0.957426636771158,0.3241867481874699,0.0271667765834157,-0.4913699295985185,0.4927641090700277,-0.4885284584538555,0.5263830073050123,0.0,0.0,0.0,0,0.34880574392395575,0.928276528059492,0.3846484802830731,0.1987682695088835,1.0,5.33323139047655e-05,-0.0002270774688211,-0.0007516079950698,0.0,0.0,0.0,-0.0002270774688211,0.012864183604386,0.0006811917468945,0.0,0.0,0.0,-0.0007516079950698,0.0006811917468945,0.011125690687341,0.0,0.0,0.0,0.0,0.0,0.0,0.0,0.0,0.0,0.0,0.0,0.0,0.0,0.0,0.0,0.0,0.0,0.0,0.0,0.0,0.0,0,0,0,1,20,,124
1.999187535,0,1735643777088230371,map,0.9644876737864996,-0.2186925093092513,0.0224504544773789,-0.4929433994191567,0.496112801869132,-0.4915713607864839,0.5188800343481813,0.0,0.0,0.0,1,2.2153198663126579e-07,0,1735643777088253974,map,0.9693960633034512,-0.2497269354992965,0.1470133788639913,-0.5006179723976497,0.493709333135986,-0.4850961750621932,0.519917725247867,0.0,0.0,0.0,16,1.371420053981923e-07,0,1735643777088270664,map,0.97253871372864,0.0527513892201699,0.0244946886894169,-0.4927113053493013,0.5040962400339241,-0.4928630033295693,0.51010646958611,0.0,0.0,0.0,17,0.005163207156125944,0,1735643777088284730,map,0.9925599373951822,-0.2658784869455831,0.2340702757336591,-0.4971557577525661,0.4897618350493969,-0.4907130975906252,0.5216992939572882,0.0,0.0,0.0,121,5.253120284469052e-08,0,1735643777088297367,map,0.9866044915533364,0.1969174239666425,0.2385727698623855,-0.4836720647406036,0.4916732674018338,-0.5169475548067903,0.5070344736714132,0.0,0.0,0.0,122,0.3271703204118034,0,1735643777088310956,map,0.9828762718741388,0.1950467566550972,0.1422474088350284,-0.478615400788501,0.5101971924264086,-0.4938180464435698,0.5164976863209839,0.0,0.0,0.0,124,0.3112495599079553,0,1735643777088322877,map,0.985453933790281,-0.0353899008246947,0.2394552425380822,-0.527059200664671,0.481978757628373,-0.47042702769465,0.5182697056592306,0.0,0.0,0.0,125,0.0010524540635503368,0,1735643777088343858,map,0.983816521396338,-0.030341057744934,0.1425253637572061,-0.5057534140398929,0.4949622083419573,-0.4975414633314906,0.5016755811938678,0.0,0.0,0.0,126,0.0013201616974113858,0,1735644242188269615,map,0.95914479554242,0.3262341731753798,0.0259701039491713,-0.4943950972455026,0.4974119857894908,-0.4919060436728488,0.5159294994577177,0.0,0.0,0.0,0,0.3540438855579588,0.9283998725417294,0.388738487121428,0.1960528252095041,1.0,5.10969571352687e-05,-0.0002061746605036,-0.0007225158395847,0.0,0.0,0.0,-0.0002061746605036,0.0125861665515043,0.0004266303295887,0.0,0.0,0.0,-0.0007225158395847,0.0004266303295887,0.0107433686475664,0.0,0.0,0.0,0.0,0.0,0.0,0.0,0.0,0.0,0.0,0.0,0.0,0.0,0.0,0.0,0.0,0.0,0.0,0.0,0.0,0.0,0,0,0,1,21,,124
2.09911194,0,1735643777088230371,map,0.9769589996343336,-0.2265207767994805,0.0161579176432064,-0.4991484084246974,0.5146805060781876,-0.4859706388859353,0.4997873359449872,0.0,0.0,0.0,1,7.500580291986662e-08,0,1735643777088253974,map,0.969290658602441,-0.2494863557065176,0.1468800577261127,-0.5036555872696808,0.4936301793731495,-0.4881476340695965,0.514171355460726,0.0,0.0,0.0,16,7.061909682814898e-08,0,1735643777088270664,map,0.9747245502316018,0.0529124499934076,0.0230614221170143,-0.4997719842569868,0.4948091527238664,-0.4893624659666042,0.5156706730420174,0.0,0.0,0.0,17,0.004427211388785287,0,1735643777088284730,map,0.9925599373951822,-0.2658784869455831,0.2340702757336591,-0.4971557577525661,0.4897618350493969,-0.4907130975906252,0.5216992939572882,0.0,0.0,0.0,121,2.4534296003741564e-08,0,1735643777088297367,map,0.9883779881987504,0.1972741825035835,0.2385599097880686,-0.5026997530588246,0.4923704709058193,-0.5027009450828714,0.5021514089070803,0.0,0.0,0.0,122,0.31428564747875515,0,1735643777088310956,map,0.9832336029872653,0.1953414661763323,0.1417912435075169,-0.4770358449443246,0.5167045803489129,-0.4964376536163155,0.5089232116504758,0.0,0.0,0.0,124,0.3073304469393087,0,1735643777088322877,map,0.9819558484969876,-0.0346098129151244,0.2390548399600088,-0.5291893655344714,0.4826241424580514,-0.4683411826908934,0.5173867886963768,0.0,0.0,0.0,125,0.0007979297147404802,0,1735643777088343858,map,0.9905293292980912,-0.0319899635962449,0.140686435435681,-0.5093702984606642,0.5172735400720073,-0.4955071117428152,0.4769095155265413,0.0,0.0,0.0,126,0.0009528864652658087,0,1735644242188269615,map,0.9566091325494424,0.3254587231476958,0.0268766868046391,-0.4895073940566583,0.4999969864209898,-0.4932433330444068,0.5168138341231129,0.0,0.0,0.0,0,0.3722057078539487,0.9286037917903336,0.388018392464964,0.1931476403960663,1.0,4.964761243355226e-05,-0.0001998867494128,-0.0007021150957011,0.0,0.0,0.0,-0.0001998867494128,0.0120249573344901,0.0004511702111443,0.0,0.0,0.0,-0.0007021150957011,0.0004511702111443,0.0104322757838454,0.0,0.0,0.0,0.0,0.0,0.0,0.0,0.0,0.0,0.0,0.0,0.0,0.0,0.0,0.0,0.0,0.0,0.0,0.0,0.0,0.0,0,0,0,1,22,,124
2.197995233,0,1735643777088230371,map,0.9658658681817156,-0.2233992569713484,0.0204242799097223,-0.4945611618626459,0.5047069694477136,-0.493689945260881,0.5069027225378474,0.0,0.0,0.0,1,1.1543215600350809e-07,0,1735643777088253974,map,0.969290658602441,-0.2494863557065176,0.1468800577261127,-0.5036555872696808,0.4936301793731495,-0.4881476340695965,0.514171355460726,0.0,0.0,0.0,16,6.944381628043382e-08,0,1735643777088270664,map,0.9707978081233312,0.0500861057790391,0.0239266916167115,-0.4934582100238127,0.4977720298699462,-0.4913768638312731,0.5169823777756739,0.0,0.0,0.0,17,0.005016024965442036,0,1735643777088284730,map,0.9925599373951822,-0.2658784869455831,0.2340702757336591,-0.4971557577525661,0.4897618350493969,-0.4907130975906252,0.5216992939572882,0.0,0.0,0.0,121,2.0351492339586327e-08,0,1735643777088297367,map,0.9797611053491804,0.1928208118613126,0.2385570594359479,-0.4850712739691332,0.5185664224234728,-0.5145705848843606,0.4806369085667987,0.0,0.0,0.0,122,0.2916533062620607,0,1735643777088310956,map,0.9790929464508544,0.1916379210352119,0.1420840062560945,-0.4748438747936931,0.5149745019252527,-0.4934949128395904,0.515545660382467,0.0,0.0,0.0,124,0.3126049420557008,0,1735643777088322877,map,0.984377094849206,-0.0393060669533925,0.2390539013155379,-0.5316164086389955,0.493207334462344,-0.4629018521012424,0.5097571918272118,0.0,0.0,0.0,125,0.0006346699269832607,0,1735643777088343858,map,0.9844595326480868,-0.0327963777012307,0.1423549026417192,-0.5142924446355395,0.495379317330524,-0.4868408366198119,0.5030791320967969,0.0,0.0,0.0,126,0.0010030538566668116,0,1735644242188269615,map,0.9562118360405966,0.3232395247757533,0.0260921250730593,-0.497177061660413,0.4952767579278161,-0.4867314228076056,0.5202003695374623,0.0,0.0,0.0,0,0.3890877977056817,0.9288871158546648,0.3840706490292545,0.1897352091209506,1.0,4.925501614805721e-05,-0.0002158028169106,-0.0006928584781684,0.0,0.0,0.0,-0.0002158028169106,0.0118449960237079,0.0007279249846628,0.0,0.0,0.0,-0.0006928584781684,0.0007279249846628,0.0102348816944147,0.0,0.0,0.0,0.0,0.0,0.0,0.0,0.0,0.0,0.0,0.0,0.0,0.0,0.0,0.0,0.0,0.0,0.0,0.0,0.0,0.0,0,0,0,1,23,,124
2.29993515,0,1735643777088230371,map,0.9658658681817156,-0.2233992569713484,0.0204242799097223,-0.4945611618626459,0.5047069694477136,-0.493689945260881,0.5069027225378474,0.0,0.0,0.0,1,1.9374460238828674e-07,0,1735643777088253974,map,0.969290658602441,-0.2494863557065176,0.1468800577261127,-0.5036555872696808,0.4936301793731495,-0.4881476340695965,0.514171355460726,0.0,0.0,0.0,16,9.857357347222769e-08,0,1735643777088270664,map,0.9728400271551456,0.0493009811194302,0.0222625660569568,-0.4987753745314673,0.5019631741500465,-0.4850597886754272,0.5137831244487838,0.0,0.0,0.0,17,0.006059106030996196,0,1735643777088284730,map,0.9925599373951822,-0.2658784869455831,0.2340702757336591,-0.4971557577525661,0.4897618350493969,-0.4907130975906252,0.5216992939572882,0.0,0.0,0.0,121,2.4859132849976883e-08,0,1735643777088297367,map,0.9863383381334224,0.1933958051463812,0.238443503436446,-0.5223341393608145,0.4715129376376848,-0.4744927297778544,0.5288659999342351,0.0,0.0,0.0,122,0.2902769097271689,0,1735643777088310956,map,0.9786153067873958,0.1910848159814914,0.1417209851688181,-0.4766931552281779,0.510223984420913,-0.4932380009966183,0.5187980299240853,0.0,0.0,0.0,124,0.32681592579796637,0,1735643777088322877,map,0.9796177900526322,-0.0390497616150005,0.2388933446298868,-0.5348446231036973,0.4882391706522522,-0.4570834128277752,0.5163705017674602,0.0,0.0,0.0,125,0.0006929825815051461,0,1735643777088343858,map,0.9818872597101672,-0.0352002489300405,0.1414526604843569,-0.5251521006196743,0.486294693997859,-0.4806082190625145,0.5067035440707219,0.0,0.0,0.0,126,0.0011287301933791698,0,1735644242188269615,map,0.9581987492944696,0.3245203816666321,0.024585606575119,-0.5047915515258007,0.4927410545702599,-0.4783304886504217,0.5230599260855411,0.0,0.0,0.0,0,0.3750260284916756,0.929142013489372,0.3789678850351856,0.1869935649061801,1.0,4.869709830467593e-05,-0.0002367267297415,-0.0006800626632991,0.0,0.0,0.0,-0.0002367267297415,0.0119503331314409,0.0010193639347931,0.0,0.0,0.0,-0.0006800626632991,0.0010193639347931,0.0099813103894896,0.0,0.0,0.0,0.0,0.0,0.0,0.0,0.0,0.0,0.0,0.0,0.0,0.0,0.0,0.0,0.0,0.0,0.0,0.0,0.0,0.0,0,0,0,1,24,,124
2.398316757,0,1735643777088230371,map,0.9658658681817156,-0.2233992569713484,0.0204242799097223,-0.4945611618626459,0.5047069694477136,-0.493689945260881,0.5069027225378474,0.0,0.0,0.0,1,2.822916360410645e-07,0,1735643777088253974,map,0.969290658602441,-0.2494863557065176,0.1468800577261127,-0.5036555872696808,0.4936301793731495,-0.4881476340695965,0.514171355460726,0.0,0.0,0.0,16,1.2939130116602362e-07,0,1735643777088270664,map,0.9706257737150014,0.0489064670741683,0.0240598035655433,-0.4958330162353543,0.4981667508616841,-0.4875076939258743,0.517992043095201,0.0,0.0,0.0,17,0.007297923836607955,0,1735643777088284730,map,0.9925599373951822,-0.2658784869455831,0.2340702757336591,-0.4971557577525661,0.4897618350493969,-0.4907130975906252,0.5216992939572882,0.0,0.0,0.0,121,2.9224822061984446e-08,0,1735643777088297367,map,0.9816240772878676,0.1918770988798202,0.2392222651020235,-0.503463598325404,0.5196643674329269,-0.5020162652814261,0.4737647304038802,0.0,0.0,0.0,122,0.2808651028173274,0,1735643777088310956,map,0.9769650847219674,0.1900289857930876,0.1428408618617885,-0.4774584948513894,0.5114804702548135,-0.4924316651829427,0.5176216469268995,0.0,0.0,0.0,124,0.3389540939187437,0,1735643777088322877,map,0.9766092366175012,-0.0392077600432793,0.2394795594692328,-0.5184979473923199,0.4815775006696455,-0.4786881101517627,0.5197121151157278,0.0,0.0,0.0,125,0.0007365934797280084,0,1735643777088343858,map,0.977016362520056,-0.034703750115378,0.1432497089749606,-0.5136343303912186,0.4889859809697674,-0.4898176646021149,0.5071007202739212,0.0,0.0,0.0,126,0.0013573058276900108,0,1735644242188269615,map,0.9574815617634383,0.3236019455701232,0.025782507901303,-0.496105866644979,0.4925010149873904,-0.4817246570208626,0.5284534739548579,0.0,0.0,0.0,0,0.37078853921214355,0.9293443208914134,0.3742104395193598,0.1849673667503794,1.0,4.773149321058759e-05,-0.0002503568551757,-0.0006626981140052,0.0,0.0,0.0,-0.0002503568551757,0.0120155187142485,0.0012099380333331,0.0,0.0,0.0,-0.0006626981140052,0.0012099380333331,0.0096805894691077,0.0,0.0,0.0,0.0,0.0,0.0,0.0,0.0,0.0,0.0,0.0,0.0,0.0,0.0,0.0,0.0,0.0,0.0,0.0,0.0,0.0,0,0,0,1,25,,124
2.496869297,0,1735643777088230371,map,0.9658658681817156,-0.2233992569713484,0.0204242799097223,-0.4945611618626459,0.5047069694477136,-0.493689945260881,0.5069027225378474,0.0,0.0,0.0,1,3.141591760778084e-07,0,1735643777088253974,map,0.969290658602441,-0.2494863557065176,0.1468800577261127,-0.5036555872696808,0.4936301793731495,-0.4881476340695965,0.514171355460726,0.0,0.0,0.0,16,1.175677211089018e-07,0,1735643777088270664,map,0.967047915009779,0.0497033151248867,0.0256841665428562,-0.4935529028421926,0.4961348680185137,-0.4915277044974591,0.5183205962951457,0.0,0.0,0.0,17,0.008495429297358218,0,1735643777088284730,map,0.9925599373951822,-0.2658784869455831,0.2340702757336591,-0.4971557577525661,0.4897618350493969,-0.4907130975906252,0.5216992939572882,0.0,0.0,0.0,121,2.2505200789550098e-08,0,1735643777088297367,map,0.9760786823666284,0.1911366309386073,0.2391805711775748,-0.4688804852967855,0.4914840446896061,-0.5308801168438579,0.5067157249022848,0.0,0.0,0.0,122,0.26015150479509513,0,1735643777088310956,map,0.9761026967531412,0.1902059340436438,0.1428999193095981,-0.4805144741792013,0.5084223379157529,-0.4890928558261454,0.52096136593071,0.0,0.0,0.0,124,0.342223222305817,0,1735643777088322877,map,0.97732443712053,-0.0397056856864078,0.2398468125832244,-0.5172477703028289,0.4946317011471818,-0.4765410385189045,0.510590700017461,0.0,0.0,0.0,125,0.0006320718192633801,0,1735643777088343858,map,0.9766865657779944,-0.0350124160331006,0.143103902283869,-0.5127146369688739,0.4976440425834321,-0.4882695995126928,0.5010657702445953,0.0,0.0,0.0,126,0.0013340509447843127,0,1735644242188269615,map,0.9519576167492402,0.3213454262268007,0.0283866649584508,-0.4920650286920572,0.4945280571233964,-0.488936656846583,0.523693568652251,0.0,0.0,0.0,0,0.3871632666055841,0.9296000647297666,0.3706002725832685,0.1818970104546061,1.0,4.753078932003291e-05,-0.0002638096940945,-0.0006568403426098,0.0,0.0,0.0,-0.0002638096940945,0.0118792160117462,0.0014405144246535,0.0,0.0,0.0,-0.0006568403426098,0.0014405144246535,0.0095439362994861,0.0,0.0,0.0,0.0,0.0,0.0,0.0,0.0,0.0,0.0,0.0,0.0,0.0,0.0,0.0,0.0,0.0,0.0,0.0,0.0,0.0,0,0,0,1,26,,124
