%time,field.boxes0.header.seq,field.boxes0.header.stamp,field.boxes0.header.frame_id,field.boxes0.pose.position.x,field.boxes0.pose.position.y,field.boxes0.pose.position.z,field.boxes0.pose.orientation.x,field.boxes0.pose.orientation.y,field.boxes0.pose.orientation.z,field.boxes0.pose.orientation.w,field.boxes0.scale.x,field.boxes0.scale.y,field.boxes0.scale.z,field.boxes0.id,field.boxes0.pdf,field.boxes1.header.seq,field.boxes1.header.stamp,field.boxes1.header.frame_id,field.boxes1.pose.position.x,field.boxes1.pose.position.y,field.boxes1.pose.position.z,field.boxes1.pose.orientation.x,field.boxes1.pose.orientation.y,field.boxes1.pose.orientation.z,field.boxes1.pose.orientation.w,field.boxes1.scale.x,field.boxes1.scale.y,field.boxes1.scale.z,field.boxes1.id,field.boxes1.pdf,field.boxes2.header.seq,field.boxes2.header.stamp,field.boxes2.header.frame_id,field.boxes2.pose.position.x,field.boxes2.pose.position.y,field.boxes2.pose.position.z,field.boxes2.pose.orientation.x,field.boxes2.pose.orientation.y,field.boxes2.pose.orientation.z,field.boxes2.pose.orientation.w,field.boxes2.scale.x,field.boxes2.scale.y,field.boxes2.scale.z,field.boxes2.id,field.boxes2.pdf,field.boxes3.header.seq,field.boxes3.header.stamp,field.boxes3.header.frame_id,field.boxes3.pose.position.x,field.boxes3.pose.position.y,field.boxes3.pose.position.z,field.boxes3.pose.orientation.x,field.boxes3.pose.orientation.y,field.boxes3.pose.orientation.z,field.boxes3.pose.orientation.w,field.boxes3.scale.x,field.boxes3.scale.y,field.boxes3.scale.z,field.boxes3.id,field.boxes3.pdf,field.boxes4.header.seq,field.boxes4.header.stamp,field.boxes4.header.frame_id,field.boxes4.pose.position.x,field.boxes4.pose.position.y,field.boxes4.pose.position.z,field.boxes4.pose.orientation.x,field.boxes4.pose.orientation.y,field.boxes4.pose.orientation.z,field.boxes4.pose.orientation.w,field.boxes4.scale.x,field.boxes4.scale.y,field.boxes4.scale.z,field.boxes4.id,field.boxes4.pdf,field.boxes5.header.seq,field.boxes5.header.stamp,field.boxes5.header.frame_id,field.boxes5.pose.position.x,field.boxes5.pose.position.y,field.boxes5.pose.position.z,field.boxes5.pose.orientation.x,field.boxes5.pose.orientation.y,field.boxes5.pose.orientation.z,field.boxes5.pose.orientation.w,field.boxes5.scale.x,field.boxes5.scale.y,field.boxes5.scale.z,field.boxes5.id,field.boxes5.pdf,field.boxes6.header.seq,field.boxes6.header.stamp,field.boxes6.header.frame_id,field.boxes6.pose.position.x,field.boxes6.pose.position.y,field.boxes6.pose.position.z,field.boxes6.pose.orientation.x,field.boxes6.pose.orientation.y,field.boxes6.pose.orientation.z,field.boxes6.pose.orientation.w,field.boxes6.scale.x,field.boxes6.scale.y,field.boxes6.scale.z,field.boxes6.id,field.boxes6.pdf,field.boxes7.header.seq,field.boxes7.header.stamp,field.boxes7.header.frame_id,field.boxes7.pose.position.x,field.boxes7.pose.position.y,field.boxes7.pose.position.z,field.boxes7.pose.orientation.x,field.boxes7.pose.orientation.y,field.boxes7.pose.orientation.z,field.boxes7.pose.orientation.w,field.boxes7.scale.x,field.boxes7.scale.y,field.boxes7.scale.z,field.boxes7.id,field.boxes7.pdf,field.boxes8.header.seq,field.boxes8.header.stamp,field.boxes8.header.frame_id,field.boxes8.pose.position.x,field.boxes8.pose.position.y,field.boxes8.pose.position.z,field.boxes8.pose.orientation.x,field.boxes8.pose.orientation.y,field.boxes8.pose.orientation.z,field.boxes8.pose.orientation.w,field.boxes8.scale.x,field.boxes8.scale.y,field.boxes8.scale.z,field.boxes8.id,field.boxes8.pdf,field.pose.pose.position.x,field.pose.pose.position.y,field.pose.pose.position.z,field.pose.pose.orientation.w,field.pose.covariance0,field.pose.covariance1,field.pose.covariance2,field.pose.covariance3,field.pose.covariance4,field.pose.covariance5,field.pose.covariance6,field.pose.covariance7,field.pose.covariance8,field.pose.covariance9,field.pose.covariance10,field.pose.covariance11,field.pose.covariance12,field.pose.covariance13,field.pose.covariance14,field.pose.covariance15,field.pose.covariance16,field.pose.covariance17,field.pose.covariance18,field.pose.covariance19,field.pose.covariance20,field.pose.covariance21,field.pose.covariance22,field.pose.covariance23,field.pose.covariance24,field.pose.covariance25,field.pose.covariance26,field.pose.covariance27,field.pose.covariance28,field.pose.covariance29,field.pose.covariance30,field.pose.covariance31,field.pose.covariance32,field.pose.covariance33,field.pose.covariance34,field.pose.covariance35,field.buttons0,field.buttons1,field.buttons2,field.buttons3,intersection_length,vacuum,desired_box
0.0,0,1735643777088230371,map,0.9766052155211,-0.2202506564245835,0.0231160943866066,-0.4965205554546946,0.4972409776244416,-0.4970099772856132,0.5091167161472951,0.0,0.0,0.0,1,0.1111111111111111,0,1735643777088253974,map,0.9753493537946644,-0.2483073029159483,0.1487016505127187,-0.4881866339559852,0.474190353293261,-0.4967400887039157,0.538578317002052,0.0,0.0,0.0,16,0.1111111111111111,0,1735643777088270664,map,0.9953437254690684,0.05578480999986,0.0225843273278775,-0.506580359266608,0.4838912215019879,-0.4778568238079833,0.5299796989496619,0.0,0.0,0.0,17,0.1111111111111111,0,1735643777088284730,map,1.008553975359004,-0.2586263219894257,0.2359416035554817,-0.524160651325967,0.5346815633808071,-0.4468738194532526,0.4895661618917877,0.0,0.0,0.0,121,0.1111111111111111,0,1735643777088297367,map,1.02630572310247,0.2086172909986321,0.2413116856450846,-0.5165766216191561,0.4738411009393167,-0.4946749790520195,0.513731320981152,0.0,0.0,0.0,122,0.1111111111111111,0,1735643777088310956,map,1.0078552292899856,0.2048003356330164,0.1436676566883329,-0.4769586630588341,0.493687038225618,-0.4938920755819991,0.5337173031656848,0.0,0.0,0.0,124,0.1111111111111111,0,1735643777088322877,map,0.9991583917686307,-0.029490249509022,0.2415973424970511,0.5512660233636405,-0.547032268331151,0.4432840641110888,-0.4476166969567488,0.0,0.0,0.0,125,0.1111111111111111,0,1735643777088343858,map,0.9957329092904912,-0.0234472948828918,0.1452315879860427,-0.4576624353211329,0.4793025485377035,-0.5495583601395031,0.5087236686669613,0.0,0.0,0.0,126,0.1111111111111111,0,1735644242188269615,map,0.978823414136048,0.3304713727176476,0.0253200770785496,0.852848901719079,-0.234696473859751,0.1145092646116192,-0.4521658371797524,0.0,0.0,0.0,0,0.1111111111111111,0.9381402361685064,-0.5967191041491964,0.2586502446172569,1.0,0.0,0.0,0.0,0.0,0.0,0.0,0.0,0.0,0.0,0.0,0.0,0.0,0.0,0.0,0.0,0.0,0.0,0.0,0.0,0.0,0.0,0.0,0.0,0.0,0.0,0.0,0.0,0.0,0.0,0.0,0.0,0.0,0.0,0.0,0.0,0.0,0,0,0,1,1,,16
0.097978168,0,1735643777088230371,map,0.972982342975218,-0.2207198916575836,0.0243768401546287,-0.4976727235385216,0.484253241390205,-0.4847620738347499,0.5318142440930503,0.0,0.0,0.0,1,,0,1735643777088253974,map,0.9904591072293186,-0.2535541940154051,0.1474290921625022,-0.5027420643833163,0.5105754146939253,-0.4948288626819075,0.4916376300352297,0.0,0.0,0.0,16,,0,1735643777088270664,map,1.001221765022418,0.0557239599266636,0.0208015627142586,-0.5089619025665699,0.4950838509027338,-0.4730598335496387,0.5215976957321851,0.0,0.0,0.0,17,,0,1735643777088284730,map,1.0098271643771082,-0.2598558028906789,0.2358963890521664,-0.4594827137219137,0.4641804562015024,-0.5318500207145537,0.5390247631948275,0.0,0.0,0.0,121,,0,1735643777088297367,map,1.0177318969264926,0.2043440400775515,0.2411853836369653,-0.5111668426338543,0.4935220905491349,-0.4889801199895177,0.5060067661472373,0.0,0.0,0.0,122,,0,1735643777088310956,map,1.007521769584844,0.203078636188125,0.1437742512877891,-0.4727151943087025,0.4990449284056616,-0.4988992118835558,0.5278201217121608,0.0,0.0,0.0,124,,0,1735643777088322877,map,0.9965616379473148,-0.0306714913512765,0.2414580363418293,0.4878637848870756,-0.5073624154758515,0.5105168263864247,-0.4939077613628884,0.0,0.0,0.0,125,,0,1735643777088343858,map,0.9961256918891628,-0.0246518257597922,0.1455758831664181,0.4708910080750716,-0.5128166545132007,0.5396290712716116,-0.4733721609964713,0.0,0.0,0.0,126,,0,1735644242188269615,map,0.979684199402504,0.3299795960370676,0.0251003407211558,-0.5123286560745353,0.4931379212505929,-0.4754853225484647,0.5179266809409292,0.0,0.0,0.0,0,,0.9366100156567844,-0.5437446837697388,0.2703788582720814,1.0,2.341574814494136e-06,-8.106254466121945e-05,-1.7947365188672782e-05,0.0,0.0,0.0,-8.106254466121945e-05,0.0028062892145394,0.0006213165102189,0.0,0.0,0.0,-1.7947365188672782e-05,0.0006213165102189,0.0001375603782641,0.0,0.0,0.0,0.0,0.0,0.0,0.0,0.0,0.0,0.0,0.0,0.0,0.0,0.0,0.0,0.0,0.0,0.0,0.0,0.0,0.0,0,0,0,1,2,,16
0.198965538,0,1735643777088230371,map,0.9800008358346508,-0.2228410681410401,0.0230606426660156,-0.4953444765295698,0.4949747073562539,-0.497220552586099,0.5122554155255086,0.0,0.0,0.0,1,0.0,0,1735643777088253974,map,0.9809005283701082,-0.2515571752455646,0.1490968839039339,-0.4830734099847638,0.4738878113041609,-0.509129982343051,0.5318431008694282,0.0,0.0,0.0,16,7.130368034173517e-10,0,1735643777088270664,map,0.9896804731740728,0.0529970790618708,0.0254778756384725,-0.4852152422798607,0.4930710607157589,-0.5038786288169592,0.5172556671177934,0.0,0.0,0.0,17,0.0,0,1735643777088284730,map,1.0128933372480629,-0.2609603386433091,0.2367610046544202,0.3345959946240995,-0.602770139637059,0.6290415466284118,-0.3591941143153176,0.0,0.0,0.0,121,0.9999999992869633,0,1735643777088297367,map,1.018568179564174,0.2036413268346634,0.2421129175268279,-0.5046793898949443,0.4684493466770743,-0.4944018140027412,0.5304910643204915,0.0,0.0,0.0,122,0.0,0,1735643777088310956,map,1.0061955508644853,0.2017470141408821,0.1447885970438941,-0.4708496269054733,0.5001900463623389,-0.5032167118574155,0.5242933217869831,0.0,0.0,0.0,124,0.0,0,1735643777088322877,map,0.999584978140061,-0.0314776283962269,0.2424325005321578,-0.5662563501056066,0.4808841273514909,-0.4303006530255064,0.5127821662580461,0.0,0.0,0.0,125,2.793983647342382e-26,0,1735643777088343858,map,1.0009212721682017,-0.0249607497436197,0.1454801325842384,-0.4917608435135766,0.4792614052293957,-0.5055103480911942,0.5224357053428493,0.0,0.0,0.0,126,0.0,0,1735644242188269615,map,0.9850684906514284,0.3321602201063409,0.0242783837188753,-0.5120750180759619,0.5006932126358963,-0.4801928681772713,0.5064585787944896,0.0,0.0,0.0,0,0.0,0.935241419294233,-0.5421070890991491,0.2905534281349017,1.0,5.307161883508362e-06,-5.8524108659818926e-05,-6.718659598637992e-05,0.0,0.0,0.0,-5.8524108659818926e-05,0.0018762229089699,0.0004802865429902,0.0,0.0,0.0,-6.718659598637992e-05,0.0004802865429902,0.0009057334571423,0.0,0.0,0.0,0.0,0.0,0.0,0.0,0.0,0.0,0.0,0.0,0.0,0.0,0.0,0.0,0.0,0.0,0.0,0.0,0.0,0.0,0,0,0,1,3,,16
0.299014467,0,1735643777088230371,map,0.9839293620375292,-0.2236235842423138,0.0208430826873801,-0.4902207122540183,0.5058291884617804,-0.498462778896273,0.5053269668563753,0.0,0.0,0.0,1,1.1543590600453969e-07,0,1735643777088253974,map,0.9956864854745408,-0.2556003302967396,0.1466085936538534,-0.5041957008830277,0.5100311557054792,-0.4931274854069405,0.4924227843601811,0.0,0.0,0.0,16,0.11214267753441119,0,1735643777088270664,map,0.9939044466869978,0.0541108537737438,0.0234677075218844,-0.5117116064403917,0.5029255304514851,-0.4823672711737591,0.5025325445726545,0.0,0.0,0.0,17,9.485316853033538e-27,0,1735643777088284730,map,1.0138250273134124,-0.2622295647033316,0.2364658887758744,-0.4864281391196519,0.5055851411023964,-0.4971114525079165,0.5105404336137654,0.0,0.0,0.0,121,0.8878572070296828,0,1735643777088297367,map,1.012509851830747,0.2008990517517599,0.2416550677077615,0.5175771721242799,-0.5124001148897493,0.4935907188612178,-0.4753190459163945,0.0,0.0,0.0,122,0.0,0,1735643777088310956,map,1.0140298764796625,0.2048065011818965,0.1433344133921348,-0.505515907058838,0.5028073387658736,-0.4697186873911704,0.5205792951214789,0.0,0.0,0.0,124,0.0,0,1735643777088322877,map,1.00515874620247,-0.0316683995480297,0.2417362270094579,-0.496588223866735,0.5025172074175583,-0.5014068133711206,0.4994675161320887,0.0,0.0,0.0,125,1.5607778719128953e-17,0,1735643777088343858,map,1.005597537477146,-0.0252974485608943,0.1445086774155116,-0.5130086890709693,0.4631864930833811,-0.4825889973099322,0.5379481547864984,0.0,0.0,0.0,126,4.3678539879673715e-17,0,1735644242188269615,map,0.9846399628639696,0.3332266327367932,0.0234758932233785,-0.5034780201128684,0.49988868013507,-0.4829337061547076,0.5132214202424936,0.0,0.0,0.0,0,0.0,0.9361453623935044,-0.5240331751020406,0.2731725920236162,1.0,6.431710792792956e-06,5.120288008674058e-06,-9.7523807576881e-05,0.0,0.0,0.0,5.120288008674058e-06,0.002387166283252,-0.0005822043039769,0.0,0.0,0.0,-9.7523807576881e-05,-0.0005822043039769,0.0015855804846388,0.0,0.0,0.0,0.0,0.0,0.0,0.0,0.0,0.0,0.0,0.0,0.0,0.0,0.0,0.0,0.0,0.0,0.0,0.0,0.0,0.0,0,0,0,1,4,,16
0.400010514,0,1735643777088230371,map,0.9854456961647842,-0.2238930465341244,0.0207080628223508,-0.4982043311741111,0.7529021576576153,-0.3520060616834111,0.2470273627191909,0.0,0.0,0.0,1,0.7423348347170564,0,1735643777088253974,map,0.9820632908992368,-0.251957948506556,0.1483722602567376,-0.4912776746332379,0.4830391391334876,-0.5164661433055681,0.5085097435558245,0.0,0.0,0.0,16,0.2530033864010966,0,1735643777088270664,map,0.9845379469598146,0.0519928181723052,0.026519725828495,-0.4947443475040494,0.485784457667118,-0.4942123977102844,0.524400226212107,0.0,0.0,0.0,17,1.9734385424829593e-21,0,1735643777088284730,map,1.0067485939427878,-0.2596488219016374,0.2360730560664951,-0.4811690880970497,0.4670951574124054,-0.5084981098038884,0.5401185933733508,0.0,0.0,0.0,121,0.004661778881846987,0,1735643777088297367,map,1.020253692675821,0.2050953963466241,0.2415722186102405,-0.6384062944705481,0.2590223143473036,-0.2649395438077237,0.6746494511800228,0.0,0.0,0.0,122,0.0,0,1735643777088310956,map,1.010307206360496,0.2045256591333071,0.1435588022899565,-0.4912215171736573,0.507621042784562,-0.4807411594962794,0.5195288592119762,0.0,0.0,0.0,124,0.0,0,1735643777088322877,map,1.0037128706957372,-0.0304219772368501,0.2420458174213778,0.4662091619569342,-0.5095784551126548,0.529177052586403,-0.4929000531632968,0.0,0.0,0.0,125,2.915553486909136e-23,0,1735643777088343858,map,1.0074277253210828,-0.0237955239586833,0.1438662895744883,0.5094729927894329,-0.5028713644911802,0.4915765318844839,-0.4958933087806089,0.0,0.0,0.0,126,1.2457594370310072e-18,0,1735644242188269615,map,0.9787808875959368,0.328733343066905,0.0255983869633987,-0.4954101242788612,0.5007311064317107,-0.4882358014894783,0.5152309869928299,0.0,0.0,0.0,0,0.0,0.9383069557376436,-0.5032740930073988,0.2363655100087408,1.0,2.3835311775940024e-05,0.0001835870051517,-0.0003962668200636,0.0,0.0,0.0,0.0001835870051517,0.0036334909842499,-0.0035220883920256,0.0,0.0,0.0,-0.0003962668200636,-0.0035220883920256,0.0066875095335101,0.0,0.0,0.0,0.0,0.0,0.0,0.0,0.0,0.0,0.0,0.0,0.0,0.0,0.0,0.0,0.0,0.0,0.0,0.0,0.0,0.0,0,0,0,1,5,,16
0.499292433,0,1735643777088230371,map,0.991936210411434,-0.2258472639997691,0.0186761826960451,-0.5046892661403298,0.739607544740629,-0.3608246480101602,0.2609118582851649,0.0,0.0,0.0,1,0.7084770364477104,0,1735643777088253974,map,0.98928133660415,-0.2543051929833867,0.1475035086390892,-0.5040234677547148,0.5084513699304429,-0.494050717845809,0.4933066354352116,0.0,0.0,0.0,16,0.2855591444318405,0,1735643777088270664,map,0.9878699158200472,0.0524382058628326,0.0255186110118144,-0.4935767784036703,0.5118372265623041,-0.4966090601470533,0.4977791264260921,0.0,0.0,0.0,17,1.790571211970014e-12,0,1735643777088284730,map,1.0120343324960857,-0.2612372015308332,0.2359430472070527,-0.4873819898329569,0.5043325363991635,-0.4866517021052117,0.5208431717453489,0.0,0.0,0.0,121,0.005963819113578021,0,1735643777088297367,map,1.0135188959484291,0.2026002112826611,0.2417529481224056,0.4875803536015695,-0.5009897346105587,0.5129987765545468,-0.4981033425406309,0.0,0.0,0.0,122,4.4989934665503194e-39,0,1735643777088310956,map,1.0098292098129,0.2042976751852494,0.1434862284132613,-0.4833559212207272,0.5034949637239243,-0.4915170600000885,0.5208366871240698,0.0,0.0,0.0,124,1.4447602449586853e-31,0,1735643777088322877,map,1.014766466874772,-0.0297883529192258,0.2416192270047188,-0.5030113440854826,0.5097486608431064,-0.4956128435555983,0.4914303610815169,0.0,0.0,0.0,125,1.6422363983386032e-16,0,1735643777088343858,map,1.0075032829519943,-0.0243027175037198,0.1440147654505224,-0.6086821757376114,0.4661319766872618,-0.3858597890324109,0.5131658722643366,0.0,0.0,0.0,126,5.080269992074888e-12,0,1735644242188269615,map,0.9809745659579132,0.3300471967744769,0.0248005116028054,-0.4966459793490669,0.5009760278585469,-0.4857075025840879,0.5161918370538298,0.0,0.0,0.0,0,4.936530418621609e-37,0.9390983253858654,-0.4775157449539146,0.219045640695063,1.0,2.2994089413916477e-05,0.0002549110451491,-0.0003987544444831,0.0,0.0,0.0,0.0002549110451491,0.0063453716257638,-0.0051657297701342,0.0,0.0,0.0,-0.0003987544444831,-0.0051657297701342,0.0070728139764728,0.0,0.0,0.0,0.0,0.0,0.0,0.0,0.0,0.0,0.0,0.0,0.0,0.0,0.0,0.0,0.0,0.0,0.0,0.0,0.0,0.0,0,0,0,1,6,,16
0.600685099,0,1735643777088230371,map,0.9789453512928656,-0.2225622335524756,0.0233794335459203,-0.5047877627898175,0.7551705369916073,-0.3445083857136256,0.2371091452695362,0.0,0.0,0.0,1,0.6159133182496985,0,1735643777088253974,map,0.9935498081879756,-0.2549704937585362,0.1470284469259727,-0.5016062143164486,0.5037152778997481,-0.4953187632038276,0.499320986328164,0.0,0.0,0.0,16,0.37892693938541777,0,1735643777088270664,map,0.993501621662995,0.0545489078183831,0.0236673436841174,0.509333825819204,-0.5052775635081477,0.4873264886911474,-0.4977816098567721,0.0,0.0,0.0,17,2.5277238839332895e-11,0,1735643777088284730,map,1.0064132547706486,-0.2592110672350766,0.2366389308608537,-0.3605186747221893,0.639145489553928,-0.5838395430573844,0.347348119790464,0.0,0.0,0.0,121,0.005159742305245623,0,1735643777088297367,map,1.0178761684751505,0.2065562647198114,0.2420995099983479,-0.4884523604548392,0.4740472579198774,-0.5102751317217693,0.5256546192806374,0.0,0.0,0.0,122,4.507257559972713e-38,0,1735643777088310956,map,1.0016084958599092,0.2023496755844933,0.1450156974443124,-0.4697565904951818,0.5081262568101989,-0.5035296587301241,0.5172952112725598,0.0,0.0,0.0,124,9.849371946428388e-30,0,1735643777088322877,map,1.001996569024857,-0.029960877363012,0.242499825804729,-0.4953164104830895,0.5114645278593041,-0.5032037667818563,0.4897465256072345,0.0,0.0,0.0,125,5.527771534914787e-16,0,1735643777088343858,map,1.0070302318526303,-0.0245858728613832,0.1446493834674585,0.5127344409724023,-0.5006240326632231,0.4892910325329322,-0.4970646401058795,0.0,0.0,0.0,126,3.436025797630674e-11,0,1735644242188269615,map,0.9825726370996696,0.3329500071885981,0.0243521944371704,-0.5073363336248954,0.4940728105290616,-0.482279598868114,0.5156629625982201,0.0,0.0,0.0,0,1.3468876441954573e-34,0.939393261807899,-0.4634093977859227,0.2116365425530034,1.0,2.0231144455894868e-05,0.0002434580349265,-0.0003549008012217,0.0,0.0,0.0,0.0002434580349265,0.0066328241474838,-0.0050548602379624,0.0,0.0,0.0,-0.0003549008012217,-0.0050548602379624,0.0063917803915059,0.0,0.0,0.0,0.0,0.0,0.0,0.0,0.0,0.0,0.0,0.0,0.0,0.0,0.0,0.0,0.0,0.0,0.0,0.0,0.0,0.0,0,0,0,1,7,,16
0.700003999,0,1735643777088230371,map,0.9780147936850954,-0.2238863276763181,0.024497034764162,-0.4822871130665653,0.4871133042509907,-0.5017263950404538,0.5276271353060895,0.0,0.0,0.0,1,0.6805277072832162,0,1735643777088253974,map,0.9857550981775856,-0.2538468828567507,0.1494186527466945,-0.4017898558792656,0.705488650602307,-0.5060117141322584,0.2912092387696323,0.0,0.0,0.0,16,0.31595701937194703,0,1735643777088270664,map,0.9950348806042408,0.0539449918723631,0.0242020538095245,-0.5063162334632256,0.4894626137895403,-0.48197647653991,0.5213145859230273,0.0,0.0,0.0,17,1.6212018214435867e-12,0,1735643777088284730,map,1.010514563631654,-0.2613956889611651,0.2376767786444567,0.3539656734574883,-0.6059814714746224,0.6123908636112111,-0.3639672903005893,0.0,0.0,0.0,121,0.0035152733415612816,0,1735643777088297367,map,1.0178761684751505,0.2065562647198114,0.2420995099983479,-0.4884523604548392,0.4740472579198774,-0.5102751317217693,0.5256546192806374,0.0,0.0,0.0,122,9.03521577495545e-43,0,1735643777088310956,map,1.0085326816987936,0.2049979786075034,0.1449331847267221,-0.4821360516342441,0.503166626771173,-0.4911621871938462,0.5226163787035549,0.0,0.0,0.0,124,1.5154540454712509e-33,0,1735643777088322877,map,0.9951664862292036,-0.0310693253617143,0.2431351696402039,-0.4594366248369513,0.5378240069616356,-0.5363229100405369,0.4604574480446712,0.0,0.0,0.0,125,7.833484400468883e-18,0,1735643777088343858,map,1.0087364966961416,-0.0235471357687166,0.1452111207520711,0.6335365750183842,-0.4818596359144568,0.3678651628110884,-0.4807472531178244,0.0,0.0,0.0,126,1.6543798742406999e-12,0,1735644242188269615,map,0.9825726370996696,0.3329500071885981,0.0243521944371704,-0.5073363336248954,0.4940728105290616,-0.482279598868114,0.5156629625982201,0.0,0.0,0.0,0,9.593592109847696e-39,0.9394419176942967,-0.4605066842104355,0.21029239217186,1.0,1.7718823165876166e-05,0.0002140144192745,-0.0003109960068667,0.0,0.0,0.0,0.0002140144192745,0.0058627013517576,-0.004450314493129,0.0,0.0,0.0,-0.0003109960068667,-0.004450314493129,0.0056054550242975,0.0,0.0,0.0,0.0,0.0,0.0,0.0,0.0,0.0,0.0,0.0,0.0,0.0,0.0,0.0,0.0,0.0,0.0,0.0,0.0,0.0,0,0,0,1,8,,16
0.798689332,0,1735643777088230371,map,0.9854978029788106,-0.2265785071711143,0.0202397668359165,0.4667942836240918,-0.5132912791918819,0.5347209186917092,-0.4823988998691091,0.0,0.0,0.0,1,0.416874280366904,0,1735643777088253974,map,0.991445405218938,-0.2568449774545491,0.1473719333430508,-0.4924304231545578,0.5052968877566186,-0.4993569165617365,0.5028220395500311,0.0,0.0,0.0,16,0.5728490765479757,0,1735643777088270664,map,0.9972338274418162,0.0545940166103648,0.0217854964487809,-0.499970661696853,0.4815289696397375,-0.4797132902056829,0.5366883155427757,0.0,0.0,0.0,17,5.549692629717407e-11,0,1735643777088284730,map,1.0087373141830476,-0.2622862448437279,0.2367412281883101,-0.4860070600536053,0.4901282258587781,-0.4995581333793686,0.5234626358863631,0.0,0.0,0.0,121,0.01027664294055988,0,1735643777088297367,map,1.0178761684751505,0.2065562647198114,0.2420995099983479,-0.4884523604548392,0.4740472579198774,-0.5102751317217693,0.5256546192806374,0.0,0.0,0.0,122,1.0336574382443844e-37,0,1735643777088310956,map,1.0030508212789575,0.2029537921357866,0.1446745532249761,-0.4657320543549336,0.5057833770056793,-0.5061887806286761,0.5206243823110076,0.0,0.0,0.0,124,3.2858695281067303e-29,0,1735643777088322877,map,1.0030548987882653,-0.0306619352226757,0.2427565234994221,-0.4797258129770976,0.5470775761282403,-0.5139423354792416,0.4543484850456256,0.0,0.0,0.0,125,1.331699030613363e-15,0,1735643777088343858,map,1.0109330835656276,-0.0233928409729917,0.1432881634832773,0.4926457316933162,-0.5057836663866312,0.5145014069599603,-0.4865915824354911,0.0,0.0,0.0,126,8.90622169334821e-11,0,1735644242188269615,map,0.9825726370996696,0.3329500071885981,0.0243521944371704,-0.5073363336248954,0.4940728105290616,-0.482279598868114,0.5156629625982201,0.0,0.0,0.0,0,4.796231596912517e-34,0.9394026297646104,-0.4513336000108409,0.2089392978022704,1.0,1.5762413367686722e-05,0.0001873519074588,-0.000276015612781,0.0,0.0,0.0,0.0001873519074588,0.005884453880314,-0.0040551314936615,0.0,0.0,0.0,-0.000276015612781,-0.0040551314936615,0.0049972736032486,0.0,0.0,0.0,0.0,0.0,0.0,0.0,0.0,0.0,0.0,0.0,0.0,0.0,0.0,0.0,0.0,0.0,0.0,0.0,0.0,0.0,0,0,0,1,9,,16
0.897794529,0,1735643777088230371,map,0.9748389563598132,-0.2234402758299166,0.0231689700663861,-0.4982743467209664,0.4940194172358715,-0.4908098757039692,0.5165008777390209,0.0,0.0,0.0,1,0.5736199087580203,0,1735643777088253974,map,0.9883402345127392,-0.2552229984762751,0.1474024112779659,-0.5050915869819919,0.5103238257887486,-0.4920802587538372,0.4922490228909599,0.0,0.0,0.0,16,0.4232717222739178,0,1735643777088270664,map,0.9865786786073628,0.0545071588280348,0.0243241612876702,-0.4935093618740253,0.5080383555322382,-0.4965043435170826,0.5018256429472921,0.0,0.0,0.0,17,7.509733770387989e-12,0,1735643777088284730,map,1.0023370430498757,-0.2592122513662592,0.2369211813138216,-0.3747093753476156,0.6387626001266014,-0.5678235884110641,0.3593766786396769,0.0,0.0,0.0,121,0.0031083689556625415,0,1735643777088297367,map,1.0065769153582802,0.205527352918047,0.2420704840290614,0.5039282212223574,-0.4968159176448903,0.4999713987896222,-0.4992583421663427,0.0,0.0,0.0,122,8.243922550856751e-42,0,1735643777088310956,map,1.0012011645491454,0.2060658562365599,0.144308237448121,-0.4843355094626456,0.5105290133725211,-0.482401209435733,0.5216016812792902,0.0,0.0,0.0,124,1.5662094404245416e-32,0,1735643777088322877,map,0.9945433384075772,-0.0291607115027164,0.2423139013056852,-0.4718650664444569,0.5342803992220766,-0.5250080538656434,0.4650315660819989,0.0,0.0,0.0,125,1.6732349512151004e-17,0,1735643777088343858,map,0.9951007022742228,-0.0229528007600403,0.1451620069814983,-0.4913156811340261,0.5306567625738073,-0.5142938058132372,0.4609926063492018,0.0,0.0,0.0,126,4.889509443965211e-12,0,1735644242188269615,map,0.9825726370996696,0.3329500071885981,0.0243521944371704,-0.5073363336248954,0.4940728105290616,-0.482279598868114,0.5156629625982201,0.0,0.0,0.0,0,3.925162588517493e-37,0.9398369238690638,-0.4438966816672362,0.2008527146814495,1.0,1.588367435338501e-05,0.0001976850048403,-0.0002800216498738,0.0,0.0,0.0,0.0001976850048403,0.0057937782823276,-0.0041908716694302,0.0,0.0,0.0,-0.0002800216498738,-0.0041908716694302,0.0050860816820532,0.0,0.0,0.0,0.0,0.0,0.0,0.0,0.0,0.0,0.0,0.0,0.0,0.0,0.0,0.0,0.0,0.0,0.0,0.0,0.0,0.0,0,0,0,1,10,,16
0.998519925,0,1735643777088230371,map,0.9765845939488588,-0.2245887982338077,0.0229459779479313,-0.4917406961752321,0.5046161598894442,-0.5002189209669589,0.5033236036688333,0.0,0.0,0.0,1,0.8396154789925824,0,1735643777088253974,map,0.9743292943751704,-0.2529394378259134,0.1500019049204716,-0.4933123350453876,0.4724092925721687,-0.4945545479844761,0.5374832085297185,0.0,0.0,0.0,16,0.15950041812964022,0,1735643777088270664,map,0.9901613847782726,0.0545904552581925,0.0235162435549978,-0.5082297912525487,0.4951906973520383,-0.4820771497473997,0.5138971436297503,0.0,0.0,0.0,17,1.1642108951586864e-12,0,1735643777088284730,map,1.0037533985103455,-0.2607387740736825,0.2372566450610634,-0.49873827596022,0.5174578806767168,-0.4766511057425375,0.5062619847590816,0.0,0.0,0.0,121,0.000884102876383937,0,1735643777088297367,map,1.002598865581473,0.2030755504406208,0.242696390578248,-0.4951329331156086,0.4915774013435742,-0.5043526915423575,0.5087468914564616,0.0,0.0,0.0,122,0.0,0,1735643777088310956,map,1.0006716580257156,0.2056946108041136,0.1446750205235542,-0.4818852489148001,0.5123694853570702,-0.4939569554815412,0.5111464012244039,0.0,0.0,0.0,124,7.304862155664656e-36,0,1735643777088322877,map,0.9890789752314184,-0.0308955169644287,0.243038337729886,-0.4820152082622306,0.5390575852007514,-0.5135126007556998,0.4619340512525245,0.0,0.0,0.0,125,1.8341473187055092e-19,0,1735643777088343858,map,0.9854416292486264,-0.0251421194024182,0.1471346629222563,0.4720337961319553,-0.5095041778569088,0.5416838643100182,-0.4734640210214259,0.0,0.0,0.0,126,2.291463676434828e-13,0,1735644242188269615,map,0.9825726370996696,0.3329500071885981,0.0243521944371704,-0.5073363336248954,0.4940728105290616,-0.482279598868114,0.5156629625982201,0.0,0.0,0.0,0,1.9954765165371585e-40,0.9404708145580492,-0.4340114065005971,0.1892549144124331,1.0,1.8457878013447984e-05,0.0002423754796258,-0.0003280825122813,0.0,0.0,0.0,0.0002423754796258,0.006244257816954,-0.0049563578057151,0.0,0.0,0.0,-0.0003280825122813,-0.0049563578057151,0.0059688003308484,0.0,0.0,0.0,0.0,0.0,0.0,0.0,0.0,0.0,0.0,0.0,0.0,0.0,0.0,0.0,0.0,0.0,0.0,0.0,0.0,0.0,0,0,0,1,11,,16
1.100285006,0,1735643777088230371,map,0.9736341354590866,-0.22342110203057,0.023265458868823,-0.4917888957417857,0.4906535839173406,-0.4923801654596773,0.5243705896368005,0.0,0.0,0.0,1,0.8485104145476224,0,1735643777088253974,map,0.976610719906802,-0.2525796893900441,0.1490596895717672,-0.506011311049943,0.4900660173760529,-0.4854461415415306,0.51781260641774,0.0,0.0,0.0,16,0.15099920081456297,0,1735643777088270664,map,0.9841357138055064,0.0544902080626698,0.024419694375992,-0.4890279996282648,0.5052697122347508,-0.4987237959115716,0.5067827037985255,0.0,0.0,0.0,17,1.8770362981463768e-11,0,1735643777088284730,map,0.9989037149119808,-0.2588006811543082,0.2367198339188046,-0.4821852195896551,0.4825576127561948,-0.5100803975482101,0.5238831476745357,0.0,0.0,0.0,121,0.0004903846180667717,0,1735643777088297367,map,1.0096088161378345,0.2096577285360908,0.242151734904663,-0.5069832985087342,0.488826783520162,-0.4949968009894402,0.5089150005224425,0.0,0.0,0.0,122,0.0,0,1735643777088310956,map,0.9978988649314058,0.2067174570530247,0.1442998867615996,-0.47931862315323,0.5093039442587249,-0.496026546615885,0.5146074376778065,0.0,0.0,0.0,124,2.629149000898371e-34,0,1735643777088322877,map,0.9980451440096058,-0.0276223937416657,0.2423642222881211,-0.498724955572165,0.5080212802784366,-0.499660813204292,0.4934844163920744,0.0,0.0,0.0,125,2.3243097293394814e-19,0,1735643777088343858,map,0.9920360911324202,-0.0224842816642093,0.1448590608236377,0.4813561239669606,-0.5060546291174174,0.5281063447176823,-0.4830203752816913,0.0,0.0,0.0,126,9.775132630966695e-13,0,1735644242188269615,map,0.9825726370996696,0.3329500071885981,0.0243521944371704,-0.5073363336248954,0.4940728105290616,-0.482279598868114,0.5156629625982201,0.0,0.0,0.0,0,1.8322096287873773e-37,0.9408531478435488,-0.4222029387631802,0.1810218760901732,1.0,1.85276876655366e-05,0.0002718399959247,-0.0003353677134299,0.0,0.0,0.0,0.0002718399959247,0.0072577420122363,-0.0056127432300747,0.0,0.0,0.0,-0.0003353677134299,-0.0056127432300747,0.0062170124234515,0.0,0.0,0.0,0.0,0.0,0.0,0.0,0.0,0.0,0.0,0.0,0.0,0.0,0.0,0.0,0.0,0.0,0.0,0.0,0.0,0.0,0,0,0,1,12,,16
1.199767094,0,1735643777088230371,map,0.968433986063486,-0.2229257590195806,0.0243649606552143,-0.4913155148857968,0.491035457927821,-0.5003327541084969,0.5168755934036027,0.0,0.0,0.0,1,0.69700102600158,0,1735643777088253974,map,0.9696578536314558,-0.2518313085152718,0.1496853342252573,-0.4960898837762125,0.4690790867260727,-0.5010512229856608,0.5317963045713197,0.0,0.0,0.0,16,0.30013947511990235,0,1735643777088270664,map,0.9846721403024168,0.0564189380708685,0.0232700797506028,-0.498249763587547,0.4935344475440448,-0.486896890207976,0.5206748894253982,0.0,0.0,0.0,17,5.733118882278757e-09,0,1735643777088284730,map,0.998985646834259,-0.2590436300208726,0.2371265604659726,-0.3781752701206812,0.601632257386485,-0.584381855127361,0.3918162060700096,0.0,0.0,0.0,121,0.002859492567773205,0,1735643777088297367,map,1.00485120699025,0.2072713649243112,0.2429745007212791,-0.5083732283763425,0.4962155524012998,-0.4942646379171653,0.5010281967413628,0.0,0.0,0.0,122,1.7161650853039403e-36,0,1735643777088310956,map,0.9906971508808526,0.2025778475164558,0.1458620681854175,-0.4703947333842047,0.5072787049775336,-0.5012520913337498,0.5197532599361563,0.0,0.0,0.0,124,6.868757489733421e-27,0,1735643777088322877,map,0.9905801231821364,-0.0293947293827829,0.2431002967899202,-0.491468730255671,0.5292641640488098,-0.5015693478750602,0.4761996651686977,0.0,0.0,0.0,125,1.8403902834199726e-15,0,1735643777088343858,map,0.9899439991313572,-0.0232067505153602,0.1457813662553487,0.4885731221736534,-0.5031732799130296,0.5163931742265372,-0.4913766826817217,0.0,0.0,0.0,126,5.776237547821634e-10,0,1735644242188269615,map,0.9825726370996696,0.3329500071885981,0.0243521944371704,-0.5073363336248954,0.4940728105290616,-0.482279598868114,0.5156629625982201,0.0,0.0,0.0,0,2.2270213222154554e-29,0.9408781575918628,-0.4124082864596199,0.1785730730150764,1.0,1.7109986772162494e-05,0.0002538687684746,-0.0003103051243951,0.0,0.0,0.0,0.0002538687684746,0.0078506767301129,-0.0054688158470038,0.0,0.0,0.0,-0.0003103051243951,-0.0054688158470038,0.0058107403365778,0.0,0.0,0.0,0.0,0.0,0.0,0.0,0.0,0.0,0.0,0.0,0.0,0.0,0.0,0.0,0.0,0.0,0.0,0.0,0.0,0.0,0,0,0,1,13,,16
1.300041188,0,1735643777088230371,map,0.9721336045246618,-0.2243583872412917,0.0224055842459562,-0.4810089619515834,0.5014060494696215,-0.5097875836249562,0.5072858875026548,0.0,0.0,0.0,1,0.5018638969297641,0,1735643777088253974,map,0.9712599966233588,-0.2529066100795986,0.1496453165691604,-0.504232797764961,0.5066815069726891,-0.492992046447629,0.4959657027349609,0.0,0.0,0.0,16,0.48892582843780785,0,1735643777088270664,map,0.979440224963523,0.0541462330977349,0.0250366348944082,-0.4944494657337995,0.4972314280448636,-0.4944240214780371,0.5136394842547756,0.0,0.0,0.0,17,1.1121135522841327e-07,0,1735643777088284730,map,0.9937004723238274,-0.2589422430572806,0.2371696022269814,-0.4891633420360355,0.4920973485058355,-0.4968240543485894,0.521272753385685,0.0,0.0,0.0,121,0.009210141968433375,0,1735643777088297367,map,0.9971244939263412,0.2055431596400783,0.242671105490758,0.5080812150722765,-0.4959028573637523,0.4959591651149114,-0.4999583397520887,0.0,0.0,0.0,122,8.837745579262931e-31,0,1735643777088310956,map,0.9926932079752152,0.2070111136180654,0.1447575207206028,-0.4878648415555898,0.507559661204512,-0.4837931237240981,0.5199185514377997,0.0,0.0,0.0,124,5.674081754659923e-23,0,1735643777088322877,map,0.9883230469676494,-0.0285156953059353,0.2427677805344086,-0.5020438511714898,0.5057040743689792,-0.4964455917933837,0.4957389787543744,0.0,0.0,0.0,125,4.551542851226982e-13,0,1735643777088343858,map,0.9902152690605196,-0.0216498921590189,0.1450439169450399,-0.4858606243944676,0.4876097780849686,-0.5185103557801549,0.5072703114983996,0.0,0.0,0.0,126,2.1452184473995182e-08,0,1735644242188269615,map,0.9825726370996696,0.3329500071885981,0.0243521944371704,-0.5073363336248954,0.4940728105290616,-0.482279598868114,0.5156629625982201,0.0,0.0,0.0,0,5.04139629646448e-25,0.9407807430643972,-0.4054400324291669,0.1785583756778099,1.0,1.6011209531962395e-05,0.0002269107657549,-0.0002881218601085,0.0,0.0,0.0,0.0002269107657549,0.0079211494415614,-0.0050795175357817,0.0,0.0,0.0,-0.0002881218601085,-0.0050795175357817,0.0053956902635461,0.0,0.0,0.0,0.0,0.0,0.0,0.0,0.0,0.0,0.0,0.0,0.0,0.0,0.0,0.0,0.0,0.0,0.0,0.0,0.0,0.0,0,0,0,1,14,,16
1.398611496,0,1735643777088230371,map,0.972135204480556,-0.2253417534442253,0.0242990888460135,-0.4883057049594843,0.501443989975195,-0.4996924844773203,0.510312535980315,0.0,0.0,0.0,1,0.2994389610308185,0,1735643777088253974,map,0.9722750442061652,-0.2541314452132143,0.1513389082545024,-0.5237223923676627,0.4989769950186121,-0.4678630620146017,0.5077804342205484,0.0,0.0,0.0,16,0.6617773280792951,0,1735643777088270664,map,0.9756768738271924,0.0516472406950949,0.028405568650433,-0.4878398054669378,0.503195752522856,-0.499546177332782,0.5091757806073867,0.0,0.0,0.0,17,1.7332513946432055e-06,0,1735643777088284730,map,0.9936269825350956,-0.2597344403735334,0.2389656620189079,-0.490419659406744,0.5066756188898145,-0.4900289308841676,0.5124841673520426,0.0,0.0,0.0,121,0.03878057776811598,0,1735643777088297367,map,0.992051503347316,0.2023618807261707,0.2445093796147983,0.5085121585262145,-0.5007058359460035,0.498469766199243,-0.4921757233609722,0.0,0.0,0.0,122,1.818648428461097e-23,0,1735643777088310956,map,0.9878951612926448,0.2036523523083591,0.147359358421262,-0.4794571150446422,0.5069164009598016,-0.4956049158812524,0.517235347424523,0.0,0.0,0.0,124,8.392518559131505e-18,0,1735643777088322877,map,0.985453227400544,-0.0295626891107758,0.2445122992607584,-0.5075268808082649,0.5242925637033197,-0.4903387636447255,0.476551854229732,0.0,0.0,0.0,125,5.946249514367201e-10,0,1735643777088343858,map,0.9931382885403288,-0.0215218500683532,0.1462785844364892,-0.5045786948839411,0.5063745221350725,-0.5001635601037981,0.4886937662237879,0.0,0.0,0.0,126,1.3992757506865098e-06,0,1735644242188269615,map,0.9825726370996696,0.3329500071885981,0.0243521944371704,-0.5073363336248954,0.4940728105290616,-0.482279598868114,0.5156629625982201,0.0,0.0,0.0,0,3.583207426982544e-20,0.9405294161244084,-0.3989159263704895,0.1809455423156689,1.0,1.5828108793862243e-05,0.0001888278108047,-0.00027731316611,0.0,0.0,0.0,0.0001888278108047,0.0079889682502322,-0.0045228452368445,0.0,0.0,0.0,-0.00027731316611,-0.0045228452368445,0.0051157574831064,0.0,0.0,0.0,0.0,0.0,0.0,0.0,0.0,0.0,0.0,0.0,0.0,0.0,0.0,0.0,0.0,0.0,0.0,0.0,0.0,0.0,0,0,0,1,15,,16
1.499434306,0,1735643777088230371,map,0.9677269350246072,-0.2249488770378151,0.0265752259361257,-0.4847763681822866,0.4899838927422323,-0.5048216001109772,0.519675677482171,0.0,0.0,0.0,1,0.17946725255693316,0,1735643777088253974,map,0.9727806689286478,-0.2545988384568254,0.1517607944162518,-0.4819759140952058,0.4946443369006227,-0.515931497590687,0.5067947197811603,0.0,0.0,0.0,16,0.7050497783098949,0,1735643777088270664,map,0.975561382755219,0.0525872316364451,0.0287790842717227,-0.4856680242618538,0.4918321635967128,-0.4972273553456152,0.5243974162382657,0.0,0.0,0.0,17,5.870044031191852e-06,0,1735643777088284730,map,0.9924317142606124,-0.2599307849089087,0.2398892395863221,-0.4677262521582528,0.4813230275391676,-0.5215570557983552,0.5268192609894552,0.0,0.0,0.0,121,0.11545471962741337,0,1735643777088297367,map,0.9926285848230224,0.2045405499491414,0.2454722814292398,0.5072861814773003,-0.4993567948674138,0.4933469047222829,-0.4999123454195406,0.0,0.0,0.0,122,3.6493665177725734e-18,0,1735643777088310956,map,0.9878951612926448,0.2036523523083591,0.147359358421262,-0.4794571150446422,0.5069164009598016,-0.4956049158812524,0.517235347424523,0.0,0.0,0.0,124,3.2428313995003325e-14,0,1735643777088322877,map,0.9843149259446572,-0.0290479196579012,0.2455842112440656,-0.5025967555305294,0.5032390477286606,-0.4964554822073254,0.4976735037729334,0.0,0.0,0.0,125,1.3462807068454505e-07,0,1735643777088343858,map,0.9896031932084186,-0.0214507372876982,0.1476057578744222,0.5109298901301342,-0.4981294825726884,0.4955414254706615,-0.4952336434512296,0.0,0.0,0.0,126,2.224483362410934e-05,0,1735644242188269615,map,0.9825726370996696,0.3329500071885981,0.0243521944371704,-0.5073363336248954,0.4940728105290616,-0.482279598868114,0.5156629625982201,0.0,0.0,0.0,0,3.7159715054613474e-17,0.9401471540896148,-0.3935144095990535,0.1855336862738993,1.0,1.7030715942916454e-05,0.0001460541507491,-0.0002862891919091,0.0,0.0,0.0,0.0001460541507491,0.0079273034860742,-0.0038684233614395,0.0,0.0,0.0,-0.0002862891919091,-0.0038684233614395,0.0051117886151339,0.0,0.0,0.0,0.0,0.0,0.0,0.0,0.0,0.0,0.0,0.0,0.0,0.0,0.0,0.0,0.0,0.0,0.0,0.0,0.0,0.0,0,0,0,1,16,,16
1.599453971,0,1735643777088230371,map,0.9650331633284464,-0.2246758003250879,0.0246202070583489,0.4765641120070976,-0.5059512755142898,0.5175882416289231,-0.4990013688155865,0.0,0.0,0.0,1,0.14407249931854152,0,1735643777088253974,map,0.9640523736205846,-0.2532380370695166,0.1513430251582657,-0.510160972865612,0.4941696718239027,-0.4811741567926864,0.5138127558256173,0.0,0.0,0.0,16,0.7182517019978215,0,1735643777088270664,map,0.975979021902545,0.0547178324597857,0.0253044145292809,-0.4947219220568636,0.4967438549838922,-0.4915181572668539,0.5166291353080082,0.0,0.0,0.0,17,4.947191359849742e-06,0,1735643777088284730,map,0.990029752368086,-0.2596663287941217,0.2381765190964861,-0.4750375596904607,0.5029506183804192,-0.5056664788325882,0.5154429207382103,0.0,0.0,0.0,121,0.137642893622241,0,1735643777088297367,map,0.9926285848230224,0.2045405499491414,0.2454722814292398,0.5072861814773003,-0.4993567948674138,0.4933469047222829,-0.4999123454195406,0.0,0.0,0.0,122,5.550297663547121e-18,0,1735643777088310956,map,0.9878951612926448,0.2036523523083591,0.147359358421262,-0.4794571150446422,0.5069164009598016,-0.4956049158812524,0.517235347424523,0.0,0.0,0.0,124,4.151129810341956e-14,0,1735643777088322877,map,0.979773102032014,-0.0286311464600977,0.2441580741124931,-0.4955064880876339,0.5105025403577123,-0.5028559125635164,0.4909138496226142,0.0,0.0,0.0,125,1.893685096063546e-07,0,1735643777088343858,map,0.9821715707886468,-0.0218754077926651,0.1463838151331717,-0.4912888243292528,0.4881436942062047,-0.5097010112261041,0.5104467690670462,0.0,0.0,0.0,126,2.7768501485028426e-05,0,1735644242188269615,map,0.9825726370996696,0.3329500071885981,0.0243521944371704,-0.5073363336248954,0.4940728105290616,-0.482279598868114,0.5156629625982201,0.0,0.0,0.0,0,3.4046015698775507e-17,0.9400404849593637,-0.3900322031993483,0.1863958481843236,1.0,1.621096197632166e-05,0.0001315196272686,-0.0002709201081865,0.0,0.0,0.0,0.0001315196272686,0.0076550036988675,-0.0035928334345077,0.0,0.0,0.0,-0.0002709201081865,-0.0035928334345077,0.0048229883377414,0.0,0.0,0.0,0.0,0.0,0.0,0.0,0.0,0.0,0.0,0.0,0.0,0.0,0.0,0.0,0.0,0.0,0.0,0.0,0.0,0.0,0,0,0,1,17,,16
1.700154239,0,1735643777088230371,map,0.9648326511589388,-0.2258097701432916,0.0243329022585329,-0.4845459267555788,0.5058411198256048,-0.5064065962969684,0.5028840478530554,0.0,0.0,0.0,1,0.1357707384502287,0,1735643777088253974,map,0.9627718665079792,-0.2541857689492992,0.1514616589077779,-0.5089696697688161,0.4898491688867411,-0.4821518238921491,0.5181961845805744,0.0,0.0,0.0,16,0.7404896285772172,0,1735643777088270664,map,0.9672593971984448,0.0504461328949914,0.0289541890900828,-0.4853725660514276,0.5011733719679938,-0.4983261426509796,0.5146938691158836,0.0,0.0,0.0,17,3.089673136229469e-06,0,1735643777088284730,map,0.9859201425736224,-0.2596637100071288,0.2382151613533651,-0.3930970825102363,0.6108277121389073,-0.5678180166262495,0.3872297635767691,0.0,0.0,0.0,121,0.1237202549507746,0,1735643777088297367,map,0.9926285848230224,0.2045405499491414,0.2454722814292398,0.5072861814773003,-0.4993567948674138,0.4933469047222829,-0.4999123454195406,0.0,0.0,0.0,122,6.44805740456084e-19,0,1735643777088310956,map,0.9878951612926448,0.2036523523083591,0.147359358421262,-0.4794571150446422,0.5069164009598016,-0.4956049158812524,0.517235347424523,0.0,0.0,0.0,124,7.66162603265401e-15,0,1735643777088322877,map,0.9788458754135418,-0.0291523912306521,0.2438675986140509,-0.4880559599391271,0.5174206456981114,-0.5092593286487906,0.4844916836824233,0.0,0.0,0.0,125,8.60552082668379e-08,0,1735643777088343858,map,0.9796450887718158,-0.0227095885674336,0.1465658581916947,0.4895136718769876,-0.4960638112640608,0.5160376156658291,-0.49799823234386,0.0,0.0,0.0,126,1.6202293427343883e-05,0,1735644242188269615,map,0.9825726370996696,0.3329500071885981,0.0243521944371704,-0.5073363336248954,0.4940728105290616,-0.482279598868114,0.5156629625982201,0.0,0.0,0.0,0,4.155186981435732e-18,0.9400801511714028,-0.391203295579657,0.1860490291725274,1.0,1.5337100920055372e-05,0.0001234232837318,-0.0002561028600048,0.0,0.0,0.0,0.0001234232837318,0.0072530404907718,-0.0033863269063,0.0,0.0,0.0,-0.0002561028600048,-0.0033863269063,0.0045570893594583,0.0,0.0,0.0,0.0,0.0,0.0,0.0,0.0,0.0,0.0,0.0,0.0,0.0,0.0,0.0,0.0,0.0,0.0,0.0,0.0,0.0,0,0,0,1,18,,16
1.797738425,0,1735643777088230371,map,0.9634300788082216,-0.2271804277757417,0.0254469937435186,-0.492529836767433,0.5043518929731795,-0.4972863802748432,0.5057170987235455,0.0,0.0,0.0,1,0.12024093029038438,0,1735643777088253974,map,0.9716052870829872,-0.2574151681989439,0.1502697000941228,-0.5054265917725336,0.5065376097634033,-0.4885768263385256,0.4992557410679949,0.0,0.0,0.0,16,0.7661218722108679,0,1735643777088270664,map,0.9701659132108528,0.0511312839621179,0.0278161643362663,-0.4976811476133643,0.5034493250621973,-0.4898099981338726,0.5088599199512168,0.0,0.0,0.0,17,2.3409989734530247e-06,0,1735643777088284730,map,0.9843340144632312,-0.2611238987550435,0.2391390907634456,-0.5073946189337104,0.4999143557161316,-0.4745092509031122,0.5171820844087773,0.0,0.0,0.0,121,0.11362042491561596,0,1735643777088297367,map,0.9926285848230224,0.2045405499491414,0.2454722814292398,0.5072861814773003,-0.4993567948674138,0.4933469047222829,-0.4999123454195406,0.0,0.0,0.0,122,6.295664178098176e-19,0,1735643777088310956,map,0.9878951612926448,0.2036523523083591,0.147359358421262,-0.4794571150446422,0.5069164009598016,-0.4956049158812524,0.517235347424523,0.0,0.0,0.0,124,7.312338855368532e-15,0,1735643777088322877,map,0.975782864864783,-0.0305476335202331,0.2449643552759897,-0.5023343076312987,0.5288671458312054,-0.4954418782698667,0.4716960151340745,0.0,0.0,0.0,125,7.646587804331439e-08,0,1735643777088343858,map,0.9821511696766978,-0.0224162418237494,0.146291055807465,0.5086122548916562,-0.502528834382883,0.4952319980263617,-0.4934811170841531,0.0,0.0,0.0,126,1.4355118272855852e-05,0,1735644242188269615,map,0.9825726370996696,0.3329500071885981,0.0243521944371704,-0.5073363336248954,0.4940728105290616,-0.482279598868114,0.5156629625982201,0.0,0.0,0.0,0,3.584373456011971e-18,0.9401323732727294,-0.395428384203776,0.1861605568350456,1.0,1.457897374376342e-05,0.0001129557473177,-0.0002425189263498,0.0,0.0,0.0,0.0001129557473177,0.0071926262474432,-0.0032165810310368,0.0,0.0,0.0,-0.0002425189263498,-0.0032165810310368,0.0043174664426168,0.0,0.0,0.0,0.0,0.0,0.0,0.0,0.0,0.0,0.0,0.0,0.0,0.0,0.0,0.0,0.0,0.0,0.0,0.0,0.0,0.0,0,0,0,1,19,,16
1.900488744,0,1735643777088230371,map,0.9617896374069496,-0.2271865053824573,0.0247668345628584,-0.4849537648331383,0.5015966801969789,-0.502703268541144,0.5104018418732299,0.0,0.0,0.0,1,0.11461810311135391,0,1735643777088253974,map,0.9688836852525012,-0.2570491046862858,0.1495713571996717,-0.5012369110358869,0.499237737406623,-0.4926009592600362,0.506821009332102,0.0,0.0,0.0,16,0.7801761874868652,0,1735643777088270664,map,0.9744852797801398,0.0543830253280165,0.0239931722621438,-0.5070236165131837,0.4973754599241666,-0.480699635381717,0.5142689614462459,0.0,0.0,0.0,17,1.0295919840656645e-06,0,1735643777088284730,map,0.9814502591150424,-0.2605979870610719,0.2382872262391957,-0.5114539751902315,0.4934177040449354,-0.4702340410756257,0.5232912642217731,0.0,0.0,0.0,121,0.1051959750937162,0,1735643777088297367,map,0.9926285848230224,0.2045405499491414,0.2454722814292398,0.5072861814773003,-0.4993567948674138,0.4933469047222829,-0.4999123454195406,0.0,0.0,0.0,122,9.178894564092818e-20,0,1735643777088310956,map,0.9878951612926448,0.2036523523083591,0.147359358421262,-0.4794571150446422,0.5069164009598016,-0.4956049158812524,0.517235347424523,0.0,0.0,0.0,124,1.5500698657905134e-15,0,1735643777088322877,map,0.975437743097604,-0.0296354416420679,0.2442253767388879,-0.4885636565080515,0.5140523083033052,-0.506652232102771,0.4902645138828697,0.0,0.0,0.0,125,3.496890579048459e-08,0,1735643777088343858,map,0.9751556354954104,-0.0234653652048723,0.1466960076318741,-0.5014369450902387,0.5102841975645332,-0.5034897103403445,0.484426608885067,0.0,0.0,0.0,126,8.669747173170908e-06,0,1735644242188269615,map,0.9825726370996696,0.3329500071885981,0.0243521944371704,-0.5073363336248954,0.4940728105290616,-0.482279598868114,0.5156629625982201,0.0,0.0,0.0,0,4.932640456549623e-19,0.9402039116475112,-0.396198987093216,0.1852510389643236,1.0,1.3947262098837404e-05,0.0001062605340639,-0.0002316292232081,0.0,0.0,0.0,0.0001062605340639,0.0068442776825221,-0.0030424353146006,0.0,0.0,0.0,-0.0002316292232081,-0.0030424353146006,0.0041173103528721,0.0,0.0,0.0,0.0,0.0,0.0,0.0,0.0,0.0,0.0,0.0,0.0,0.0,0.0,0.0,0.0,0.0,0.0,0.0,0.0,0.0,0,0,0,1,20,,16
1.999573725,0,1735643777088230371,map,0.9586337491011346,-0.225413444542965,0.0237519255578332,-0.493082669962331,0.5051116749363433,-0.4940997374785531,0.5075402701751319,0.0,0.0,0.0,1,0.10778439310987999,0,1735643777088253974,map,0.9602238143070152,-0.2544552788391047,0.1501167039026151,-0.5070780894576659,0.4917510881717523,-0.4845043661971954,0.5160505766005068,0.0,0.0,0.0,16,0.7929976841808328,0,1735643777088270664,map,0.959569178469905,0.0500592418667608,0.0291297123943032,-0.4860811584903759,0.5017013995158548,-0.4993694662742294,0.5124948284982771,0.0,0.0,0.0,17,7.713920086625265e-07,0,1735643777088284730,map,0.9771302809612568,-0.258344597850652,0.2375379061151728,-0.5034629763066953,0.4916239826190285,-0.4775166770516729,0.5261261391907248,0.0,0.0,0.0,121,0.09921239204950782,0,1735643777088297367,map,0.9926285848230224,0.2045405499491414,0.2454722814292398,0.5072861814773003,-0.4993567948674138,0.4933469047222829,-0.4999123454195406,0.0,0.0,0.0,122,1.441168910196706e-20,0,1735643777088310956,map,0.9878951612926448,0.2036523523083591,0.147359358421262,-0.4794571150446422,0.5069164009598016,-0.4956049158812524,0.517235347424523,0.0,0.0,0.0,124,3.7920304914326192e-16,0,1735643777088322877,map,0.9708918245452682,-0.0279083864150953,0.2434882083279298,-0.5024541078008469,0.5192171929221105,-0.4959082294651318,0.4816932676267098,0.0,0.0,0.0,125,1.6126780939406554e-08,0,1735643777088343858,map,0.9756889692116644,-0.0197198532785388,0.1449115461909298,0.5067416391995472,-0.4991401749412174,0.4951415391806198,-0.4989056554488574,0.0,0.0,0.0,126,4.743140989398922e-06,0,1735644242188269615,map,0.9825726370996696,0.3329500071885981,0.0243521944371704,-0.5073363336248954,0.4940728105290616,-0.482279598868114,0.5156629625982201,0.0,0.0,0.0,0,8.24967049582909e-20,0.9401923466517615,-0.3953966807574078,0.1852545789720799,1.0,1.3285781743331271e-05,0.000101014935245,-0.0002206000790017,0.0,0.0,0.0,0.000101014935245,0.0065312336067696,-0.0028975006390637,0.0,0.0,0.0,-0.0002206000790017,-0.0028975006390637,0.0039212482057494,0.0,0.0,0.0,0.0,0.0,0.0,0.0,0.0,0.0,0.0,0.0,0.0,0.0,0.0,0.0,0.0,0.0,0.0,0.0,0.0,0.0,0,0,0,1,21,,16
2.099241113,0,1735643777088230371,map,0.9586337491011346,-0.225413444542965,0.0237519255578332,-0.493082669962331,0.5051116749363433,-0.4940997374785531,0.5075402701751319,0.0,0.0,0.0,1,0.09483991736472239,0,1735643777088253974,map,0.9575185067333942,-0.2540671694734399,0.1518435523400973,-0.50848043841435,0.4898208027942552,-0.4778287982783348,0.5226881139224656,0.0,0.0,0.0,16,0.8055968506436334,0,1735643777088270664,map,0.9599019268922578,0.0513322863171905,0.0292518712575369,-0.4991615874368197,0.5009006417330885,-0.4921897061786819,0.5076273730510176,0.0,0.0,0.0,17,4.4783903258945584e-07,0,1735643777088284730,map,0.9758403015267704,-0.257924521133831,0.2386711811551259,-0.5063384590631962,0.5059498865143925,-0.4749515720722329,0.511915111513321,0.0,0.0,0.0,121,0.0995587428610378,0,1735643777088297367,map,0.9926285848230224,0.2045405499491414,0.2454722814292398,0.5072861814773003,-0.4993567948674138,0.4933469047222829,-0.4999123454195406,0.0,0.0,0.0,122,6.232183019351622e-21,0,1735643777088310956,map,0.9878951612926448,0.2036523523083591,0.147359358421262,-0.4794571150446422,0.5069164009598016,-0.4956049158812524,0.517235347424523,0.0,0.0,0.0,124,1.7399179872893077e-16,0,1735643777088322877,map,0.9688891932771152,-0.0274266022424327,0.2446263554829839,0.508870143026954,-0.5067176471625218,0.4895191661270911,-0.4946305586839969,0.0,0.0,0.0,125,1.116732517341821e-08,0,1735643777088343858,map,0.9638170998288372,-0.0231163673355579,0.1485342449456301,0.4907588299283396,-0.5016840563406544,0.5172161941913707,-0.489853332056799,0.0,0.0,0.0,126,4.030124248462646e-06,0,1735644242188269615,map,0.9825726370996696,0.3329500071885981,0.0243521944371704,-0.5073363336248954,0.4940728105290616,-0.482279598868114,0.5156629625982201,0.0,0.0,0.0,0,2.2907718342567815e-20,0.9401039756678948,-0.3942177781269485,0.1863300436078384,1.0,1.284588061976185e-05,9.423555078729715e-05,-0.0002125686399109,0.0,0.0,0.0,9.423555078729715e-05,0.0062635453915706,-0.0027391708347115,0.0,0.0,0.0,-0.0002125686399109,-0.0027391708347115,0.0037672987587807,0.0,0.0,0.0,0.0,0.0,0.0,0.0,0.0,0.0,0.0,0.0,0.0,0.0,0.0,0.0,0.0,0.0,0.0,0.0,0.0,0.0,0,0,0,1,22,,16
2.197740498,0,1735643777088230371,map,0.9586337491011346,-0.225413444542965,0.0237519255578332,-0.493082669962331,0.5051116749363433,-0.4940997374785531,0.5075402701751319,0.0,0.0,0.0,1,0.07194676433791918,0,1735643777088253974,map,0.9598815869222994,-0.2547018951147776,0.1514325811717375,-0.509282315294275,0.5106462626430099,-0.4870434797616176,0.492605893792313,0.0,0.0,0.0,16,0.81483561865739,0,1735643777088270664,map,0.9599019268922578,0.0513322863171905,0.0292518712575369,-0.4991615874368197,0.5009006417330885,-0.4921897061786819,0.5076273730510176,0.0,0.0,0.0,17,4.6586776654275634e-07,0,1735643777088284730,map,0.972641568356638,-0.2577780435385515,0.2389518006944167,-0.5000675000176406,0.4851860410346953,-0.4829098990322476,0.5304008205384401,0.0,0.0,0.0,121,0.11321135316543614,0,1735643777088297367,map,0.9926285848230224,0.2045405499491414,0.2454722814292398,0.5072861814773003,-0.4993567948674138,0.4933469047222829,-0.4999123454195406,0.0,0.0,0.0,122,3.304196115934069e-20,0,1735643777088310956,map,0.9878951612926448,0.2036523523083591,0.147359358421262,-0.4794571150446422,0.5069164009598016,-0.4956049158812524,0.517235347424523,0.0,0.0,0.0,124,5.135252212947262e-16,0,1735643777088322877,map,0.9682466541998248,-0.0272582660887743,0.2445504153124124,-0.4979276873444535,0.5096767387833517,-0.5005498219511442,0.4916782645833037,0.0,0.0,0.0,125,2.395197591016633e-08,0,1735643777088343858,map,0.9657658569335236,-0.0221300250270245,0.1480462519501892,-0.5031590227998395,0.5059570870015074,-0.5021439057645994,0.48855902590325,0.0,0.0,0.0,126,5.774019511873728e-06,0,1735644242188269615,map,0.9825726370996696,0.3329500071885981,0.0243521944371704,-0.5073363336248954,0.4940728105290616,-0.482279598868114,0.5156629625982201,0.0,0.0,0.0,0,4.696047275338838e-20,0.9399996354649818,-0.391294126402086,0.1872755459819387,1.0,1.2526875385842412e-05,8.34271558141671e-05,-0.0002054969111427,0.0,0.0,0.0,8.34271558141671e-05,0.0061792675980499,-0.0025592614183618,0.0,0.0,0.0,-0.0002054969111427,-0.0025592614183618,0.0036231706048403,0.0,0.0,0.0,0.0,0.0,0.0,0.0,0.0,0.0,0.0,0.0,0.0,0.0,0.0,0.0,0.0,0.0,0.0,0.0,0.0,0.0,0,0,0,1,23,,16
2.299508645,0,1735643777088230371,map,0.9586337491011346,-0.225413444542965,0.0237519255578332,-0.493082669962331,0.5051116749363433,-0.4940997374785531,0.5075402701751319,0.0,0.0,0.0,1,0.053058703713608914,0,1735643777088253974,map,0.9574382461289844,-0.253495649145894,0.1510871746360348,-0.5076199834367218,0.5103300691569183,-0.4894215723117983,0.4922922886719275,0.0,0.0,0.0,16,0.8075033322402554,0,1735643777088270664,map,0.9599019268922578,0.0513322863171905,0.0292518712575369,-0.4991615874368197,0.5009006417330885,-0.4921897061786819,0.5076273730510176,0.0,0.0,0.0,17,1.0231593692734617e-06,0,1735643777088284730,map,0.971030096800542,-0.25624636281854,0.2387712990567855,-0.4438730049986881,0.6034884565153762,-0.5228430342726565,0.4067107077502205,0.0,0.0,0.0,121,0.13942006482248137,0,1735643777088297367,map,0.9926285848230224,0.2045405499491414,0.2454722814292398,0.5072861814773003,-0.4993567948674138,0.4933469047222829,-0.4999123454195406,0.0,0.0,0.0,122,1.9325488684151694e-18,0,1735643777088310956,map,0.9878951612926448,0.2036523523083591,0.147359358421262,-0.4794571150446422,0.5069164009598016,-0.4956049158812524,0.517235347424523,0.0,0.0,0.0,124,1.1226787819417096e-14,0,1735643777088322877,map,0.9671277865289852,-0.0265273992691442,0.2452310988510266,-0.5023117780569342,0.5095347066594887,-0.4961630912387124,0.4918124106070881,0.0,0.0,0.0,125,1.1735730787411829e-07,0,1735643777088343858,map,0.9642401243856128,-0.0216234161466616,0.1484948125203518,0.5014101697967263,-0.5026102386403742,0.5037955391062257,-0.4920984092790296,0.0,0.0,0.0,126,1.6758706966079006e-05,0,1735644242188269615,map,0.9825726370996696,0.3329500071885981,0.0243521944371704,-0.5073363336248954,0.4940728105290616,-0.482279598868114,0.5156629625982201,0.0,0.0,0.0,0,1.1204428930275525e-18,0.9399051973377052,-0.3867494894846186,0.1877293655353499,1.0,1.221004912208676e-05,7.007972333023409e-05,-0.0001979202708262,0.0,0.0,0.0,7.007972333023409e-05,0.0063968337831648,-0.0024051892887152,0.0,0.0,0.0,-0.0001979202708262,-0.0024051892887152,0.0034769420632743,0.0,0.0,0.0,0.0,0.0,0.0,0.0,0.0,0.0,0.0,0.0,0.0,0.0,0.0,0.0,0.0,0.0,0.0,0.0,0.0,0.0,0,0,0,1,24,,16
2.399080923,0,1735643777088230371,map,0.9586337491011346,-0.225413444542965,0.0237519255578332,-0.493082669962331,0.5051116749363433,-0.4940997374785531,0.5075402701751319,0.0,0.0,0.0,1,0.04217089467272334,0,1735643777088253974,map,0.952632286827858,-0.2522813803673019,0.1521563299279597,-0.5053454360131108,0.4872831964023332,-0.4805420790526237,0.5256047821932618,0.0,0.0,0.0,16,0.7986688952012221,0,1735643777088270664,map,0.9599019268922578,0.0513322863171905,0.0292518712575369,-0.4991615874368197,0.5009006417330885,-0.4921897061786819,0.5076273730510176,0.0,0.0,0.0,17,3.194804915018911e-06,0,1735643777088284730,map,0.9704151655545354,-0.2556358864999671,0.2384030944210725,-0.4904281142250635,0.5127760028661488,-0.4912493514435238,0.50518819302175,0.0,0.0,0.0,121,0.1591074150911664,0,1735643777088297367,map,0.9926285848230224,0.2045405499491414,0.2454722814292398,0.5072861814773003,-0.4993567948674138,0.4933469047222829,-0.4999123454195406,0.0,0.0,0.0,122,7.403894825221396e-17,0,1735643777088310956,map,0.9878951612926448,0.2036523523083591,0.147359358421262,-0.4794571150446422,0.5069164009598016,-0.4956049158812524,0.517235347424523,0.0,0.0,0.0,124,2.592053375360317e-13,0,1735643777088322877,map,0.964774179919292,-0.0247975014212437,0.2442041024652244,0.5126970192101434,-0.5042034472645158,0.4857457299656407,-0.4969625097326346,0.0,0.0,0.0,125,4.6018283700331645e-07,0,1735643777088343858,map,0.9610446844088092,-0.0201960194212575,0.1479259616068553,0.5009792612166165,-0.5002983922810204,0.5034171451494355,-0.4952701045706992,0.0,0.0,0.0,126,4.914004687702589e-05,0,1735644242188269615,map,0.9825726370996696,0.3329500071885981,0.0243521944371704,-0.5073363336248954,0.4940728105290616,-0.482279598868114,0.5156629625982201,0.0,0.0,0.0,0,5.082461794175012e-17,0.9398668888436472,-0.3813026225760152,0.1871505275637924,1.0,1.1756868134411267e-05,6.22686639505414e-05,-0.0001894712741293,0.0,0.0,0.0,6.22686639505414e-05,0.0068530010507192,-0.0023846501985918,0.0,0.0,0.0,-0.0001894712741293,-0.0023846501985918,0.0033459056622789,0.0,0.0,0.0,0.0,0.0,0.0,0.0,0.0,0.0,0.0,0.0,0.0,0.0,0.0,0.0,0.0,0.0,0.0,0.0,0.0,0.0,0,0,0,1,25,,16
2.499193444,0,1735643777088230371,map,0.9586337491011346,-0.225413444542965,0.0237519255578332,-0.493082669962331,0.5051116749363433,-0.4940997374785531,0.5075402701751319,0.0,0.0,0.0,1,0.04612431637850168,0,1735643777088253974,map,0.9547433473307076,-0.253241932607098,0.151036167506867,-0.4878273019690518,0.5001328323321222,-0.5054384139863953,0.5063829412055286,0.0,0.0,0.0,16,0.8137414653006911,0,1735643777088270664,map,0.9599019268922578,0.0513322863171905,0.0292518712575369,-0.4991615874368197,0.5009006417330885,-0.4921897061786819,0.5076273730510176,0.0,0.0,0.0,17,6.7403289745541475e-06,0,1735643777088284730,map,0.9684848019732302,-0.2562674523631245,0.2382017943926375,-0.490056973627108,0.503230822410628,-0.491778100405588,0.514545626681283,0.0,0.0,0.0,121,0.14006089234763236,0,1735643777088297367,map,0.9926285848230224,0.2045405499491414,0.2454722814292398,0.5072861814773003,-0.4993567948674138,0.4933469047222829,-0.4999123454195406,0.0,0.0,0.0,122,7.119115590001949e-17,0,1735643777088310956,map,0.9878951612926448,0.2036523523083591,0.147359358421262,-0.4794571150446422,0.5069164009598016,-0.4956049158812524,0.517235347424523,0.0,0.0,0.0,124,4.585734119426077e-13,0,1735643777088322877,map,0.958833013397391,-0.0275292935093679,0.24423630234868,-0.5057810834665608,0.5165703204109472,-0.4916361196166444,0.4854220077069144,0.0,0.0,0.0,125,4.824621847923195e-07,0,1735643777088343858,map,0.9607686782272222,-0.0204461865768535,0.1474677536485294,0.4981059747014424,-0.4972999698637416,0.5049184570926603,-0.499640400315482,0.0,0.0,0.0,126,6.610318155658228e-05,0,1735644242188269615,map,0.9825726370996696,0.3329500071885981,0.0243521944371704,-0.5073363336248954,0.4940728105290616,-0.482279598868114,0.5156629625982201,0.0,0.0,0.0,0,2.2865837805139637e-16,0.9399629505592416,-0.3765430526179495,0.1847024073388862,1.0,1.1535377228545603e-05,7.130402672863655e-05,-0.0001880631831517,0.0,0.0,0.0,7.130402672863655e-05,0.007155761741873,-0.0025842328701663,0.0,0.0,0.0,-0.0001880631831517,-0.0025842328701663,0.0033670492988504,0.0,0.0,0.0,0.0,0.0,0.0,0.0,0.0,0.0,0.0,0.0,0.0,0.0,0.0,0.0,0.0,0.0,0.0,0.0,0.0,0.0,0,0,0,1,26,,16
