%time,field.boxes0.header.seq,field.boxes0.header.stamp,field.boxes0.header.frame_id,field.boxes0.pose.position.x,field.boxes0.pose.position.y,field.boxes0.pose.position.z,field.boxes0.pose.orientation.x,field.boxes0.pose.orientation.y,field.boxes0.pose.orientation.z,field.boxes0.pose.orientation.w,field.boxes0.scale.x,field.boxes0.scale.y,field.boxes0.scale.z,field.boxes0.id,field.boxes0.pdf,field.boxes1.header.seq,field.boxes1.header.stamp,field.boxes1.header.frame_id,field.boxes1.pose.position.x,field.boxes1.pose.position.y,field.boxes1.pose.position.z,field.boxes1.pose.orientation.x,field.boxes1.pose.orientation.y,field.boxes1.pose.orientation.z,field.boxes1.pose.orientation.w,field.boxes1.scale.x,field.boxes1.scale.y,field.boxes1.scale.z,field.boxes1.id,field.boxes1.pdf,field.boxes2.header.seq,field.boxes2.header.stamp,field.boxes2.header.frame_id,field.boxes2.pose.position.x,field.boxes2.pose.position.y,field.boxes2.pose.position.z,field.boxes2.pose.orientation.x,field.boxes2.pose.orientation.y,field.boxes2.pose.orientation.z,field.boxes2.pose.orientation.w,field.boxes2.scale.x,field.boxes2.scale.y,field.boxes2.scale.z,field.boxes2.id,field.boxes2.pdf,field.boxes3.header.seq,field.boxes3.header.stamp,field.boxes3.header.frame_id,field.boxes3.pose.position.x,field.boxes3.pose.position.y,field.boxes3.pose.position.z,field.boxes3.pose.orientation.x,field.boxes3.pose.orientation.y,field.boxes3.pose.orientation.z,field.boxes3.pose.orientation.w,field.boxes3.scale.x,field.boxes3.scale.y,field.boxes3.scale.z,field.boxes3.id,field.boxes3.pdf,field.boxes4.header.seq,field.boxes4.header.stamp,field.boxes4.header.frame_id,field.boxes4.pose.position.x,field.boxes4.pose.position.y,field.boxes4.pose.position.z,field.boxes4.pose.orientation.x,field.boxes4.pose.orientation.y,field.boxes4.pose.orientation.z,field.boxes4.pose.orientation.w,field.boxes4.scale.x,field.boxes4.scale.y,field.boxes4.scale.z,field.boxes4.id,field.boxes4.pdf,field.boxes5.header.seq,field.boxes5.header.stamp,field.boxes5.header.frame_id,field.boxes5.pose.position.x,field.boxes5.pose.position.y,field.boxes5.pose.position.z,field.boxes5.pose.orientation.x,field.boxes5.pose.orientation.y,field.boxes5.pose.orientation.z,field.boxes5.pose.orientation.w,field.boxes5.scale.x,field.boxes5.scale.y,field.boxes5.scale.z,field.boxes5.id,field.boxes5.pdf,field.boxes6.header.seq,field.boxes6.header.stamp,field.boxes6.header.frame_id,field.boxes6.pose.position.x,field.boxes6.pose.position.y,field.boxes6.pose.position.z,field.boxes6.pose.orientation.x,field.boxes6.pose.orientation.y,field.boxes6.pose.orientation.z,field.boxes6.pose.orientation.w,field.boxes6.scale.x,field.boxes6.scale.y,field.boxes6.scale.z,field.boxes6.id,field.boxes6.pdf,field.boxes7.header.seq,field.boxes7.header.stamp,field.boxes7.header.frame_id,field.boxes7.pose.position.x,field.boxes7.pose.position.y,field.boxes7.pose.position.z,field.boxes7.pose.orientation.x,field.boxes7.pose.orientation.y,field.boxes7.pose.orientation.z,field.boxes7.pose.orientation.w,field.boxes7.scale.x,field.boxes7.scale.y,field.boxes7.scale.z,field.boxes7.id,field.boxes7.pdf,field.boxes8.header.seq,field.boxes8.header.stamp,field.boxes8.header.frame_id,field.boxes8.pose.position.x,field.boxes8.pose.position.y,field.boxes8.pose.position.z,field.boxes8.pose.orientation.x,field.boxes8.pose.orientation.y,field.boxes8.pose.orientation.z,field.boxes8.pose.orientation.w,field.boxes8.scale.x,field.boxes8.scale.y,field.boxes8.scale.z,field.boxes8.id,field.boxes8.pdf,field.pose.pose.position.x,field.pose.pose.position.y,field.pose.pose.position.z,field.pose.pose.orientation.w,field.pose.covariance0,field.pose.covariance1,field.pose.covariance2,field.pose.covariance3,field.pose.covariance4,field.pose.covariance5,field.pose.covariance6,field.pose.covariance7,field.pose.covariance8,field.pose.covariance9,field.pose.covariance10,field.pose.covariance11,field.pose.covariance12,field.pose.covariance13,field.pose.covariance14,field.pose.covariance15,field.pose.covariance16,field.pose.covariance17,field.pose.covariance18,field.pose.covariance19,field.pose.covariance20,field.pose.covariance21,field.pose.covariance22,field.pose.covariance23,field.pose.covariance24,field.pose.covariance25,field.pose.covariance26,field.pose.covariance27,field.pose.covariance28,field.pose.covariance29,field.pose.covariance30,field.pose.covariance31,field.pose.covariance32,field.pose.covariance33,field.pose.covariance34,field.pose.covariance35,field.buttons0,field.buttons1,field.buttons2,field.buttons3,intersection_length,vacuum,desired_box
0.0,0,1735643777088230371,map,0.977031876110089,-0.2203360622092774,0.0231094493257789,-0.4897252286179562,0.494644665807726,-0.5000853227800188,0.515180089855051,0.0,0.0,0.0,1,0.1111111111111111,0,1735643777088253974,map,0.9839350122594108,-0.2500337690901816,0.1489451220600975,-0.4275607777920294,0.6811783438201952,-0.4987676816277485,0.3231387395035325,0.0,0.0,0.0,16,0.1111111111111111,0,1735643777088270664,map,0.990128845880992,0.0568068171445136,0.0248396855706453,0.508282536935473,-0.5036729285216638,0.4883771392866777,-0.499449910945043,0.0,0.0,0.0,17,0.1111111111111111,0,1735643777088284730,map,1.0149941451096414,-0.2581972989101255,0.2376679775239769,0.3667467186220959,-0.5810569493393333,0.606584256440122,-0.3999064963755618,0.0,0.0,0.0,121,0.1111111111111111,0,1735643777088297367,map,1.0190349941547483,0.2097423963868228,0.243180724504031,-0.5124808570188261,0.4933765877541761,-0.4885907949367734,0.5051949613251774,0.0,0.0,0.0,122,0.1111111111111111,0,1735643777088310956,map,1.0091148160563637,0.2087459585603431,0.1448814720920374,-0.5012395425495147,0.500080609289644,-0.4730274936041455,0.5243312841056044,0.0,0.0,0.0,124,0.1111111111111111,0,1735643777088322877,map,0.99980581019046,-0.0273272330239745,0.2429590347214729,-0.5005652515185055,0.5071543884822565,-0.49783296989153,0.4943593726272242,0.0,0.0,0.0,125,0.1111111111111111,0,1735643777088343858,map,0.9999034508683972,-0.0209429761127112,0.1458214466630393,-0.5062083108329818,0.4981286042314665,-0.4946719911885813,0.500919814764354,0.0,0.0,0.0,126,0.1111111111111111,0,1735644242188269615,map,0.9809749439056332,0.3351247209064001,0.0245267020529077,-0.5130862368596197,0.4898817759885527,-0.4739786578667824,0.5216345377621576,0.0,0.0,0.0,0,0.1111111111111111,0.9386733672065596,-0.3546797327037861,0.1994098827425132,1.0,0.0,0.0,0.0,0.0,0.0,0.0,0.0,0.0,0.0,0.0,0.0,0.0,0.0,0.0,0.0,0.0,0.0,0.0,0.0,0.0,0.0,0.0,0.0,0.0,0.0,0.0,0.0,0.0,0.0,0.0,0.0,0.0,0.0,0.0,0.0,0.0,0,0,0,1,1,,16
0.100496115,0,1735643777088230371,map,0.9804287242236068,-0.2216799511115651,0.0232081508860127,-0.496246506785344,0.4890703838356822,-0.4938627209277253,0.52023953813222,0.0,0.0,0.0,1,,0,1735643777088253974,map,0.9711914263111722,-0.2478769771971863,0.1503894995092777,-0.5027917233349848,0.469425446468408,-0.4863364813404801,0.5388107831800811,0.0,0.0,0.0,16,,0,1735643777088270664,map,0.9911147217019212,0.0555173626237644,0.0252564835050092,-0.4910076188103875,0.4854828582680595,-0.4892216093293531,0.5328040254758087,0.0,0.0,0.0,17,,0,1735643777088284730,map,1.0133742942210038,-0.2584387817944212,0.2379362178631313,0.3466881383883645,-0.5800268796086976,0.627094251595101,-0.3874647767844034,0.0,0.0,0.0,121,,0,1735643777088297367,map,1.0214693130023325,0.2096830944156754,0.2436347854822911,-0.5108451353667797,0.4930886188090997,-0.4900126680889274,0.5057553230420827,0.0,0.0,0.0,122,,0,1735643777088310956,map,1.0080246397967765,0.2068246329107964,0.145424810640353,-0.4828066340165088,0.4895496389071566,-0.4838857537761508,0.5413810880405849,0.0,0.0,0.0,124,,0,1735643777088322877,map,1.0025772466681355,-0.027465528935152,0.2434160050939066,-0.5009721273662239,0.5008039850801675,-0.4979194378576345,0.5002984404668083,0.0,0.0,0.0,125,,0,1735643777088343858,map,0.997072082261676,-0.0220399325529147,0.1468266425536191,0.4647979596721885,-0.5066123806611577,0.542959260600482,-0.4821846054921112,0.0,0.0,0.0,126,,0,1735644242188269615,map,0.9825097675355496,0.3352564362868207,0.0247494056438404,-0.512525152561322,0.4900454279256904,-0.4744963980133813,0.5215617075988684,0.0,0.0,0.0,0,,0.9392827017177516,-0.3665929186592721,0.1927956202655314,1.0,3.71288546529384e-07,-7.259115340923405e-06,-4.030298393306187e-06,0.0,0.0,0.0,-7.259115340923405e-06,0.0001419239996099,7.879693884667817e-05,0.0,0.0,0.0,-4.030298393306187e-06,7.879693884667817e-05,4.374846811441011e-05,0.0,0.0,0.0,0.0,0.0,0.0,0.0,0.0,0.0,0.0,0.0,0.0,0.0,0.0,0.0,0.0,0.0,0.0,0.0,0.0,0.0,0,0,0,1,2,,16
0.199316097,0,1735643777088230371,map,0.9828286814432856,-0.2223290551414769,0.0221267930438707,-0.4898630097886954,0.5134100946071584,-0.4978321428049677,0.4986055194103285,0.0,0.0,0.0,1,0.0,0,1735643777088253974,map,0.9790401060412228,-0.2496371884977058,0.1496485300360271,-0.3993151873250636,0.6816445992237989,-0.5277178782909344,0.3121247546297636,0.0,0.0,0.0,16,1.2118029786795596e-18,0,1735643777088270664,map,0.9832905001895236,0.0537225796456248,0.0274232277800376,-0.4966308743900599,0.482396326835386,-0.4911993052913264,0.5285591744919484,0.0,0.0,0.0,17,0.0,0,1735643777088284730,map,1.010294896562667,-0.2581596236949371,0.2380926303489183,-0.4821868705621446,0.4844435026734505,-0.5044122924804894,0.5276159150078222,0.0,0.0,0.0,121,0.9999999999999786,0,1735643777088297367,map,1.006157068494323,0.2027104103048547,0.2432695145625754,-0.4989145119613042,0.4877519802477405,-0.5004722071185636,0.5125523245686188,0.0,0.0,0.0,122,0.0,0,1735643777088310956,map,1.0089822742484895,0.2075517742987541,0.1453759878609108,-0.4850406981705045,0.5059916606553528,-0.4870264515267561,0.5210692813616671,0.0,0.0,0.0,124,0.0,0,1735643777088322877,map,0.9943713088806552,-0.0285423336746874,0.2438384309188168,-0.5247766405784481,0.5449479883760483,-0.4679162967838628,0.4568320333253486,0.0,0.0,0.0,125,2.140246941459523e-14,0,1735643777088343858,map,1.0039121364342425,-0.0216909276694988,0.1459658996688561,0.5075479750162939,-0.5004584137051337,0.4934389967749352,-0.4984519893333219,0.0,0.0,0.0,126,0.0,0,1735644242188269615,map,0.9762221809210678,0.32946823306329,0.0269560068167042,0.8544820237809041,-0.1894965416290878,0.0956827430497878,-0.4741269286049613,0.0,0.0,0.0,0,0.0,0.9396907930389232,-0.3917399034936152,0.1920008388732527,1.0,5.806027505174013e-07,-2.536394275634025e-05,-3.335552372372687e-06,0.0,0.0,0.0,-2.536394275634025e-05,0.0013593576922573,9.250400380095394e-05,0.0,0.0,0.0,-3.335552372372687e-06,9.250400380095394e-05,3.042900033263172e-05,0.0,0.0,0.0,0.0,0.0,0.0,0.0,0.0,0.0,0.0,0.0,0.0,0.0,0.0,0.0,0.0,0.0,0.0,0.0,0.0,0.0,0,0,0,1,3,,16
0.299263506,0,1735643777088230371,map,0.9890525057539102,-0.2241440844219489,0.020681023797438,-0.4818129418895047,0.5335667651396592,-0.5143002705029429,0.4676088407277822,0.0,0.0,0.0,1,0.0,0,1735643777088253974,map,0.9838100564744576,-0.2520557955056372,0.1494175773232705,-0.5037912797613735,0.4915320493899426,-0.4966697336699822,0.5078481727003747,0.0,0.0,0.0,16,2.1967938287019685e-31,0,1735643777088270664,map,0.9875239003880693,0.0538307636699223,0.0268415079455567,-0.4818894414325697,0.516425411451113,-0.5112322103859392,0.4896212696638715,0.0,0.0,0.0,17,0.0,0,1735643777088284730,map,1.0102037430780042,-0.2588539188664602,0.2383225844328705,-0.4955264752543645,0.5174868773344365,-0.4760050230221665,0.5099804527296187,0.0,0.0,0.0,121,0.4978899845670499,0,1735643777088297367,map,1.009680366065483,0.2036430609379914,0.2438432308696417,0.4900760042399253,-0.5017995280555976,0.5098747643316431,-0.498046652844048,0.0,0.0,0.0,122,1.2433153169092225e-16,0,1735643777088310956,map,1.0064833341216102,0.2055131235830515,0.1459394284132791,-0.476543003133324,0.4993362141686538,-0.4920898128468621,0.5304881973020035,0.0,0.0,0.0,124,0.0,0,1735643777088322877,map,0.999312016654724,-0.0288596248168045,0.2436207520531663,-0.5774371318521602,0.4331614056823445,-0.4076815021516935,0.5592256683924526,0.0,0.0,0.0,125,0.5021100154329501,0,1735643777088343858,map,1.003747380077319,-0.0224825979387009,0.1460920015584386,-0.4824933425531542,0.482504348524273,-0.5196769099578975,0.5141260908606594,0.0,0.0,0.0,126,0.0,0,1735644242188269615,map,0.9725488570868532,0.3264452355847295,0.0283655561644267,-0.498462453991667,0.4921816875310753,-0.4834963620365701,0.5249034542819,0.0,0.0,0.0,0,0.0,0.9403558183876668,-0.4217977140149835,0.1883932401519051,1.0,1.7622282063028144e-06,-7.899057484058391e-05,-9.699098072653214e-06,0.0,0.0,0.0,-7.899057484058391e-05,0.0037299341892084,0.0003946875592609,0.0,0.0,0.0,-9.699098072653214e-06,0.0003946875592609,6.186605585227927e-05,0.0,0.0,0.0,0.0,0.0,0.0,0.0,0.0,0.0,0.0,0.0,0.0,0.0,0.0,0.0,0.0,0.0,0.0,0.0,0.0,0.0,0,0,0,1,4,,16
0.399100959,0,1735643777088230371,map,0.9815889049221966,-0.2231427975090929,0.0221639482409794,-0.4861427157942729,0.5021671920066685,-0.5046125676076784,0.5068131093062734,0.0,0.0,0.0,1,0.0,0,1735643777088253974,map,0.980527290810125,-0.2515937624111768,0.1491851712742519,-0.4949664540554509,0.4675990152094051,-0.4937985879107666,0.5408533303145139,0.0,0.0,0.0,16,0.0,0,1735643777088270664,map,0.9982717010744782,0.0553042425752645,0.0237469034840228,-0.5007654600917549,0.5027987523907557,-0.4876164059792764,0.5085839254176694,0.0,0.0,0.0,17,0.0,0,1735643777088284730,map,1.0179353842038068,-0.2619352290251733,0.2387656646310104,-0.499021547720066,0.5030073369655685,-0.4966225044419006,0.501325445146893,0.0,0.0,0.0,121,0.0003997818481539158,0,1735643777088297367,map,1.0166060891809912,0.2059213511386095,0.2439340252005408,-0.5024790702558339,0.4926627920073542,-0.4971482730700851,0.5075842313446925,0.0,0.0,0.0,122,7.746904033444732e-12,0,1735643777088310956,map,1.0129544096929957,0.2074603178032406,0.1456315579765438,-0.4965201304903039,0.5128227108143628,-0.4742608092730859,0.515322532088921,0.0,0.0,0.0,124,0.0,0,1735643777088322877,map,1.0036714120708867,-0.0295520105349176,0.2440320186709901,0.4430282050474157,-0.5106579747029325,0.5458491000721418,-0.4949779816872636,0.0,0.0,0.0,125,0.9996002181440992,0,1735643777088343858,map,1.0145474311127236,-0.0217172753901614,0.1455283572255798,-0.5049813271592568,0.5068969257806191,-0.4970898770039532,0.4908676196642304,0.0,0.0,0.0,126,0.0,0,1735644242188269615,map,0.9725488570868532,0.3264452355847295,0.0283655561644267,-0.498462453991667,0.4921816875310753,-0.4834963620365701,0.5249034542819,0.0,0.0,0.0,0,0.0,0.9408251611663272,-0.4449879958570085,0.1862657416353076,1.0,2.290913140565112e-06,-0.000106729225143,-1.175338271962609e-05,0.0,0.0,0.0,-0.000106729225143,0.0051351040390169,0.0005130992082822,0.0,0.0,0.0,-1.175338271962609e-05,0.0005130992082822,6.759784443432228e-05,0.0,0.0,0.0,0.0,0.0,0.0,0.0,0.0,0.0,0.0,0.0,0.0,0.0,0.0,0.0,0.0,0.0,0.0,0.0,0.0,0.0,0,0,0,1,5,,16
0.500368961,0,1735643777088230371,map,0.979249807821726,-0.2234516772646193,0.0238203500454087,-0.4902021014366068,0.4888827792293906,-0.5019169381769945,0.5184350635239797,0.0,0.0,0.0,1,4.2180256031140895e-05,0,1735643777088253974,map,0.9782307246610532,-0.2514479308566217,0.1506081976417307,-0.4128804065426696,0.6827554672042704,-0.5142419395521801,0.3145313489963287,0.0,0.0,0.0,16,0.37051993959050006,0,1735643777088270664,map,0.9994938571536064,0.057243391855478,0.022798001474795,-0.526365072646609,0.5023153539887923,-0.4626547076971609,0.5065271136775399,0.0,0.0,0.0,17,1.4363356922494602e-14,0,1735643777088284730,map,1.0047615428604026,-0.2583782707052257,0.2385469804030428,-0.4905836719075107,0.4634795003369281,-0.4997513564816574,0.5429208002277297,0.0,0.0,0.0,121,0.6294377623721339,0,1735643777088297367,map,1.0166060891809912,0.2059213511386095,0.2439340252005408,-0.5024790702558339,0.4926627920073542,-0.4971482730700851,0.5075842313446925,0.0,0.0,0.0,122,3.4506360955455984e-20,0,1735643777088310956,map,1.0050928472841982,0.2063476090804068,0.1461310339568136,-0.4691284364059705,0.5037954459156878,-0.5024683747300036,0.5231005555589587,0.0,0.0,0.0,124,7.781135484790706e-20,0,1735643777088322877,map,0.9998343937308908,-0.0284413081041373,0.2444705817227369,-0.4914217598514837,0.5462441885532335,-0.5013842416232284,0.4568761130418072,0.0,0.0,0.0,125,6.434432812308533e-08,0,1735643777088343858,map,0.9991014883352896,-0.0223588139459931,0.1471654826701969,0.4731089661848536,-0.5119923498415282,0.5342776973584176,-0.4780994477351302,0.0,0.0,0.0,126,5.3436992432229407e-08,0,1735644242188269615,map,0.9725488570868532,0.3264452355847295,0.0283655561644267,-0.498462453991667,0.4921816875310753,-0.4834963620365701,0.5249034542819,0.0,0.0,0.0,0,1.7990940339725687e-30,0.9396865775331514,-0.4519553295447313,0.2048133060347182,1.0,8.39095773248494e-06,-4.92765604339904e-05,-0.0001153842519019,0.0,0.0,0.0,-4.92765604339904e-05,0.0045219720594278,-0.0002185526777575,0.0,0.0,0.0,-0.0001153842519019,-0.0002185526777575,0.00177639226278,0.0,0.0,0.0,0.0,0.0,0.0,0.0,0.0,0.0,0.0,0.0,0.0,0.0,0.0,0.0,0.0,0.0,0.0,0.0,0.0,0.0,0,0,0,1,6,,16
0.599229459,0,1735643777088230371,map,0.9805589422437128,-0.2239480861863964,0.0241871126377556,-0.4839897964204555,0.4860177538630321,-0.5083089396689673,0.5207327930363416,0.0,0.0,0.0,1,2.2077649254203157e-05,0,1735643777088253974,map,0.9762835510611484,-0.2514853316850091,0.1514402130472324,-0.5113148527806589,0.4874700740199184,-0.4696562121006356,0.529483796443471,0.0,0.0,0.0,16,0.4088516130721891,0,1735643777088270664,map,0.9980540640191352,0.0571217905787976,0.023813097566245,-0.5134192647874289,0.4897549785588163,-0.4730306135540888,0.52228608842533,0.0,0.0,0.0,17,1.5842448035695182e-16,0,1735643777088284730,map,1.0013612647347188,-0.2577832752201702,0.2394022016573678,0.5405194985393567,-0.5200305078638101,0.4367348737073835,-0.4966584265644406,0.0,0.0,0.0,121,0.5911263014508891,0,1735643777088297367,map,1.013574207522264,0.2081266335921154,0.2452054906954439,0.5175547282621104,-0.4937287783797936,0.4926383318316398,-0.4956576143501366,0.0,0.0,0.0,122,1.4794561666730233e-23,0,1735643777088310956,map,1.0064436620335913,0.2077600305549229,0.1467643535556343,-0.4874918110666394,0.5124721486262006,-0.4824276232122433,0.516708447180031,0.0,0.0,0.0,124,4.459671661562303e-23,0,1735643777088322877,map,0.994426123391364,-0.0291849908192813,0.2451671092505143,-0.4905643397147024,0.5368532673751687,-0.5029166137701431,0.467129615313412,0.0,0.0,0.0,125,4.6514173013311e-09,0,1735643777088343858,map,1.007628465838055,-0.0208372645752649,0.1465218505987996,0.5128008278307623,-0.5124423843740878,0.4933652525590545,-0.4806545966080268,0.0,0.0,0.0,126,3.1762501582429612e-09,0,1735644242188269615,map,0.9725488570868532,0.3264452355847295,0.0283655561644267,-0.498462453991667,0.4921816875310753,-0.4834963620365701,0.5249034542819,0.0,0.0,0.0,0,2.9741771151775146e-35,0.939965467218066,-0.4529444468239237,0.2008409433093719,1.0,7.658926223097496e-06,-4.389217943858832e-05,-0.0001055478932775,0.0,0.0,0.0,-4.389217943858832e-05,0.0038818461688901,-0.0001637560709841,0.0,0.0,0.0,-0.0001055478932775,-0.0001637560709841,0.001617299933256,0.0,0.0,0.0,0.0,0.0,0.0,0.0,0.0,0.0,0.0,0.0,0.0,0.0,0.0,0.0,0.0,0.0,0.0,0.0,0.0,0.0,0,0,0,1,7,,16
0.69893891,0,1735643777088230371,map,0.9813162477608928,-0.2246225546797562,0.0227365756122444,-0.4969367723172183,0.4980141126813581,-0.4883281885405217,0.5163054988724,0.0,0.0,0.0,1,1.5639372080415812e-05,0,1735643777088253974,map,0.9828170488375408,-0.2536781239388252,0.1496390550065209,-0.5163598736091313,0.4717499629492737,-0.482345452860058,0.5274156970445103,0.0,0.0,0.0,16,0.305768853712172,0,1735643777088270664,map,0.9929021655934228,0.055469712733485,0.0246733330414966,-0.4974089720210585,0.4971823969100774,-0.4841890078063539,0.520533364420767,0.0,0.0,0.0,17,1.181223765213741e-18,0,1735643777088284730,map,1.0006846587316032,-0.2582455609422318,0.2384461589165503,-0.5225032365012641,0.5150800606011221,-0.4506529321034181,0.5085222058115465,0.0,0.0,0.0,121,0.6942155052849712,0,1735643777088297367,map,1.0007078584213374,0.2010959434806849,0.2439022433976044,-0.4937502600407159,0.5069811681775345,-0.5054488637992189,0.4936620523264335,0.0,0.0,0.0,122,1.6229370425920884e-24,0,1735643777088310956,map,1.0040461215822578,0.2066020243778928,0.1460981608784863,-0.4837222404485904,0.5049509261143088,-0.483498256661023,0.5265612899914401,0.0,0.0,0.0,124,1.0182089109302199e-25,0,1735643777088322877,map,1.0033135652327616,-0.0275464902317954,0.2443310033966075,-0.441769931027601,0.5035364122063335,-0.5416534301721971,0.5078404977991958,0.0,0.0,0.0,125,1.3843896265211226e-09,0,1735643777088343858,map,0.9988025220300488,-0.0227630771439447,0.146769503889304,0.6806110870778724,-0.4321971034415179,0.3203089763120276,-0.4973694518337244,0.0,0.0,0.0,126,2.463867862258721e-10,0,1735644242188269615,map,0.9725488570868532,0.3264452355847295,0.0283655561644267,-0.498462453991667,0.4921816875310753,-0.4834963620365701,0.5249034542819,0.0,0.0,0.0,0,3.220582806113936e-40,0.940589166042676,-0.458408822672686,0.1926459063725537,1.0,9.424562011949726e-06,-6.226253056746723e-05,-0.0001281330509537,0.0,0.0,0.0,-6.226253056746723e-05,0.0036056312216946,0.0001701787713097,0.0,0.0,0.0,-0.0001281330509537,0.0001701787713097,0.0018852478543697,0.0,0.0,0.0,0.0,0.0,0.0,0.0,0.0,0.0,0.0,0.0,0.0,0.0,0.0,0.0,0.0,0.0,0.0,0.0,0.0,0.0,0,0,0,1,8,,16
0.801049443,0,1735643777088230371,map,0.9748192373688772,-0.2244967198619072,0.0230141871623611,-0.495738638709892,0.4935876986953603,-0.4931601179765332,0.5171145751417702,0.0,0.0,0.0,1,1.1439430818054086e-05,0,1735643777088253974,map,0.9777775751631408,-0.2536522568001919,0.149328932526037,-0.5356687643031246,0.4945461151978115,-0.4563348832420051,0.5101387940837495,0.0,0.0,0.0,16,0.23481339948975863,0,1735643777088270664,map,0.9902001338282808,0.0552837017014171,0.0234175955690847,-0.4971762861491044,0.5121585159118487,-0.4943162027650825,0.4961460336976067,0.0,0.0,0.0,17,7.033570542680507e-21,0,1735643777088284730,map,0.9999314947768672,-0.2587215618535096,0.2374451553870269,-0.4899885991554628,0.4690905988937706,-0.490112779136964,0.5474072035092272,0.0,0.0,0.0,121,0.7651751607655574,0,1735643777088297367,map,1.0007078584213374,0.2010959434806849,0.2439022433976044,-0.4937502600407159,0.5069811681775345,-0.5054488637992189,0.4936620523264335,0.0,0.0,0.0,122,1.1929637339059313e-26,0,1735643777088310956,map,1.0040461215822578,0.2066020243778928,0.1460981608784863,-0.4837222404485904,0.5049509261143088,-0.483498256661023,0.5265612899914401,0.0,0.0,0.0,124,1.091152057721265e-28,0,1735643777088322877,map,0.9931539633014774,-0.0291200707469106,0.2433384310533265,-0.4896426548247348,0.5383791064241801,-0.5046151595240135,0.464501398405475,0.0,0.0,0.0,125,3.0244153081604607e-10,0,1735643777088343858,map,0.9989300663373584,-0.0215826250735477,0.1452140553974765,0.4878126205301539,-0.4920899806862497,0.5220021084925944,-0.4973933020146094,0.0,0.0,0.0,126,1.142437547299883e-11,0,1735644242188269615,map,0.9725488570868532,0.3264452355847295,0.0283655561644267,-0.498462453991667,0.4921816875310753,-0.4834963620365701,0.5249034542819,0.0,0.0,0.0,0,0.0,0.94114979551175,-0.4626867422607111,0.1851453517975221,1.0,1.0891831667820616e-05,-7.45310939145352e-05,-0.0001475363007255,0.0,0.0,0.0,-7.45310939145352e-05,0.0033514102984081,0.0004079641736425,0.0,0.0,0.0,-0.0001475363007255,0.0004079641736425,0.0021258424220151,0.0,0.0,0.0,0.0,0.0,0.0,0.0,0.0,0.0,0.0,0.0,0.0,0.0,0.0,0.0,0.0,0.0,0.0,0.0,0.0,0.0,0,0,0,1,9,,16
0.900691227,0,1735643777088230371,map,0.977645462068228,-0.2246395493771674,0.0215976377975177,-0.4879424776636926,0.4970017954127149,-0.5114184371206791,0.5033413712591062,0.0,0.0,0.0,1,0.00011930933155005117,0,1735643777088253974,map,0.979424521166899,-0.2537747445518665,0.1486348699367887,-0.5137652185086014,0.4986835835537266,-0.48075462561291,0.506196576140746,0.0,0.0,0.0,16,0.2820553584327371,0,1735643777088270664,map,0.9786440834170804,0.0520237503335843,0.0267386878888873,-0.4772474844614199,0.5080320273965441,-0.5108551027395986,0.5031554051379344,0.0,0.0,0.0,17,6.473774938380825e-21,0,1735643777088284730,map,1.0005767427672991,-0.2586564327198067,0.2373733944823879,-0.4942454138837183,0.4612105860144644,-0.4954822168324505,0.5454389415928308,0.0,0.0,0.0,121,0.7178253322164947,0,1735643777088297367,map,1.0007078584213374,0.2010959434806849,0.2439022433976044,-0.4937502600407159,0.5069811681775345,-0.5054488637992189,0.4936620523264335,0.0,0.0,0.0,122,1.4637905554371143e-29,0,1735643777088310956,map,0.9950013777017344,0.2051593351422844,0.1455247673554863,-0.4760802922600325,0.5071346650293598,-0.4975940151651313,0.5182298552949309,0.0,0.0,0.0,124,2.374217831561844e-31,0,1735643777088322877,map,0.9984684056832538,-0.0267230404454177,0.2431683548119522,-0.494983058545251,0.512478192016897,-0.5025705698913108,0.489674071949296,0.0,0.0,0.0,125,1.8115179871537717e-11,0,1735643777088343858,map,0.9971148412797312,-0.0208153787051968,0.145390328297957,-0.4994053778278155,0.5091243017284095,-0.5043569585408934,0.4868375215178018,0.0,0.0,0.0,126,1.1028609473298706e-12,0,1735644242188269615,map,0.9725488570868532,0.3264452355847295,0.0283655561644267,-0.498462453991667,0.4921816875310753,-0.4834963620365701,0.5249034542819,0.0,0.0,0.0,0,0.0,0.9419466944508657,-0.4642060459350456,0.173518001466638,1.0,1.551807977351087e-05,-7.79745678995257e-05,-0.0002161750789436,0.0,0.0,0.0,-7.79745678995257e-05,0.0030370438214609,0.0005261570410027,0.0,0.0,0.0,-0.0002161750789436,0.0005261570410027,0.0031300156612675,0.0,0.0,0.0,0.0,0.0,0.0,0.0,0.0,0.0,0.0,0.0,0.0,0.0,0.0,0.0,0.0,0.0,0.0,0.0,0.0,0.0,0,0,0,1,10,,16
0.999182017,0,1735643777088230371,map,0.9732454750130572,-0.2246523715896967,0.0234131004689103,-0.4901080311303584,0.498616246795375,-0.5086300222136704,0.5024653786641813,0.0,0.0,0.0,1,0.0013132649757674874,0,1735643777088253974,map,0.9777430985294964,-0.2539987366633731,0.1489718155449535,-0.5386729330498439,0.4948083174069225,-0.45262787001489,0.510023736222338,0.0,0.0,0.0,16,0.3950316778478762,0,1735643777088270664,map,0.9836875674584278,0.0539600530897038,0.0253327143630926,-0.5042472617555256,0.5033123148945094,-0.4911509006161673,0.501180811196431,0.0,0.0,0.0,17,6.416895809641276e-21,0,1735643777088284730,map,1.0008250800796377,-0.2588457301937206,0.2379302475189517,-0.4927101768511174,0.4842063438400255,-0.4889062067089175,0.5326834137214275,0.0,0.0,0.0,121,0.6036550571743114,0,1735643777088297367,map,1.0063286415297186,0.2089966193759656,0.24368181707299,-0.5042610155797406,0.4935459261615257,-0.4957169325853271,0.5063575512264482,0.0,0.0,0.0,122,4.941423130400017e-33,0,1735643777088310956,map,0.9941972181575934,0.2052535236461047,0.1459973817842411,-0.4752622243935171,0.507632317482853,-0.4985006853073427,0.517621787659314,0.0,0.0,0.0,124,2.4314645388913713e-33,0,1735643777088322877,map,0.9948582972282662,-0.0273174147298538,0.2435791435326555,-0.4789500097744379,0.5228628299456001,-0.5178536073911951,0.4785906293590278,0.0,0.0,0.0,125,1.7171257037557436e-12,0,1735643777088343858,map,0.9917678967773378,-0.0219743032562793,0.1461874282150366,0.4869377109538966,-0.5165731307779919,0.5190528859966056,-0.4760545848406442,0.0,0.0,0.0,126,3.2778149633614747e-13,0,1735644242188269615,map,0.9725488570868532,0.3264452355847295,0.0283655561644267,-0.498462453991667,0.4921816875310753,-0.4834963620365701,0.5249034542819,0.0,0.0,0.0,0,0.0,0.9427535303377595,-0.4636093883667531,0.1612936454148389,1.0,2.061718673244754e-05,-6.607192343489737e-05,-0.0002951532906072,0.0,0.0,0.0,-6.607192343489737e-05,0.0027645089311388,0.0004053870371716,0.0,0.0,0.0,-0.0002951532906072,0.0004053870371716,0.0043398175917821,0.0,0.0,0.0,0.0,0.0,0.0,0.0,0.0,0.0,0.0,0.0,0.0,0.0,0.0,0.0,0.0,0.0,0.0,0.0,0.0,0.0,0,0,0,1,11,,16
1.097704578,0,1735643777088230371,map,0.9768487624423596,-0.2256556085461646,0.0227052653190406,-0.5004823217926896,0.5012281539853254,-0.4909710729535566,0.5071835848568985,0.0,0.0,0.0,1,0.0039548920165683255,0,1735643777088253974,map,0.984160320047332,-0.2554621361993202,0.1490684330847553,0.5136741138363874,-0.510806755145367,0.481520242207472,-0.4933088485084376,0.0,0.0,0.0,16,0.5544905557342837,0,1735643777088270664,map,0.983883755977522,0.0541459499356839,0.0256046664185027,-0.4921227900686787,0.5115846217058615,-0.4981332671193146,0.4979554021377086,0.0,0.0,0.0,17,7.828085129904964e-20,0,1735643777088284730,map,0.9967663823361992,-0.2587102827160071,0.2388030322811593,-0.5005543985213496,0.471366085062733,-0.4827264999256448,0.5424338063239591,0.0,0.0,0.0,121,0.4415545522466257,0,1735643777088297367,map,1.0005356462129584,0.2065745400936295,0.2446357987137898,-0.4929862293573881,0.49812416410547,-0.5068511295694716,0.501935082707278,0.0,0.0,0.0,122,9.169263963610642e-33,0,1735643777088310956,map,0.9941972181575934,0.2052535236461047,0.1459973817842411,-0.4752622243935171,0.507632317482853,-0.4985006853073427,0.517621787659314,0.0,0.0,0.0,124,1.1733213672077195e-32,0,1735643777088322877,map,0.9885012680837444,-0.0287944958553782,0.2444203838222764,-0.4858698386129023,0.5249147759563363,-0.5107462323708017,0.4770044696100994,0.0,0.0,0.0,125,1.7431375539976524e-12,0,1735643777088343858,map,0.990430213629574,-0.0219353026973595,0.1473270227466568,-0.4725338522663327,0.4877418341433952,-0.5338957029768879,0.5037608956951609,0.0,0.0,0.0,126,7.790398124545119e-13,0,1735644242188269615,map,0.9725488570868532,0.3264452355847295,0.0283655561644267,-0.498462453991667,0.4921816875310753,-0.4834963620365701,0.5249034542819,0.0,0.0,0.0,0,0.0,0.9430024144326964,-0.4592252193206509,0.156633526607107,1.0,1.9580464057914287e-05,-4.856328041934484e-05,-0.000283315307026,0.0,0.0,0.0,-4.856328041934484e-05,0.00274556350735,0.0001468665491658,0.0,0.0,0.0,-0.000283315307026,0.0001468665491658,0.0042170499061242,0.0,0.0,0.0,0.0,0.0,0.0,0.0,0.0,0.0,0.0,0.0,0.0,0.0,0.0,0.0,0.0,0.0,0.0,0.0,0.0,0.0,0,0,0,1,12,,16
1.199680448,0,1735643777088230371,map,0.968808834780275,-0.2239036823155897,0.0246550276199706,-0.475744416242936,0.5056114944801176,-0.5176627109406493,0.500049582306423,0.0,0.0,0.0,1,0.0031051699646111796,0,1735643777088253974,map,0.9761461110455292,-0.2534903865159184,0.1500089265497454,-0.4989400954686638,0.4881263338953314,-0.4958257855936279,0.5166703529641375,0.0,0.0,0.0,16,0.5450391708165977,0,1735643777088270664,map,0.973897523987327,0.0526625696859416,0.0283994350593932,-0.49068591027908,0.4996660634016281,-0.4969144724389863,0.5124813846560622,0.0,0.0,0.0,17,1.996732600735469e-19,0,1735643777088284730,map,0.9919940030245206,-0.2566112233270147,0.2392177710319984,-0.4164684199743691,0.5760258653720435,-0.5584657243276158,0.4276263466364913,0.0,0.0,0.0,121,0.4518556592147646,0,1735643777088297367,map,1.0005356462129584,0.2065745400936295,0.2446357987137898,-0.4929862293573881,0.49812416410547,-0.5068511295694716,0.501935082707278,0.0,0.0,0.0,122,7.452107051068445e-32,0,1735643777088310956,map,0.9941972181575934,0.2052535236461047,0.1459973817842411,-0.4752622243935171,0.507632317482853,-0.4985006853073427,0.517621787659314,0.0,0.0,0.0,124,6.679288535810347e-32,0,1735643777088322877,map,0.9931463972904432,-0.0250224401289965,0.245259654381457,-0.5906000408023111,0.3374173553132036,-0.3479644367175789,0.6451835947368549,0.0,0.0,0.0,125,2.693158330438842e-12,0,1735643777088343858,map,0.986788284765296,-0.0201126399976374,0.1476923264561004,-0.4781048091825984,0.4881852681617996,-0.5269908500990291,0.5053430313145376,0.0,0.0,0.0,126,1.3333971994510018e-12,0,1735644242188269615,map,0.9725488570868532,0.3264452355847295,0.0283655561644267,-0.498462453991667,0.4921816875310753,-0.4834963620365701,0.5249034542819,0.0,0.0,0.0,0,0.0,0.9428553884121892,-0.4546470899323807,0.1578687792640364,1.0,1.833367432347181e-05,-5.2904893207900845e-05,-0.0002637011932598,0.0,0.0,0.0,-5.2904893207900845e-05,0.0027858775388259,0.0002034308801944,0.0,0.0,0.0,-0.0002637011932598,0.0002034308801944,0.0039109716413243,0.0,0.0,0.0,0.0,0.0,0.0,0.0,0.0,0.0,0.0,0.0,0.0,0.0,0.0,0.0,0.0,0.0,0.0,0.0,0.0,0.0,0,0,0,1,13,,16
1.300365943,0,1735643777088230371,map,0.9696369777405645,-0.2247798712244663,0.0259585115631829,-0.499033795266298,0.4972500931253543,-0.482981481919121,0.520035099000203,0.0,0.0,0.0,1,0.002081788700384685,0,1735643777088253974,map,0.9783548835645276,-0.2546209298133869,0.1512603034253561,0.5266916153848348,-0.5183714254219365,0.4647943939356672,-0.4877019365917248,0.0,0.0,0.0,16,0.495064207583482,0,1735643777088270664,map,0.9816671355220712,0.0558781606735022,0.0268345481688971,-0.5007566036424966,0.50304471739252,-0.4953288556753821,0.5008374596086315,0.0,0.0,0.0,17,7.867699347511409e-18,0,1735643777088284730,map,0.9921228369399878,-0.2574570295837127,0.2407276856048745,-0.4927272059148448,0.4838048673228103,-0.4855476398789918,0.5360934996006281,0.0,0.0,0.0,121,0.5028540034446534,0,1735643777088297367,map,1.0005356462129584,0.2065745400936295,0.2446357987137898,-0.4929862293573881,0.49812416410547,-0.5068511295694716,0.501935082707278,0.0,0.0,0.0,122,5.324540851445668e-27,0,1735643777088310956,map,0.9941972181575934,0.2052535236461047,0.1459973817842411,-0.4752622243935171,0.507632317482853,-0.4985006853073427,0.517621787659314,0.0,0.0,0.0,124,1.4867009241446502e-27,0,1735643777088322877,map,0.9914923329010332,-0.0253397942930961,0.2466631768535059,-0.6219101061671847,0.3043920539803768,-0.3090868904977014,0.6519498381341853,0.0,0.0,0.0,125,2.1899433730760872e-10,0,1735643777088343858,map,0.9895408094951104,-0.0192735085566347,0.1486241040079969,0.4914577173213958,-0.5011652229576743,0.512521588172615,-0.494595140534203,0.0,0.0,0.0,126,5.248571307042243e-11,0,1735644242188269615,map,0.9725488570868532,0.3264452355847295,0.0283655561644267,-0.498462453991667,0.4921816875310753,-0.4834963620365701,0.5249034542819,0.0,0.0,0.0,0,8.01343947146652e-42,0.942579492302868,-0.4475208780756401,0.1604968637546533,1.0,1.801366877831164e-05,-7.468519589564069e-05,-0.0002542914114583,0.0,0.0,0.0,-7.468519589564069e-05,0.0032470639266055,0.0004323678321858,0.0,0.0,0.0,-0.0002542914114583,0.0004323678321858,0.0037214052892546,0.0,0.0,0.0,0.0,0.0,0.0,0.0,0.0,0.0,0.0,0.0,0.0,0.0,0.0,0.0,0.0,0.0,0.0,0.0,0.0,0.0,0,0,0,1,14,,16
1.399225379,0,1735643777088230371,map,0.9687588583603036,-0.2249552918276423,0.0268427491517982,-0.6179315512787149,0.7012504088230297,-0.2595710037593656,0.242963692899104,0.0,0.0,0.0,1,0.001190265575811696,0,1735643777088253974,map,0.9719510083899184,-0.2539524653109835,0.152384979962407,-0.501158493929131,0.6525096686312746,-0.4474731310192174,0.3504840842623925,0.0,0.0,0.0,16,0.42755119751461873,0,1735643777088270664,map,0.9837358349475818,0.0574033179296993,0.0256457855930109,-0.4962878617080888,0.4974460179810547,-0.4934096801784705,0.5126331095649057,0.0,0.0,0.0,17,8.35106976491399e-18,0,1735643777088284730,map,0.9936234783201578,-0.257823251002497,0.2408659792425535,-0.482978078651695,0.5110964586151963,-0.4958715317409408,0.5095331289934107,0.0,0.0,0.0,121,0.5712585357182491,0,1735643777088297367,map,1.0005356462129584,0.2065745400936295,0.2446357987137898,-0.4929862293573881,0.49812416410547,-0.5068511295694716,0.501935082707278,0.0,0.0,0.0,122,1.802104668606097e-25,0,1735643777088310956,map,0.9941972181575934,0.2052535236461047,0.1459973817842411,-0.4752622243935171,0.507632317482853,-0.4985006853073427,0.517621787659314,0.0,0.0,0.0,124,1.9700751528276034e-26,0,1735643777088322877,map,0.9886995000643362,-0.0256825625846633,0.2466399949267034,-0.6242914018224236,0.3152239745649005,-0.3140856034871497,0.6420625554821068,0.0,0.0,0.0,125,1.0499600315756063e-09,0,1735643777088343858,map,0.9878057317524568,-0.019370813162842,0.1487820469823163,0.492101668926881,-0.5021455859643155,0.5131183299335536,-0.492336609873909,0.0,0.0,0.0,126,1.413602992902975e-10,0,1735644242188269615,map,0.9725488570868532,0.3264452355847295,0.0283655561644267,-0.498462453991667,0.4921816875310753,-0.4834963620365701,0.5249034542819,0.0,0.0,0.0,0,7.32747060212957e-41,0.9423250922468792,-0.4422607934595456,0.1631977379777032,1.0,1.7718828965243843e-05,-8.844050432769686e-05,-0.0002469580864443,0.0,0.0,0.0,-8.844050432769686e-05,0.0034179518605238,0.0006024388873495,0.0,0.0,0.0,-0.0002469580864443,0.0006024388873495,0.0035754377052665,0.0,0.0,0.0,0.0,0.0,0.0,0.0,0.0,0.0,0.0,0.0,0.0,0.0,0.0,0.0,0.0,0.0,0.0,0.0,0.0,0.0,0,0,0,1,15,,16
1.49867448,0,1735643777088230371,map,0.9682078912024616,-0.2249449140179399,0.0259108538130072,-0.4831478274306629,0.4958926098071837,-0.4978501444203532,0.5223063565459295,0.0,0.0,0.0,1,0.0004689028801824922,0,1735643777088253974,map,0.9719894127047763,-0.2542028184040394,0.1522245513581458,-0.5062411038089885,0.5090308226752618,-0.4912866425971149,0.4931987441047045,0.0,0.0,0.0,16,0.34759980562414705,0,1735643777088270664,map,0.98057613986017,0.0570768845724061,0.0264719685578204,-0.4990513326238781,0.4940359304598051,-0.4962631210127344,0.5104891590854268,0.0,0.0,0.0,17,5.85560066182242e-18,0,1735643777088284730,map,0.9904492052143206,-0.2576096254801505,0.2409511477534966,-0.4950919802930404,0.4798585510611662,-0.490948674121688,0.5325308454926813,0.0,0.0,0.0,121,0.6519312861798243,0,1735643777088297367,map,1.0005356462129584,0.2065745400936295,0.2446357987137898,-0.4929862293573881,0.49812416410547,-0.5068511295694716,0.501935082707278,0.0,0.0,0.0,122,4.290200092937116e-24,0,1735643777088310956,map,0.9941972181575934,0.2052535236461047,0.1459973817842411,-0.4752622243935171,0.507632317482853,-0.4985006853073427,0.517621787659314,0.0,0.0,0.0,124,1.1814925653616534e-25,0,1735643777088322877,map,0.9816308333499968,-0.0266670684268773,0.2469649499043603,-0.4798399064218271,0.5139191641492449,-0.5118498411793155,0.4936096605719371,0.0,0.0,0.0,125,5.012775342380243e-09,0,1735643777088343858,map,0.9820068161968448,-0.0204492835077473,0.1496838689475429,0.4940889301473243,-0.5002331965996455,0.5110140476950857,-0.494477017852051,0.0,0.0,0.0,126,3.030709864010338e-10,0,1735644242188269615,map,0.9725488570868532,0.3264452355847295,0.0283655561644267,-0.498462453991667,0.4921816875310753,-0.4834963620365701,0.5249034542819,0.0,0.0,0.0,0,1.3621635412826825e-40,0.9419903231627416,-0.436939577665796,0.1670907551305618,1.0,1.8292457250330552e-05,-0.0001096336508737,-0.0002510721328434,0.0,0.0,0.0,-0.0001096336508737,0.0036290599320958,0.0008755202222771,0.0,0.0,0.0,-0.0002510721328434,0.0008755202222771,0.0035793065869741,0.0,0.0,0.0,0.0,0.0,0.0,0.0,0.0,0.0,0.0,0.0,0.0,0.0,0.0,0.0,0.0,0.0,0.0,0.0,0.0,0.0,0,0,0,1,16,,16
1.59957034,0,1735643777088230371,map,0.9631602559463794,-0.2239758700573369,0.0263947802470123,-0.4773472409952479,0.4976013330274485,-0.5195054487192702,0.5046252209655407,0.0,0.0,0.0,1,0.0002465670282413495,0,1735643777088253974,map,0.9682302132630324,-0.2531314209315379,0.1520825088521697,-0.5043185448155686,0.5092274236077414,-0.4934102233010168,0.49284539963661,0.0,0.0,0.0,16,0.2959991050975316,0,1735643777088270664,map,0.976851207627931,0.0582375595647072,0.0261264824889241,-0.4990376230352166,0.4934946584298026,-0.4864901472055891,0.520338168471714,0.0,0.0,0.0,17,5.340569366911894e-18,0,1735643777088284730,map,0.988578585693232,-0.2565374337917233,0.2407414400435834,-0.4791537011388185,0.4978412899093291,-0.5055740673288156,0.5166823426351878,0.0,0.0,0.0,121,0.703754311764735,0,1735643777088297367,map,1.0005356462129584,0.2065745400936295,0.2446357987137898,-0.4929862293573881,0.49812416410547,-0.5068511295694716,0.501935082707278,0.0,0.0,0.0,122,9.321118749040169e-23,0,1735643777088310956,map,0.9941972181575934,0.2052535236461047,0.1459973817842411,-0.4752622243935171,0.507632317482853,-0.4985006853073427,0.517621787659314,0.0,0.0,0.0,124,9.851968758387273e-25,0,1735643777088322877,map,0.9800665314294968,-0.0247522865663047,0.2467434457365528,-0.4962254591697276,0.5156494438045195,-0.5011970672397692,0.4864847834887922,0.0,0.0,0.0,125,1.572042845130505e-08,0,1735643777088343858,map,0.9847573577621724,-0.0166039776600787,0.1478803310922536,-0.4978244780256484,0.4911632056307715,-0.504033023822505,0.5068335085699617,0.0,0.0,0.0,126,3.8906357801710835e-10,0,1735644242188269615,map,0.9725488570868532,0.3264452355847295,0.0283655561644267,-0.498462453991667,0.4921816875310753,-0.4834963620365701,0.5249034542819,0.0,0.0,0.0,0,6.420033138922227e-40,0.9417192549319536,-0.431659746536961,0.1700373779049291,1.0,1.8392078125133312e-05,-0.0001260837243143,-0.0002490829570086,0.0,0.0,0.0,-0.0001260837243143,0.0038616116864274,0.001072941763116,0.0,0.0,0.0,-0.0002490829570086,0.001072941763116,0.0035076805130723,0.0,0.0,0.0,0.0,0.0,0.0,0.0,0.0,0.0,0.0,0.0,0.0,0.0,0.0,0.0,0.0,0.0,0.0,0.0,0.0,0.0,0,0,0,1,17,,16
1.699004232,0,1735643777088230371,map,0.9606074189439742,-0.224046604167904,0.0264150266246877,-0.4818457269014361,0.4947715292911018,-0.5127869018155837,0.5099759039367903,0.0,0.0,0.0,1,0.00013878991589737303,0,1735643777088253974,map,0.964799201418863,-0.2529923512145332,0.1517896541253451,-0.4921777237844676,0.4798668539466119,-0.4932142120415826,0.5331309705259322,0.0,0.0,0.0,16,0.26074562533785534,0,1735643777088270664,map,0.96595240787644,0.0532716365278337,0.0296893603452273,-0.4842967089085097,0.4958807426083694,-0.4970174373216168,0.5220466012233114,0.0,0.0,0.0,17,1.6270336166321316e-17,0,1735643777088284730,map,0.9825818682893463,-0.2559965221802345,0.2401461799589208,-0.5090186387894635,0.5172671254559511,-0.4719916032478548,0.5005583609839906,0.0,0.0,0.0,121,0.7391155385686334,0,1735643777088297367,map,1.0005356462129584,0.2065745400936295,0.2446357987137898,-0.4929862293573881,0.49812416410547,-0.5068511295694716,0.501935082707278,0.0,0.0,0.0,122,1.2303161694325138e-21,0,1735643777088310956,map,0.9941972181575934,0.2052535236461047,0.1459973817842411,-0.4752622243935171,0.507632317482853,-0.4985006853073427,0.517621787659314,0.0,0.0,0.0,124,5.6868667532711904e-24,0,1735643777088322877,map,0.9789337505236764,-0.0242027561565888,0.2461639462385007,-0.4943152629808486,0.4996969147108017,-0.4994261160287692,0.5064868891107633,0.0,0.0,0.0,125,4.535833789863495e-08,0,1735643777088343858,map,0.9803690600652768,-0.0174746047963209,0.1478912981904223,-0.4972456137041929,0.4855645491087669,-0.5012041674568806,0.5155271581833455,0.0,0.0,0.0,126,8.192759843174144e-10,0,1735644242188269615,map,0.9725488570868532,0.3264452355847295,0.0283655561644267,-0.498462453991667,0.4921816875310753,-0.4834963620365701,0.5249034542819,0.0,0.0,0.0,0,2.128256826350664e-39,0.9414685611183194,-0.4265452676956192,0.1727135079525895,1.0,1.8438701606375508e-05,-0.0001408759324568,-0.0002466501321588,0.0,0.0,0.0,-0.0001408759324568,0.0040917618987631,0.0012460130659798,0.0,0.0,0.0,-0.0002466501321588,0.0012460130659798,0.003434557798001,0.0,0.0,0.0,0.0,0.0,0.0,0.0,0.0,0.0,0.0,0.0,0.0,0.0,0.0,0.0,0.0,0.0,0.0,0.0,0.0,0.0,0,0,0,1,18,,16
1.799446758,0,1735643777088230371,map,0.9597666646234646,-0.2239784585931028,0.0267276214028608,-0.4843683493159573,0.498991201757236,-0.5086209001264868,0.5076414706309235,0.0,0.0,0.0,1,0.00020122005387194697,0,1735643777088253974,map,0.9640578912004004,-0.2529038362473489,0.1519662737941259,-0.5136410838953155,0.5020147519536671,-0.4803412010112757,0.5034146962165379,0.0,0.0,0.0,16,0.2920384225273442,0,1735643777088270664,map,0.9683443438759776,0.0551825976124502,0.0282597286755381,-0.4977148485553285,0.4916537092386605,-0.4939381736291944,0.5163154465549805,0.0,0.0,0.0,17,8.225897766347912e-16,0,1735643777088284730,map,0.9834323538091634,-0.2559840489336684,0.2400221330509557,-0.4980467168747313,0.506691736954865,-0.4839199329124184,0.5109153061340046,0.0,0.0,0.0,121,0.707759703686608,0,1735643777088297367,map,1.0005356462129584,0.2065745400936295,0.2446357987137898,-0.4929862293573881,0.49812416410547,-0.5068511295694716,0.501935082707278,0.0,0.0,0.0,122,1.400979914916835e-18,0,1735643777088310956,map,0.9941972181575934,0.2052535236461047,0.1459973817842411,-0.4752622243935171,0.507632317482853,-0.4985006853073427,0.517621787659314,0.0,0.0,0.0,124,9.137427853941531e-21,0,1735643777088322877,map,0.97461605527428,-0.0253585443649546,0.2458745788556889,-0.5047676723823946,0.5146791021681104,-0.4931300100938539,0.4869679782633789,0.0,0.0,0.0,125,6.397145987539517e-07,0,1735643777088343858,map,0.9798718209507636,-0.0168286036933482,0.1474915200810136,-0.5040165209711194,0.4947408556147512,-0.4969816364071522,0.5041905249484787,0.0,0.0,0.0,126,1.4017576208229791e-08,0,1735644242188269615,map,0.9725488570868532,0.3264452355847295,0.0283655561644267,-0.498462453991667,0.4921816875310753,-0.4834963620365701,0.5249034542819,0.0,0.0,0.0,0,1.1161691164529242e-34,0.9413122645892082,-0.4198352276494368,0.1736363824162373,1.0,1.790795851731177e-05,-0.0001523390171454,-0.0002362649036143,0.0,0.0,0.0,-0.0001523390171454,0.0046868494829392,0.0012918988738843,0.0,0.0,0.0,-0.0002362649036143,0.0012918988738843,0.0032691221490679,0.0,0.0,0.0,0.0,0.0,0.0,0.0,0.0,0.0,0.0,0.0,0.0,0.0,0.0,0.0,0.0,0.0,0.0,0.0,0.0,0.0,0,0,0,1,19,,16
1.899147403,0,1735643777088230371,map,0.9611844216300472,-0.2238693093053247,0.0253239626916209,-0.4921893645212385,0.4925359727017867,-0.4930185702012402,0.5216230770236395,0.0,0.0,0.0,1,0.0005015215149137043,0,1735643777088253974,map,0.960615912333922,-0.2526699529100632,0.1518381808793945,-0.5117581490992488,0.4823180710666549,-0.4759215810567848,0.5281775495394172,0.0,0.0,0.0,16,0.3770959920831011,0,1735643777088270664,map,0.9630129334279032,0.0523999975354748,0.0300037969739913,-0.4857417336304312,0.5009370613329197,-0.4967487243429995,0.5160985697097459,0.0,0.0,0.0,17,2.470861166213744e-13,0,1735643777088284730,map,0.9803767772287392,-0.2553348396250955,0.2394607800722533,-0.4684400399681659,0.563187121587439,-0.5070204913404962,0.454218467693158,0.0,0.0,0.0,121,0.6223983808856779,0,1735643777088297367,map,1.0005356462129584,0.2065745400936295,0.2446357987137898,-0.4929862293573881,0.49812416410547,-0.5068511295694716,0.501935082707278,0.0,0.0,0.0,122,4.671778819731439e-16,0,1735643777088310956,map,0.9941972181575934,0.2052535236461047,0.1459973817842411,-0.4752622243935171,0.507632317482853,-0.4985006853073427,0.517621787659314,0.0,0.0,0.0,124,1.0776681051997652e-17,0,1735643777088322877,map,0.9785878979664682,-0.0230519295682005,0.2454158671109904,-0.5111715493885624,0.5014256706101223,-0.480393926408365,0.5064559402542743,0.0,0.0,0.0,125,3.7619821643287198e-06,0,1735643777088343858,map,0.9720002542701588,-0.0195469427457354,0.1485387815260871,0.5009654001604288,-0.5007279028138817,0.5039434417439042,-0.4943139111020666,0.0,0.0,0.0,126,3.4353389548263503e-07,0,1735644242188269615,map,0.9725488570868532,0.3264452355847295,0.0283655561644267,-0.498462453991667,0.4921816875310753,-0.4834963620365701,0.5249034542819,0.0,0.0,0.0,0,1.425528005993427e-29,0.9412759334430852,-0.4134113062566144,0.1728210260341233,1.0,1.7037639682839945e-05,-0.0001491564463974,-0.0002238888246282,0.0,0.0,0.0,-0.0001491564463974,0.0052365755639543,0.0011277860093792,0.0,0.0,0.0,-0.0002238888246282,0.0011277860093792,0.0031182973561818,0.0,0.0,0.0,0.0,0.0,0.0,0.0,0.0,0.0,0.0,0.0,0.0,0.0,0.0,0.0,0.0,0.0,0.0,0.0,0.0,0.0,0,0,0,1,20,,16
2.00001399,0,1735643777088230371,map,0.9560599282245216,-0.2237976335956176,0.0265169236702086,-0.4853754662291829,0.4956351289457935,-0.510317743075479,0.5082639834181047,0.0,0.0,0.0,1,0.0003330680302104385,0,1735643777088253974,map,0.9614291311855228,-0.2529010585903224,0.1515250662560335,-0.50488471432849,0.4989811707221246,-0.4858809270127341,0.5099303298171849,0.0,0.0,0.0,16,0.3432991705031873,0,1735643777088270664,map,0.959301028519188,0.0520385522389094,0.0305499983739874,-0.4920295115000302,0.4993321329406585,-0.4990882609626139,0.5093969852632502,0.0,0.0,0.0,17,2.497768821341014e-13,0,1735643777088284730,map,0.9764200112800024,-0.2552274899224573,0.2395276655945327,0.4303166297558487,-0.5343097889422336,0.5535274844897521,-0.4721736666847497,0.0,0.0,0.0,121,0.6563569766073081,0,1735643777088297367,map,1.0005356462129584,0.2065745400936295,0.2446357987137898,-0.4929862293573881,0.49812416410547,-0.5068511295694716,0.501935082707278,0.0,0.0,0.0,122,3.45449581281449e-15,0,1735643777088310956,map,0.9941972181575934,0.2052535236461047,0.1459973817842411,-0.4752622243935171,0.507632317482853,-0.4985006853073427,0.517621787659314,0.0,0.0,0.0,124,3.977470957622851e-17,0,1735643777088322877,map,0.9701523055309682,-0.0249861847123662,0.245525340157713,-0.4998427611811974,0.5030219888084921,-0.4913663332710076,0.5056532600485342,0.0,0.0,0.0,125,1.0288822063355344e-05,0,1735643777088343858,map,0.9735372116126626,-0.0185513295253536,0.1483882827054766,-0.493087175208363,0.4896494247115371,-0.509019040106217,0.5079449727421702,0.0,0.0,0.0,126,4.96036977648428e-07,0,1735644242188269615,map,0.9725488570868532,0.3264452355847295,0.0283655561644267,-0.498462453991667,0.4921816875310753,-0.4834963620365701,0.5249034542819,0.0,0.0,0.0,0,3.0785751781475816e-29,0.9410457860245552,-0.4080774163966399,0.1751426196966626,1.0,1.728568019258597e-05,-0.0001666053781136,-0.000223913627793,0.0,0.0,0.0,-0.0001666053781136,0.0055562224435804,0.0013217444116065,0.0,0.0,0.0,-0.000223913627793,0.0013217444116065,0.0030776029485663,0.0,0.0,0.0,0.0,0.0,0.0,0.0,0.0,0.0,0.0,0.0,0.0,0.0,0.0,0.0,0.0,0.0,0.0,0.0,0.0,0.0,0,0,0,1,21,,16
2.100033257,0,1735643777088230371,map,0.955332527176208,-0.2240165792597881,0.0271835951823755,-0.4871280385846232,0.5027305350228359,-0.5097754753089602,0.5000972384985493,0.0,0.0,0.0,1,0.0002856664004483531,0,1735643777088253974,map,0.9577180241178334,-0.2528174159444441,0.1527468036644204,-0.4905310003915055,0.4859622949777525,-0.494290380181049,0.5281070020131705,0.0,0.0,0.0,16,0.3437735637173263,0,1735643777088270664,map,0.9589219937194928,0.0525607330677654,0.0308071255009594,-0.4902286304651768,0.4940474467173849,-0.4927181110248087,0.5223235331979732,0.0,0.0,0.0,17,1.2031012715899973e-12,0,1735643777088284730,map,0.9740371790087882,-0.2554093679157188,0.2403668960590103,-0.5151139287166682,0.5187140762169077,-0.4638214646440193,0.500462782344498,0.0,0.0,0.0,121,0.655892644031951,0,1735643777088297367,map,1.0005356462129584,0.2065745400936295,0.2446357987137898,-0.4929862293573881,0.49812416410547,-0.5068511295694716,0.501935082707278,0.0,0.0,0.0,122,2.000219953669754e-13,0,1735643777088310956,map,0.9941972181575934,0.2052535236461047,0.1459973817842411,-0.4752622243935171,0.507632317482853,-0.4985006853073427,0.517621787659314,0.0,0.0,0.0,124,1.6995857417873382e-15,0,1735643777088322877,map,0.9689586443867124,-0.0245661382473459,0.2462016251434047,-0.5112794845299441,0.5141177229602094,-0.4869511101647937,0.4869854945953514,0.0,0.0,0.0,125,4.604318471645678e-05,0,1735643777088343858,map,0.9686198618011576,-0.0183893892152579,0.1489923486100499,-0.4994705391230733,0.4910031963008885,-0.502704447614081,0.5066885435052185,0.0,0.0,0.0,126,2.082664153022015e-06,0,1735644242188269615,map,0.9725488570868532,0.3264452355847295,0.0283655561644267,-0.498462453991667,0.4921816875310753,-0.4834963620365701,0.5249034542819,0.0,0.0,0.0,0,3.791439516077057e-27,0.9408327121459508,-0.4012565342604024,0.176893368647411,1.0,1.7453377489175332e-05,-0.0001895527944389,-0.000221569551878,0.0,0.0,0.0,-0.0001895527944389,0.0062806799734084,0.001512439817277,0.0,0.0,0.0,-0.000221569551878,0.001512439817277,0.0030020794651091,0.0,0.0,0.0,0.0,0.0,0.0,0.0,0.0,0.0,0.0,0.0,0.0,0.0,0.0,0.0,0.0,0.0,0.0,0.0,0.0,0.0,0,0,0,1,22,,16
2.197951909,0,1735643777088230371,map,0.955332527176208,-0.2240165792597881,0.0271835951823755,-0.4871280385846232,0.5027305350228359,-0.5097754753089602,0.5000972384985493,0.0,0.0,0.0,1,0.0002884022561633197,0,1735643777088253974,map,0.9613312864532751,-0.2530076761066091,0.1518776793804157,-0.5563236641520031,0.6195008994950829,-0.4023261226469531,0.3805999307214092,0.0,0.0,0.0,16,0.3544211832957581,0,1735643777088270664,map,0.9585043297437364,0.0528775152753948,0.0305057627140513,-0.4908289556422444,0.4978914385049232,-0.494978078604717,0.5159338654008137,0.0,0.0,0.0,17,4.1931751117173515e-12,0,1735643777088284730,map,0.9725819013651752,-0.2552634981299669,0.2400858786557875,-0.510673514979354,0.5310087581228605,-0.4678285340073322,0.4882404353021155,0.0,0.0,0.0,121,0.6451834597797536,0,1735643777088297367,map,1.0005356462129584,0.2065745400936295,0.2446357987137898,-0.4929862293573881,0.49812416410547,-0.5068511295694716,0.501935082707278,0.0,0.0,0.0,122,2.101516382783904e-12,0,1735643777088310956,map,0.9941972181575934,0.2052535236461047,0.1459973817842411,-0.4752622243935171,0.507632317482853,-0.4985006853073427,0.517621787659314,0.0,0.0,0.0,124,1.970125100558557e-14,0,1735643777088322877,map,0.9699474178789104,-0.0234495790471448,0.2457536644109502,-0.5085608831127881,0.499053500773553,-0.4888951217003862,0.5032822185521434,0.0,0.0,0.0,125,0.00010137073855891197,0,1735643777088343858,map,0.966734927597902,-0.018636181897063,0.1487175241698155,0.502885218094455,-0.4988314558770229,0.4997282352460981,-0.4985432046949622,0.0,0.0,0.0,126,5.583923451657794e-06,0,1735644242188269615,map,0.9725488570868532,0.3264452355847295,0.0283655561644267,-0.498462453991667,0.4921816875310753,-0.4834963620365701,0.5249034542819,0.0,0.0,0.0,0,1.1793543808129337e-25,0.9407072244534376,-0.3956237985123017,0.1775823776983847,1.0,1.7040972531035307e-05,-0.0001968618268482,-0.0002138382605311,0.0,0.0,0.0,-0.0001968618268482,0.0067056165952608,0.0015320636944199,0.0,0.0,0.0,-0.0002138382605311,0.0015320636944199,0.002881998407365,0.0,0.0,0.0,0.0,0.0,0.0,0.0,0.0,0.0,0.0,0.0,0.0,0.0,0.0,0.0,0.0,0.0,0.0,0.0,0.0,0.0,0,0,0,1,23,,16
2.298736471,0,1735643777088230371,map,0.955332527176208,-0.2240165792597881,0.0271835951823755,-0.4871280385846232,0.5027305350228359,-0.5097754753089602,0.5000972384985493,0.0,0.0,0.0,1,0.0003789427623495794,0,1735643777088253974,map,0.9540761104876568,-0.2524754431896781,0.1521841956355918,0.4879675595461583,-0.5048639216316851,0.5120159107919249,-0.4948128823718697,0.0,0.0,0.0,16,0.390575743907912,0,1735643777088270664,map,0.9585043297437364,0.0528775152753948,0.0305057627140513,-0.4908289556422444,0.4978914385049232,-0.494978078604717,0.5159338654008137,0.0,0.0,0.0,17,3.30407211843454e-11,0,1735643777088284730,map,0.9697710459779016,-0.2548397597728546,0.2394551933223416,-0.4586510432730524,0.5662358471025535,-0.5167930909301129,0.4493785565950987,0.0,0.0,0.0,121,0.6087674866565386,0,1735643777088297367,map,1.0005356462129584,0.2065745400936295,0.2446357987137898,-0.4929862293573881,0.49812416410547,-0.5068511295694716,0.501935082707278,0.0,0.0,0.0,122,2.949017145463396e-11,0,1735643777088310956,map,0.9941972181575934,0.2052535236461047,0.1459973817842411,-0.4752622243935171,0.507632317482853,-0.4985006853073427,0.517621787659314,0.0,0.0,0.0,124,4.407393529801703e-13,0,1735643777088322877,map,0.9647474137886703,-0.024186358919695,0.2453237300448905,-0.5066279211480195,0.5030734462840039,-0.4880006326051215,0.5020962454890227,0.0,0.0,0.0,125,0.0002570738396575164,0,1735643777088343858,map,0.960940050443766,-0.0195660076126587,0.1486602840307661,-0.4939748895023749,0.4945075514322888,-0.5097164472215531,0.5016375519729322,0.0,0.0,0.0,126,2.075277057073828e-05,0,1735644242188269615,map,0.9725488570868532,0.3264452355847295,0.0283655561644267,-0.498462453991667,0.4921816875310753,-0.4834963620365701,0.5249034542819,0.0,0.0,0.0,0,1.646147859014645e-23,0.9406179855193588,-0.3896921763035131,0.1776645755743859,1.0,1.651409451808643e-05,-0.0002008338785247,-0.0002050970437782,0.0,0.0,0.0,-0.0002008338785247,0.0072354511704309,0.0014794417423289,0.0,0.0,0.0,-0.0002050970437782,0.0014794417423289,0.0027620705396803,0.0,0.0,0.0,0.0,0.0,0.0,0.0,0.0,0.0,0.0,0.0,0.0,0.0,0.0,0.0,0.0,0.0,0.0,0.0,0.0,0.0,0,0,0,1,24,,16
2.398964993,0,1735643777088230371,map,0.955332527176208,-0.2240165792597881,0.0271835951823755,-0.4871280385846232,0.5027305350228359,-0.5097754753089602,0.5000972384985493,0.0,0.0,0.0,1,0.0003811568687476752,0,1735643777088253974,map,0.9548393927171326,-0.2526371306248252,0.1524535532308452,-0.5481961807048744,0.6578818756232528,-0.3954885752565915,0.3320559772516236,0.0,0.0,0.0,16,0.41107635985292956,0,1735643777088270664,map,0.9585043297437364,0.0528775152753948,0.0305057627140513,-0.4908289556422444,0.4978914385049232,-0.494978078604717,0.5159338654008137,0.0,0.0,0.0,17,6.519922188444801e-11,0,1735643777088284730,map,0.9688035882553924,-0.254922178918909,0.2396696041328373,-0.483085034392415,0.5605929882908638,-0.4950381373441165,0.4553038475568444,0.0,0.0,0.0,121,0.588160955867956,0,1735643777088297367,map,1.0005356462129584,0.2065745400936295,0.2446357987137898,-0.4929862293573881,0.49812416410547,-0.5068511295694716,0.501935082707278,0.0,0.0,0.0,122,8.211887717209882e-11,0,1735643777088310956,map,0.9941972181575934,0.2052535236461047,0.1459973817842411,-0.4752622243935171,0.507632317482853,-0.4985006853073427,0.517621787659314,0.0,0.0,0.0,124,1.4404954158926832e-12,0,1735643777088322877,map,0.9650220386296794,-0.0231407895062775,0.2454025392517767,0.5136214457892233,-0.5027296971355294,0.4841703477788702,-0.4990340032253262,0.0,0.0,0.0,125,0.0003503388323040661,0,1735643777088343858,map,0.9622623173772862,-0.0183888631907571,0.1482370032594833,-0.5039934137370967,0.4975481474222814,-0.496922060025677,0.5015026880946115,0.0,0.0,0.0,126,3.118842930409141e-05,0,1735644242188269615,map,0.9725488570868532,0.3264452355847295,0.0283655561644267,-0.498462453991667,0.4921816875310753,-0.4834963620365701,0.5249034542819,0.0,0.0,0.0,0,9.030373689945947e-23,0.9405482478528108,-0.3852382418452446,0.1777672305172365,1.0,1.597025094861637e-05,-0.0002002550912896,-0.0001970649760153,0.0,0.0,0.0,-0.0002002550912896,0.0074221338954189,0.0014312373139303,0.0,0.0,0.0,-0.0001970649760153,0.0014312373139303,0.0026518406309881,0.0,0.0,0.0,0.0,0.0,0.0,0.0,0.0,0.0,0.0,0.0,0.0,0.0,0.0,0.0,0.0,0.0,0.0,0.0,0.0,0.0,0,0,0,1,25,,16
2.499892004,0,1735643777088230371,map,0.955332527176208,-0.2240165792597881,0.0271835951823755,-0.4871280385846232,0.5027305350228359,-0.5097754753089602,0.5000972384985493,0.0,0.0,0.0,1,0.0002728666023847204,0,1735643777088253974,map,0.9541592045220888,-0.2532661741609848,0.1528517280561045,-0.4853554281718688,0.5211273197450068,-0.5098685537230976,0.4825872800683872,0.0,0.0,0.0,16,0.4061409325198599,0,1735643777088270664,map,0.9585043297437364,0.0528775152753948,0.0305057627140513,-0.4908289556422444,0.4978914385049232,-0.494978078604717,0.5159338654008137,0.0,0.0,0.0,17,3.916513215792362e-11,0,1735643777088284730,map,0.9687453634216052,-0.2555040932350453,0.2404843098552654,-0.4683255887441669,0.562604973967094,-0.5085531230018873,0.4533436966363847,0.0,0.0,0.0,121,0.5931220221633673,0,1735643777088297367,map,1.0005356462129584,0.2065745400936295,0.2446357987137898,-0.4929862293573881,0.49812416410547,-0.5068511295694716,0.501935082707278,0.0,0.0,0.0,122,9.727287502933168e-11,0,1735643777088310956,map,0.9941972181575934,0.2052535236461047,0.1459973817842411,-0.4752622243935171,0.507632317482853,-0.4985006853073427,0.517621787659314,0.0,0.0,0.0,124,1.2746789349640926e-12,0,1735643777088322877,map,0.9626914124154472,-0.0248766813561991,0.2462509433518958,-0.5021989792663387,0.5003741551365649,-0.4924989428958076,0.504843224517997,0.0,0.0,0.0,125,0.00043215014794800765,0,1735643777088343858,map,0.961776290041522,-0.0189222060884468,0.149113999716437,-0.497279209394074,0.4905245195523403,-0.505226510080226,0.5067990303211969,0.0,0.0,0.0,126,3.2028428727367734e-05,0,1735644242188269615,map,0.9725488570868532,0.3264452355847295,0.0283655561644267,-0.498462453991667,0.4921816875310753,-0.4834963620365701,0.5249034542819,0.0,0.0,0.0,0,4.063452930054768e-23,0.9404282916003408,-0.3817773419283284,0.1788331361395325,1.0,1.5715748090181694e-05,-0.000202931886999,-0.0001926821049593,0.0,0.0,0.0,-0.000202931886999,0.0074361129130063,0.0014684145419241,0.0,0.0,0.0,-0.0001926821049593,0.0014684145419241,0.0025782506304565,0.0,0.0,0.0,0.0,0.0,0.0,0.0,0.0,0.0,0.0,0.0,0.0,0.0,0.0,0.0,0.0,0.0,0.0,0.0,0.0,0.0,0,0,0,1,26,,16
