%time,field.boxes0.header.seq,field.boxes0.header.stamp,field.boxes0.header.frame_id,field.boxes0.pose.position.x,field.boxes0.pose.position.y,field.boxes0.pose.position.z,field.boxes0.pose.orientation.x,field.boxes0.pose.orientation.y,field.boxes0.pose.orientation.z,field.boxes0.pose.orientation.w,field.boxes0.scale.x,field.boxes0.scale.y,field.boxes0.scale.z,field.boxes0.id,field.boxes0.pdf,field.boxes1.header.seq,field.boxes1.header.stamp,field.boxes1.header.frame_id,field.boxes1.pose.position.x,field.boxes1.pose.position.y,field.boxes1.pose.position.z,field.boxes1.pose.orientation.x,field.boxes1.pose.orientation.y,field.boxes1.pose.orientation.z,field.boxes1.pose.orientation.w,field.boxes1.scale.x,field.boxes1.scale.y,field.boxes1.scale.z,field.boxes1.id,field.boxes1.pdf,field.boxes2.header.seq,field.boxes2.header.stamp,field.boxes2.header.frame_id,field.boxes2.pose.position.x,field.boxes2.pose.position.y,field.boxes2.pose.position.z,field.boxes2.pose.orientation.x,field.boxes2.pose.orientation.y,field.boxes2.pose.orientation.z,field.boxes2.pose.orientation.w,field.boxes2.scale.x,field.boxes2.scale.y,field.boxes2.scale.z,field.boxes2.id,field.boxes2.pdf,field.boxes3.header.seq,field.boxes3.header.stamp,field.boxes3.header.frame_id,field.boxes3.pose.position.x,field.boxes3.pose.position.y,field.boxes3.pose.position.z,field.boxes3.pose.orientation.x,field.boxes3.pose.orientation.y,field.boxes3.pose.orientation.z,field.boxes3.pose.orientation.w,field.boxes3.scale.x,field.boxes3.scale.y,field.boxes3.scale.z,field.boxes3.id,field.boxes3.pdf,field.boxes4.header.seq,field.boxes4.header.stamp,field.boxes4.header.frame_id,field.boxes4.pose.position.x,field.boxes4.pose.position.y,field.boxes4.pose.position.z,field.boxes4.pose.orientation.x,field.boxes4.pose.orientation.y,field.boxes4.pose.orientation.z,field.boxes4.pose.orientation.w,field.boxes4.scale.x,field.boxes4.scale.y,field.boxes4.scale.z,field.boxes4.id,field.boxes4.pdf,field.boxes5.header.seq,field.boxes5.header.stamp,field.boxes5.header.frame_id,field.boxes5.pose.position.x,field.boxes5.pose.position.y,field.boxes5.pose.position.z,field.boxes5.pose.orientation.x,field.boxes5.pose.orientation.y,field.boxes5.pose.orientation.z,field.boxes5.pose.orientation.w,field.boxes5.scale.x,field.boxes5.scale.y,field.boxes5.scale.z,field.boxes5.id,field.boxes5.pdf,field.boxes6.header.seq,field.boxes6.header.stamp,field.boxes6.header.frame_id,field.boxes6.pose.position.x,field.boxes6.pose.position.y,field.boxes6.pose.position.z,field.boxes6.pose.orientation.x,field.boxes6.pose.orientation.y,field.boxes6.pose.orientation.z,field.boxes6.pose.orientation.w,field.boxes6.scale.x,field.boxes6.scale.y,field.boxes6.scale.z,field.boxes6.id,field.boxes6.pdf,field.boxes7.header.seq,field.boxes7.header.stamp,field.boxes7.header.frame_id,field.boxes7.pose.position.x,field.boxes7.pose.position.y,field.boxes7.pose.position.z,field.boxes7.pose.orientation.x,field.boxes7.pose.orientation.y,field.boxes7.pose.orientation.z,field.boxes7.pose.orientation.w,field.boxes7.scale.x,field.boxes7.scale.y,field.boxes7.scale.z,field.boxes7.id,field.boxes7.pdf,field.boxes8.header.seq,field.boxes8.header.stamp,field.boxes8.header.frame_id,field.boxes8.pose.position.x,field.boxes8.pose.position.y,field.boxes8.pose.position.z,field.boxes8.pose.orientation.x,field.boxes8.pose.orientation.y,field.boxes8.pose.orientation.z,field.boxes8.pose.orientation.w,field.boxes8.scale.x,field.boxes8.scale.y,field.boxes8.scale.z,field.boxes8.id,field.boxes8.pdf,field.pose.pose.position.x,field.pose.pose.position.y,field.pose.pose.position.z,field.pose.pose.orientation.w,field.pose.covariance0,field.pose.covariance1,field.pose.covariance2,field.pose.covariance3,field.pose.covariance4,field.pose.covariance5,field.pose.covariance6,field.pose.covariance7,field.pose.covariance8,field.pose.covariance9,field.pose.covariance10,field.pose.covariance11,field.pose.covariance12,field.pose.covariance13,field.pose.covariance14,field.pose.covariance15,field.pose.covariance16,field.pose.covariance17,field.pose.covariance18,field.pose.covariance19,field.pose.covariance20,field.pose.covariance21,field.pose.covariance22,field.pose.covariance23,field.pose.covariance24,field.pose.covariance25,field.pose.covariance26,field.pose.covariance27,field.pose.covariance28,field.pose.covariance29,field.pose.covariance30,field.pose.covariance31,field.pose.covariance32,field.pose.covariance33,field.pose.covariance34,field.pose.covariance35,field.buttons0,field.buttons1,field.buttons2,field.buttons3,intersection_length,vacuum,desired_box
0.0,0,1735643777088230371,map,0.9842937464352478,-0.2232737466736354,0.0206826829817354,0.480653035901716,-0.5018540161294794,0.5214065929668474,-0.4952275945299094,0.0,0.0,0.0,1,0.1111111111111111,0,1735643777088253974,map,0.984287518695516,-0.2521028247267131,0.1485955530310819,-0.5036846397816147,0.5088951545073754,-0.4944622119130055,0.4927825345495489,0.0,0.0,0.0,16,0.1111111111111111,0,1735643777088270664,map,0.9805534076079708,0.0531661477453988,0.0273727121648305,-0.4861583541389128,0.4934827134284831,-0.5033223852609201,0.5165185792819685,0.0,0.0,0.0,17,0.1111111111111111,0,1735643777088284730,map,1.0070743134682196,-0.2584243994093769,0.2374742290026468,-0.4863541571895457,0.4797186077929851,-0.5001175221951888,0.5321768081333041,0.0,0.0,0.0,121,0.1111111111111111,0,1735643777088297367,map,1.011296914896391,0.2052390914192627,0.2427005670650027,-0.5152945050538051,0.4912718239473929,-0.4859551296452133,0.5069232486563028,0.0,0.0,0.0,122,0.1111111111111111,0,1735643777088310956,map,1.0083857496422262,0.2075837051116647,0.1447902774051928,-0.4867244712028875,0.4975291040290722,-0.4773790025894294,0.5363519065529831,0.0,0.0,0.0,124,0.1111111111111111,0,1735643777088322877,map,1.0075970394895908,-0.0272113708961707,0.2434797267086368,-0.5018676409420507,0.5029567781798763,-0.4968413422338745,0.4983091720061168,0.0,0.0,0.0,125,0.1111111111111111,0,1735643777088343858,map,0.9926387600141868,-0.0231152366070526,0.1471346112888417,0.655609406439105,-0.4884889767149506,0.3519417496747022,-0.4557321918105567,0.0,0.0,0.0,126,0.1111111111111111,0,1735644242188269615,map,0.9791956936607658,0.3327282188908306,0.0248793594514132,-0.494205322198757,0.4920101238392655,-0.4887206237405541,0.5242511702235266,0.0,0.0,0.0,0,0.1111111111111111,0.9492040972379197,-0.4920333304789606,0.0705893356991342,1.0,0.0,0.0,0.0,0.0,0.0,0.0,0.0,0.0,0.0,0.0,0.0,0.0,0.0,0.0,0.0,0.0,0.0,0.0,0.0,0.0,0.0,0.0,0.0,0.0,0.0,0.0,0.0,0.0,0.0,0.0,0.0,0.0,0.0,0.0,0.0,0.0,0,0,0,1,1,,1
0.098855814,0,1735643777088230371,map,0.9852403128196788,-0.2236276564175321,0.0208270313827023,-0.5103739253435178,0.7176547166932501,-0.3805570772894355,0.2822525019593324,0.0,0.0,0.0,1,,0,1735643777088253974,map,0.9862291631322,-0.2528057915090569,0.1483356978862803,-0.4997854334411499,0.5069504414132417,-0.4981147255887265,0.4950732174361981,0.0,0.0,0.0,16,,0,1735643777088270664,map,0.9796417769174586,0.052424831558476,0.027817148962863,-0.4858234160816847,0.5037079098228081,-0.5054734299448292,0.5047282056597098,0.0,0.0,0.0,17,,0,1735643777088284730,map,1.001844079339441,-0.2572115608669851,0.2374047912601126,-0.5207041794593323,0.5203039585013708,-0.4548598739987706,0.5012518760934566,0.0,0.0,0.0,121,,0,1735643777088297367,map,1.0154694871799963,0.2072036204557916,0.2431525932210239,0.5188733365798123,-0.4918613400388775,0.496300792446806,-0.4924717313494909,0.0,0.0,0.0,122,,0,1735643777088310956,map,1.006027448237814,0.2058165560339139,0.1450366904760635,-0.4756933768439399,0.4963050150421006,-0.4947037464187728,0.531662812833567,0.0,0.0,0.0,124,,0,1735643777088322877,map,0.9961527072553326,-0.0292573188706244,0.2428463862880637,-0.5849837599617118,0.4748134834286576,-0.4133682327448351,0.5113441704887368,0.0,0.0,0.0,125,,0,1735643777088343858,map,0.9962575683586908,-0.0231028541530573,0.1464526888339978,-0.4670624225061399,0.4762298518680949,-0.5359740902312691,0.5174839091925005,0.0,0.0,0.0,126,,0,1735644242188269615,map,0.978298444445685,0.3312848060926645,0.0252494789005186,-0.5026378453392146,0.4999373496851307,-0.4808654693214118,0.5159324018094401,0.0,0.0,0.0,0,,0.9506331882744598,-0.4384793208030724,0.0378221067293509,1.0,2.042301190719251e-06,7.653355519859345e-05,-4.6827353212974254e-05,0.0,0.0,0.0,7.653355519859345e-05,0.0028680319523651,-0.0017548164972998,0.0,0.0,0.0,-4.6827353212974254e-05,-0.0017548164972998,0.0010736912943582,0.0,0.0,0.0,0.0,0.0,0.0,0.0,0.0,0.0,0.0,0.0,0.0,0.0,0.0,0.0,0.0,0.0,0.0,0.0,0.0,0.0,0,0,0,1,2,,1
0.200414436,0,1735643777088230371,map,0.9846531142313792,-0.2235431323888444,0.0209524144444046,-0.5231556578949406,0.7177019074048653,-0.3567768014050594,0.2896937066957183,0.0,0.0,0.0,1,0.9999999999905028,0,1735643777088253974,map,0.9881462090000184,-0.2533234643631836,0.1479792216105328,-0.4980222757913166,0.5039512424216787,-0.4991089106885847,0.4988960346089537,0.0,0.0,0.0,16,9.497168057465206e-12,0,1735643777088270664,map,0.9964617461158464,0.0564997862246332,0.0223725251650514,-0.5015053856881118,0.5069898806302888,-0.4818309065815044,0.5092078028930322,0.0,0.0,0.0,17,0.0,0,1735643777088284730,map,1.01299384092077,-0.2598167320793072,0.2376904388480939,-0.3840721773425616,0.6132861237607028,-0.5729238890601294,0.3848725897464408,0.0,0.0,0.0,121,1.6397361743255732e-27,0,1735643777088297367,map,1.0141257466745384,0.2068692140390727,0.2429082039669824,-0.509824192445459,0.4941508953897954,-0.4907308153872173,0.5050519302133155,0.0,0.0,0.0,122,0.0,0,1735643777088310956,map,1.010591741612013,0.2070171590406845,0.1444276304380763,-0.5061489739914944,0.5098234535793609,-0.467573981045998,0.5150415852691584,0.0,0.0,0.0,124,0.0,0,1735643777088322877,map,1.0032980128696545,-0.0293951899369698,0.243057233458736,0.5564879753931742,-0.5054242841487666,0.4447020241579588,-0.4869368911320307,0.0,0.0,0.0,125,0.0,0,1735643777088343858,map,1.0019055368206262,-0.0233570773212096,0.1454910400565266,-0.5225205324345277,0.4450629191114412,-0.4678462173424556,0.5567865013941126,0.0,0.0,0.0,126,0.0,0,1735644242188269615,map,0.9672631682584928,0.324307591081065,0.0284324873322464,-0.4810939945357737,0.4950691399999342,-0.4871980609486707,0.5348767750138285,0.0,0.0,0.0,0,0.0,0.9496285671758872,-0.4350716492301527,0.0521643087688827,1.0,3.3800612305399185e-06,4.417553261407429e-05,-6.003519301312049e-05,0.0,0.0,0.0,4.417553261407429e-05,0.0019352457526745,-0.0010721306365001,0.0,0.0,0.0,-6.003519301312049e-05,-0.0010721306365001,0.0011271917149243,0.0,0.0,0.0,0.0,0.0,0.0,0.0,0.0,0.0,0.0,0.0,0.0,0.0,0.0,0.0,0.0,0.0,0.0,0.0,0.0,0.0,0,0,0,1,3,,1
0.300028522,0,1735643777088230371,map,0.9780555756239953,-0.2226847699485511,0.0241718787271787,-0.5045986793375395,0.7409701703757335,-0.3626580640775522,0.2546026472440721,0.0,0.0,0.0,1,0.9999999999988279,0,1735643777088253974,map,0.9802757809403356,-0.2518500352034251,0.1500181965508838,-0.5237407638001221,0.4895821381230624,-0.4698798824778891,0.5149930469506167,0.0,0.0,0.0,16,1.1720483097807682e-12,0,1735643777088270664,map,0.9919748676426292,0.0551639556755379,0.0250225595690355,-0.518869914359809,0.4877108123369675,-0.4645467982480514,0.5264109114934296,0.0,0.0,0.0,17,0.0,0,1735643777088284730,map,1.0057547746528317,-0.2588820704031203,0.238665030693979,-0.5108417843897322,0.5270401686718947,-0.4650238748069004,0.4949970987666405,0.0,0.0,0.0,121,8.439302507697528e-30,0,1735643777088297367,map,1.0118961182618014,0.2055035163048847,0.2439900249166811,0.5146384897571638,-0.5049027376212315,0.4936537034323817,-0.4863398724046234,0.0,0.0,0.0,122,0.0,0,1735643777088310956,map,1.0063627495866594,0.2063436224593955,0.1460703650678696,-0.4785661780068987,0.4981142578150195,-0.4860383444031197,0.5353721389829093,0.0,0.0,0.0,124,0.0,0,1735643777088322877,map,0.9990582709828676,-0.0287018128656228,0.244611628180118,-0.4732759839481752,0.4991176655585508,-0.5209406393618808,0.5054821947472566,0.0,0.0,0.0,125,0.0,0,1735643777088343858,map,0.997870105483358,-0.0227501466816426,0.147398069283191,0.4856376392625408,-0.50356544685454,0.5181591720349519,-0.4920254022931605,0.0,0.0,0.0,126,0.0,0,1735644242188269615,map,0.9672631682584928,0.324307591081065,0.0284324873322464,-0.4810939945357737,0.4950691399999342,-0.4871980609486707,0.5348767750138285,0.0,0.0,0.0,0,0.0,0.9498107562304104,-0.4422292436978934,0.0509479507425435,1.0,2.63462447766894e-06,2.921954335434455e-05,-4.569121611618116e-05,0.0,0.0,0.0,2.921954335434455e-05,0.0016051277901997,-0.0007779793849347,0.0,0.0,0.0,-4.569121611618116e-05,-0.0007779793849347,0.0008498323667379,0.0,0.0,0.0,0.0,0.0,0.0,0.0,0.0,0.0,0.0,0.0,0.0,0.0,0.0,0.0,0.0,0.0,0.0,0.0,0.0,0.0,0,0,0,1,4,,1
0.400338244,0,1735643777088230371,map,0.980864201138109,-0.2240535082372184,0.0215662161140737,-0.4913378917676364,0.498236030043482,-0.4902075680957543,0.519658036271442,0.0,0.0,0.0,1,0.5292909398315964,0,1735643777088253974,map,0.9779172016183896,-0.2520213781812205,0.1488591094497193,0.5298443341288502,-0.5136184152131208,0.4591672520314389,-0.4945973511932859,0.0,0.0,0.0,16,0.4688567561426545,0,1735643777088270664,map,0.9900701371486652,0.0541525552571255,0.0240697668460965,-0.4924469057412485,0.5087440993074868,-0.5026440464595261,0.4960085170684852,0.0,0.0,0.0,17,1.7574160532280436e-33,0,1735643777088284730,map,1.0053907338362218,-0.2590948414710017,0.2373669944037731,-0.4626169382056896,0.4526225814836001,-0.5267575565923702,0.551039784216304,0.0,0.0,0.0,121,0.0018523040257492126,0,1735643777088297367,map,1.0138525260105422,0.2062302360942628,0.2429779350680463,-0.6353616516013045,0.2104001003988901,-0.22672649249291,0.7075609281386741,0.0,0.0,0.0,122,0.0,0,1735643777088310956,map,1.0023106984758925,0.204380297590318,0.1452828355387645,-0.4764226995987016,0.5053136487380806,-0.4930931792116515,0.5239643540557312,0.0,0.0,0.0,124,0.0,0,1735643777088322877,map,1.0081385159049896,-0.02757542283793,0.2434764990157154,-0.4987653508298386,0.5039346296817625,-0.4998535680020569,0.4974227823237556,0.0,0.0,0.0,125,7.571878717859324e-28,0,1735643777088343858,map,0.9939797779962016,-0.0240304412316306,0.1463420209349685,0.6756675964556547,-0.4609261047029236,0.3337492302095911,-0.4686489906505011,0.0,0.0,0.0,126,1.784147661494402e-24,0,1735644242188269615,map,0.9672631682584928,0.324307591081065,0.0284324873322464,-0.4810939945357737,0.4950691399999342,-0.4871980609486707,0.5348767750138285,0.0,0.0,0.0,0,0.0,0.9513116596017812,-0.4466631368873435,0.029381568611316,1.0,1.1118543302906003e-05,-3.2437462619018508e-06,-0.000166029195489,0.0,0.0,0.0,-3.2437462619018508e-06,0.0013627398674216,-0.0002398913685369,0.0,0.0,0.0,-0.000166029195489,-0.0002398913685369,0.0025403012463108,0.0,0.0,0.0,0.0,0.0,0.0,0.0,0.0,0.0,0.0,0.0,0.0,0.0,0.0,0.0,0.0,0.0,0.0,0.0,0.0,0.0,0,0,0,1,5,,1
0.501456673,0,1735643777088230371,map,0.9758973537251424,-0.2239977824749771,0.0217274818180976,-0.4920916922633643,0.4881606307460234,-0.4987251818413513,0.5204019196662651,0.0,0.0,0.0,1,0.9724318790117548,0,1735643777088253974,map,0.9778656851311702,-0.2525790328156844,0.1479062480699606,-0.5238413523243994,0.4879104273980874,-0.4693057741717124,0.516996849855248,0.0,0.0,0.0,16,0.027530568443845025,0,1735643777088270664,map,0.982365920912777,0.0516155001912015,0.0252351161568568,-0.4796228327624146,0.5043230768679747,-0.5095551913627535,0.5059384146184623,0.0,0.0,0.0,17,1.2599338149897127e-33,0,1735643777088284730,map,1.014931384922988,-0.261718406885264,0.2366194565123292,0.3721305890956438,-0.5907960279075263,0.5964953349520549,-0.3958183844245417,0.0,0.0,0.0,121,3.755254440018584e-05,0,1735643777088297367,map,1.0142844701769764,0.2066858943963599,0.2418303951085915,-0.5051440413951087,0.4907617197748293,-0.4948216519638928,0.5090520254300073,0.0,0.0,0.0,122,0.0,0,1735643777088310956,map,1.0018730862770426,0.2040333745375094,0.1441598090396108,-0.466594713611631,0.5005698746300636,-0.5028374566514701,0.5280849041875778,0.0,0.0,0.0,124,0.0,0,1735643777088322877,map,1.0150809462646126,-0.0271601114462865,0.2426628058917458,-0.4986355804583128,0.5051557578121673,-0.4995083490931938,0.4966604750092447,0.0,0.0,0.0,125,1.442293805256013e-33,0,1735643777088343858,map,1.0058826496261188,-0.0223138265903083,0.1439186923480203,-0.4999769942503659,0.5209255906396565,-0.5077421753448438,0.4699546974051653,0.0,0.0,0.0,126,4.728759214573492e-28,0,1735644242188269615,map,0.9672631682584928,0.324307591081065,0.0284324873322464,-0.4810939945357737,0.4950691399999342,-0.4871980609486707,0.5348767750138285,0.0,0.0,0.0,0,0.0,0.9524205747730806,-0.4369651232471345,0.0107007053811691,1.0,1.5413917038110816e-05,5.106825040056044e-05,-0.0002419351261519,0.0,0.0,0.0,5.106825040056044e-05,0.0016058738990131,-0.0011057458058649,0.0,0.0,0.0,-0.0002419351261519,-0.0011057458058649,0.0038617909603763,0.0,0.0,0.0,0.0,0.0,0.0,0.0,0.0,0.0,0.0,0.0,0.0,0.0,0.0,0.0,0.0,0.0,0.0,0.0,0.0,0.0,0,0,0,1,6,,1
0.600783768,0,1735643777088230371,map,0.9825464715287544,-0.224572569835445,0.019576221461686,-0.4881516609689761,0.52615586066125,-0.5079516016510005,0.4762910208740371,0.0,0.0,0.0,1,0.998846440778733,0,1735643777088253974,map,0.981869660472626,-0.2529043993226597,0.147666811681586,-0.5025703324322778,0.5061484380470388,-0.4957796376637838,0.4954183792507297,0.0,0.0,0.0,16,0.0011534607574387196,0,1735643777088270664,map,0.9854082391827076,0.0544042183708913,0.0242633923474766,-0.5037807468903921,0.4868045830413763,-0.4862770133702983,0.5222651848057007,0.0,0.0,0.0,17,7.8879299193325415e-28,0,1735643777088284730,map,1.006056779779222,-0.2594031420467508,0.237418198433548,-0.4647472746520836,0.4682907529304453,-0.5276651116573527,0.5350544564461925,0.0,0.0,0.0,121,9.84638282867284e-08,0,1735643777088297367,map,1.0089913799805177,0.2048516256833169,0.2421758177813372,-0.5074146798766133,0.4912114225908069,-0.4945172710494365,0.5066501254276442,0.0,0.0,0.0,122,0.0,0,1735643777088310956,map,1.004260321162315,0.2060604906754392,0.1442098470284848,-0.4773929377769997,0.5035012628966462,-0.4891168866609643,0.5285330002991425,0.0,0.0,0.0,124,0.0,0,1735643777088322877,map,1.0069080301068485,-0.0280214055415973,0.2427825054081615,-0.5002596642195373,0.5028222184867724,-0.4980173268315471,0.4988875896698134,0.0,0.0,0.0,125,5.7330512002953724e-33,0,1735643777088343858,map,1.004250242370203,-0.0223611981577972,0.144440297260714,0.504393593609917,-0.503841142329289,0.4970774645350825,-0.4946162151334756,0.0,0.0,0.0,126,8.322116902872071e-26,0,1735644242188269615,map,0.9672631682584928,0.324307591081065,0.0284324873322464,-0.4810939945357737,0.4950691399999342,-0.4871980609486707,0.5348767750138285,0.0,0.0,0.0,0,0.0,0.9530431461116048,-0.4236299637240375,-0.0014578031085659,1.0,1.5537499319119292e-05,9.3585314739983e-05,-0.0002527901987025,0.0,0.0,0.0,9.3585314739983e-05,0.0024434222190498,-0.0019205960209541,0.0,0.0,0.0,-0.0002527901987025,-0.0019205960209541,0.0041970825096351,0.0,0.0,0.0,0.0,0.0,0.0,0.0,0.0,0.0,0.0,0.0,0.0,0.0,0.0,0.0,0.0,0.0,0.0,0.0,0.0,0.0,0,0,0,1,7,,1
0.69963938,0,1735643777088230371,map,0.9768675649248856,-0.2234964531027307,0.0209230534501204,0.4794231009696774,-0.5088703194512408,0.5112478967664505,-0.4998300474062073,0.0,0.0,0.0,1,0.9995836541106599,0,1735643777088253974,map,0.9830521496776876,-0.2533694174316725,0.1475785989764811,-0.5079566069305785,0.5448420719730059,-0.4796912453195999,0.4637062769118691,0.0,0.0,0.0,16,0.0004163264540668135,0,1735643777088270664,map,0.9845540688573482,0.0544121254591903,0.0243177888128353,-0.4984502369802907,0.4999780019215022,-0.4943184479372632,0.5071672612440296,0.0,0.0,0.0,17,2.167920930592713e-15,0,1735643777088284730,map,1.006706540360455,-0.2593596315198878,0.2375966379989181,-0.4978956381456104,0.5138212600709137,-0.4844484643621594,0.5033858674931787,0.0,0.0,0.0,121,1.943527124132056e-08,0,1735643777088297367,map,1.0089913799805177,0.2048516256833169,0.2421758177813372,-0.5074146798766133,0.4912114225908069,-0.4945172710494365,0.5066501254276442,0.0,0.0,0.0,122,0.0,0,1735643777088310956,map,0.9990546932210248,0.2064969455814702,0.1449342871877883,-0.4744803665068904,0.5050417329946904,-0.4940964866830865,0.5250427521456109,0.0,0.0,0.0,124,1.4656653058330819e-38,0,1735643777088322877,map,0.99543808657995,-0.0276448046686858,0.2428947330081005,-0.5064787824429758,0.5177271592329704,-0.4911517244237542,0.4839502196747224,0.0,0.0,0.0,125,1.4534197708066476e-24,0,1735643777088343858,map,1.0022944210981073,-0.0203578107259413,0.1447206837034687,-0.5075525421199134,0.4621419722747558,-0.4848826589451133,0.5419446664595284,0.0,0.0,0.0,126,2.1191794143877263e-17,0,1735644242188269615,map,0.9672631682584928,0.324307591081065,0.0284324873322464,-0.4810939945357737,0.4950691399999342,-0.4871980609486707,0.5348767750138285,0.0,0.0,0.0,0,2.3078039456289583e-41,0.9535044266735294,-0.4022239106276781,-0.0129066813818593,1.0,1.5084770201896542e-05,0.0001510065238036,-0.0002581594388879,0.0,0.0,0.0,0.0001510065238036,0.0053455282058177,-0.0033960485918179,0.0,0.0,0.0,-0.0002581594388879,-0.0033960485918179,0.0045899848919476,0.0,0.0,0.0,0.0,0.0,0.0,0.0,0.0,0.0,0.0,0.0,0.0,0.0,0.0,0.0,0.0,0.0,0.0,0.0,0.0,0.0,0,0,0,1,8,,1
0.79912265,0,1735643777088230371,map,0.9792843852447796,-0.2236466750786503,0.0198110450862313,0.4773476935443476,-0.5136909402300115,0.5163803054364278,-0.4915406163796434,0.0,0.0,0.0,1,0.9999076814752995,0,1735643777088253974,map,0.974204017571484,-0.2514945555637758,0.1478126109437973,-0.4818857355157747,0.4681800566395016,-0.5074402216794012,0.539534979304784,0.0,0.0,0.0,16,9.231699903311816e-05,0,1735643777088270664,map,0.9752307944225432,0.0522761452303055,0.0265011229996988,-0.4814017727504737,0.4980850245421375,-0.5045219586971774,0.5153845503232737,0.0,0.0,0.0,17,3.7064470959858036e-13,0,1735643777088284730,map,0.9988543520898936,-0.2576716611905726,0.2373063042440449,0.5299072498255022,-0.5266107691108397,0.4512858733321276,-0.4880783389679588,0.0,0.0,0.0,121,1.5252965167697086e-09,0,1735643777088297367,map,1.0041746017259885,0.2072237565329677,0.2428532609008291,-0.4950986250286791,0.4940432913203182,-0.5047008275529032,0.5060391807592695,0.0,0.0,0.0,122,0.0,0,1735643777088310956,map,1.0015407388292732,0.2094453304838525,0.1446614479415226,-0.4926394690309707,0.5046542746855602,-0.480488506587084,0.5213072142529658,0.0,0.0,0.0,124,3.361627019245523e-35,0,1735643777088322877,map,1.0043694272457049,-0.0252660986684174,0.2435949774910026,-0.5104670770087393,0.5002648785466143,-0.4886663699771718,0.5003634613320888,0.0,0.0,0.0,125,1.6018088969517543e-24,0,1735643777088343858,map,0.9969493557075888,-0.0206008151457827,0.1450527542874146,-0.48392477017846,0.4813037693332792,-0.5160137071717301,0.5175841501091296,0.0,0.0,0.0,126,1.708163029218557e-16,0,1735644242188269615,map,0.9672631682584928,0.324307591081065,0.0284324873322464,-0.4810939945357737,0.4950691399999342,-0.4871980609486707,0.5348767750138285,0.0,0.0,0.0,0,3.970750042181641e-35,0.9539268460677862,-0.3834371123913771,-0.0232182912813394,1.0,1.483618978106234e-05,0.0001977152846068,-0.0002643216488496,0.0,0.0,0.0,0.0001977152846068,0.0075751309311654,-0.0045684869367775,0.0,0.0,0.0,-0.0002643216488496,-0.0045684869367775,0.0049306209603725,0.0,0.0,0.0,0.0,0.0,0.0,0.0,0.0,0.0,0.0,0.0,0.0,0.0,0.0,0.0,0.0,0.0,0.0,0.0,0.0,0.0,0,0,0,1,9,,1
0.900636316,0,1735643777088230371,map,0.9716073057928089,-0.223257962921994,0.0221139827576497,-0.4903621170050202,0.492150305241973,-0.4953844065349968,0.5214665483217084,0.0,0.0,0.0,1,0.9998965334959417,0,1735643777088253974,map,0.9726508049408116,-0.2518142390454184,0.1483512886903331,-0.5145791942108978,0.4916659985025809,-0.474878189703218,0.5176519136890326,0.0,0.0,0.0,16,0.00010346448694513406,0,1735643777088270664,map,0.9860700689542564,0.0553089167611233,0.0228840740546791,-0.507160211451197,0.5028336181006136,-0.4894529564347557,0.500382529537054,0.0,0.0,0.0,17,6.273231611859395e-11,0,1735643777088284730,map,1.0038727726978198,-0.2590976541719784,0.2373380658218638,0.3470570016646414,-0.5264519383381565,0.6405167007122051,-0.4383356594258539,0.0,0.0,0.0,121,1.9543708144821938e-09,0,1735643777088297367,map,1.0016117761014498,0.2060138950110682,0.2426898029673981,0.5123933340207775,-0.5001027449518995,0.4971061348529657,-0.4901385584038379,0.0,0.0,0.0,122,4.0298143453525833e-41,0,1735643777088310956,map,0.9966126142000638,0.2067054473924406,0.1448593750094942,-0.4801211107731149,0.5031417421964147,-0.4870838689752605,0.5282815639728857,0.0,0.0,0.0,124,1.508705946675658e-30,0,1735643777088322877,map,0.9911547470988912,-0.0283471147311076,0.2427868156715674,0.53139304464401,-0.5213475765873569,0.4679589014890903,-0.4762694647020563,0.0,0.0,0.0,125,1.8761961670616302e-22,0,1735643777088343858,map,1.005027346728701,-0.0191187344791998,0.1443777408219752,-0.5398105055665892,0.4687503619918651,-0.4595778593912225,0.5269401364195183,0.0,0.0,0.0,126,1.0026288058489349e-14,0,1735644242188269615,map,0.9672631682584928,0.324307591081065,0.0284324873322464,-0.4810939945357737,0.4950691399999342,-0.4871980609486707,0.5348767750138285,0.0,0.0,0.0,0,1.6726787832795682e-29,0.9540258144428696,-0.3687780958598441,-0.0278059796504262,1.0,1.3440723456355532e-05,0.0001910007675641,-0.0002419758085342,0.0,0.0,0.0,0.0001910007675641,0.0087515987290946,-0.0047168972398954,0.0,0.0,0.0,-0.0002419758085342,-0.0047168972398954,0.0046269808254819,0.0,0.0,0.0,0.0,0.0,0.0,0.0,0.0,0.0,0.0,0.0,0.0,0.0,0.0,0.0,0.0,0.0,0.0,0.0,0.0,0.0,0,0,0,1,10,,1
0.999413802,0,1735643777088230371,map,0.9735959445428028,-0.2236912443854127,0.0223024962408813,-0.4752011526700575,0.5218562434604419,-0.5138488594738991,0.4876569237484257,0.0,0.0,0.0,1,0.9997766121918491,0,1735643777088253974,map,0.9659877400493884,-0.2507539131192948,0.1503784742607971,-0.4981035199899231,0.4738003120716468,-0.495793536217994,0.5306551772091888,0.0,0.0,0.0,16,0.00022337239472766622,0,1735643777088270664,map,0.9735197367988692,0.0524497858501314,0.027713594918986,-0.4847498409618131,0.5008654927478998,-0.5037299894751951,0.5103013301621118,0.0,0.0,0.0,17,4.714648350849187e-09,0,1735643777088284730,map,0.9948713688031612,-0.2580406464914181,0.239448288846804,-0.5012986779554841,0.5090598517642029,-0.4816176348705176,0.5075452261460264,0.0,0.0,0.0,121,1.0696589265646348e-08,0,1735643777088297367,map,0.9994484816847814,0.2074869229658362,0.2453231540988655,-0.5061923394524398,0.494910206396928,-0.4941336503509829,0.5046435758776971,0.0,0.0,0.0,122,1.4121083600017928e-34,0,1735643777088310956,map,0.9913073880693316,0.206323592207633,0.1474160436828344,-0.4757297456312293,0.4995499728320426,-0.4950615884941919,0.5282471555652332,0.0,0.0,0.0,124,2.560527730570419e-25,0,1735643777088322877,map,0.9880722118282472,-0.0278454191612225,0.2453305225926339,-0.4962210708291838,0.4972207185439052,-0.5017573120774818,0.5047532126619918,0.0,0.0,0.0,125,2.863707262772812e-19,0,1735643777088343858,map,0.9836922366450018,-0.0231054645772589,0.1478379004835356,0.474977780388638,-0.4967080172079927,0.529036372104247,-0.4977928994764427,0.0,0.0,0.0,126,2.1856259803514166e-12,0,1735644242188269615,map,0.9672631682584928,0.324307591081065,0.0284324873322464,-0.4810939945357737,0.4950691399999342,-0.4871980609486707,0.5348767750138285,0.0,0.0,0.0,0,5.275635554037468e-24,0.9538471036171317,-0.3584428900312439,-0.0273145631350386,1.0,1.2538215098136813e-05,0.0001551669297439,-0.0002208562222708,0.0,0.0,0.0,0.0001551669297439,0.0090241636398268,-0.0042372994915639,0.0,0.0,0.0,-0.0002208562222708,-0.0042372994915639,0.0042087611068995,0.0,0.0,0.0,0.0,0.0,0.0,0.0,0.0,0.0,0.0,0.0,0.0,0.0,0.0,0.0,0.0,0.0,0.0,0.0,0.0,0.0,0,0,0,1,11,,1
1.100981853,0,1735643777088230371,map,0.9630037553943764,-0.2226855741577831,0.0256434634394611,-0.4999624403569121,0.4861737261976185,-0.4853101667605275,0.5273961587140662,0.0,0.0,0.0,1,0.9998318993775035,0,1735643777088253974,map,0.97314159255009,-0.2529872751862583,0.1496028662226672,0.5149926666359655,-0.5122944274906335,0.4786625185774234,-0.4931725521380306,0.0,0.0,0.0,16,0.0001680963857765895,0,1735643777088270664,map,0.9737590302545452,0.0523715729912266,0.0277198871702637,-0.4795522376772091,0.5061953785075143,-0.5083326217131678,0.5053650520352913,0.0,0.0,0.0,17,1.8144078618498008e-09,0,1735643777088284730,map,0.9982870716096098,-0.2592095176054945,0.2401957195139127,-0.4662291079900446,0.4962018997877869,-0.5179346365241986,0.5178395560386868,0.0,0.0,0.0,121,2.4220619509186647e-09,0,1735643777088297367,map,1.001669147063211,0.2089821467381148,0.246171193732136,-0.5211945487642051,0.4885142545297114,-0.4845500056958238,0.5048973731759098,0.0,0.0,0.0,122,1.9070455749656914e-37,0,1735643777088310956,map,0.9899544065789828,0.2056123023258435,0.1477503719262792,-0.484266031533343,0.5034607794715215,-0.4875484158532848,0.5237463092336094,0.0,0.0,0.0,124,4.388733066252312e-27,0,1735643777088322877,map,0.9893229517385316,-0.027708314974173,0.2460518335810867,-0.5136315622316734,0.5138899606296542,-0.4846189628712133,0.4870771884097347,0.0,0.0,0.0,125,7.699296064411913e-21,0,1735643777088343858,map,0.9902893028850114,-0.0210051470868806,0.1482476121344899,0.5351138828934945,-0.5174982985299355,0.4773989782654528,-0.4668392216859793,0.0,0.0,0.0,126,2.5008313296286716e-13,0,1735644242188269615,map,0.9672631682584928,0.324307591081065,0.0284324873322464,-0.4810939945357737,0.4950691399999342,-0.4871980609486707,0.5348767750138285,0.0,0.0,0.0,0,2.0680264027319817e-25,0.9540043467985848,-0.3516510602472635,-0.0311103484562639,1.0,1.17653434392079e-05,0.0001539840104196,-0.0002090170120418,0.0,0.0,0.0,0.0001539840104196,0.0087795684731348,-0.0041677748063815,0.0,0.0,0.0,-0.0002090170120418,-0.0041677748063815,0.004016518862911,0.0,0.0,0.0,0.0,0.0,0.0,0.0,0.0,0.0,0.0,0.0,0.0,0.0,0.0,0.0,0.0,0.0,0.0,0.0,0.0,0.0,0,0,0,1,12,,1
1.201556694,0,1735643777088230371,map,0.966351518927394,-0.2235145426159378,0.0240015354457127,-0.4906933444647782,0.503149081402717,-0.501070023337155,0.504965221866294,0.0,0.0,0.0,1,0.9999418686801398,0,1735643777088253974,map,0.9693171262869024,-0.2524528002181744,0.1501166119780209,-0.5023958087257843,0.5007247975264577,-0.4879056241881418,0.508744759582281,0.0,0.0,0.0,16,5.813062288145142e-05,0,1735643777088270664,map,0.9726882205793388,0.0526803490943919,0.0276603984230852,-0.4916075665545169,0.5000716897640022,-0.49589551687131,0.5121893614180774,0.0,0.0,0.0,17,3.589330897186726e-10,0,1735643777088284730,map,0.9939365221432176,-0.25847987215714,0.2400292513738803,0.3433422484745195,-0.5281911814576392,0.643089932790943,-0.4353912201523879,0.0,0.0,0.0,121,3.3802472086373835e-10,0,1735643777088297367,map,0.996982063526756,0.2073588020171783,0.2459675754854567,0.5215789084967778,-0.4948004730885871,0.4895082547884083,-0.4934669214209063,0.0,0.0,0.0,122,2.5242517767559758e-40,0,1735643777088310956,map,0.98989285146239,0.2068438809185227,0.1479113644035228,-0.4899549146819635,0.5024294245171399,-0.4805645956739784,0.5258959253912042,0.0,0.0,0.0,124,2.6421541869583553e-29,0,1735643777088322877,map,0.9915996546467228,-0.0267234604158326,0.2465545257968257,-0.5386816255690006,0.4894910533685875,-0.4634936566971897,0.5053654570188955,0.0,0.0,0.0,125,1.1721096825414432e-22,0,1735643777088343858,map,0.979971860185218,-0.0229378964556077,0.1488821067378558,-0.4762181942178476,0.495049439255987,-0.5267423494624126,0.5006843131865057,0.0,0.0,0.0,126,2.0839083612571916e-14,0,1735644242188269615,map,0.9672631682584928,0.324307591081065,0.0284324873322464,-0.4810939945357737,0.4950691399999342,-0.4871980609486707,0.5348767750138285,0.0,0.0,0.0,0,2.9783580025061732e-27,0.954112168033158,-0.3472606384176104,-0.0336566369291354,1.0,1.0999822044305218e-05,0.0001478196549648,-0.000196233307947,0.0,0.0,0.0,0.0001478196549648,0.0083355266982319,-0.0039813281103028,0.0,0.0,0.0,-0.000196233307947,-0.0039813281103028,0.0037853588933013,0.0,0.0,0.0,0.0,0.0,0.0,0.0,0.0,0.0,0.0,0.0,0.0,0.0,0.0,0.0,0.0,0.0,0.0,0.0,0.0,0.0,0,0,0,1,13,,1
1.29938692,0,1735643777088230371,map,0.964692857569602,-0.2238199295320169,0.0241117430593507,-0.489043525917335,0.490316983887229,-0.4948522390463552,0.5249256581468283,0.0,0.0,0.0,1,0.9993914374458978,0,1735643777088253974,map,0.9667402780818763,-0.2524367454918471,0.1498131119210441,-0.4933676696448714,0.4681298109729223,-0.4979076047526218,0.5380807000415013,0.0,0.0,0.0,16,0.000608488286770468,0,1735643777088270664,map,0.97322552527923,0.0523129295547175,0.0269629715705237,-0.4883057952915364,0.5016138632503868,-0.5023606900124976,0.5075181963337765,0.0,0.0,0.0,17,2.3188273777004233e-09,0,1735643777088284730,map,0.9942769161983204,-0.2593521960957001,0.2399916742748559,-0.484101054612135,0.5200638781680985,-0.4954667800437506,0.4996923067461151,0.0,0.0,0.0,121,7.19445050282924e-08,0,1735643777088297367,map,0.9890269942933017,0.2025555629518055,0.2449478285545138,-0.4956684686030403,0.4954368079598533,-0.5041456730767352,0.5046704656201647,0.0,0.0,0.0,122,1.708198937898134e-33,0,1735643777088310956,map,0.9912721097570169,0.2080117151406628,0.147399036826144,-0.4949571711507594,0.5024296480793886,-0.4762628810359828,0.5251242858643703,0.0,0.0,0.0,124,1.5362071023543498e-25,0,1735643777088322877,map,0.9958332190375896,-0.0256679193059058,0.246716132107842,-0.4814396702411087,0.4493601189378935,-0.4970066719599669,0.5650448614521972,0.0,0.0,0.0,125,1.8453523264479426e-18,0,1735643777088343858,map,0.978930860751576,-0.0233679342489013,0.1484019834470769,-0.465961038607098,0.4783686792349571,-0.5373490431337181,0.5150725415613562,0.0,0.0,0.0,126,3.9992709355275785e-12,0,1735644242188269615,map,0.9672631682584928,0.324307591081065,0.0284324873322464,-0.4810939945357737,0.4950691399999342,-0.4871980609486707,0.5348767750138285,0.0,0.0,0.0,0,3.0261423078932164e-25,0.954675519247316,-0.3455644765456704,-0.0424628794506237,1.0,1.4339860146128224e-05,0.0001496830612311,-0.0002467097395101,0.0,0.0,0.0,0.0001496830612311,0.0077775324803182,-0.0038911260973955,0.0,0.0,0.0,-0.0002467097395101,-0.0038911260973955,0.0045231249107228,0.0,0.0,0.0,0.0,0.0,0.0,0.0,0.0,0.0,0.0,0.0,0.0,0.0,0.0,0.0,0.0,0.0,0.0,0.0,0.0,0.0,0,0,0,1,14,,1
1.400791852,0,1735643777088230371,map,0.9620146815238309,-0.2236876710919983,0.0247316242414996,-0.4920989172028068,0.4904475940339666,-0.4979081922225895,0.519025283884853,0.0,0.0,0.0,1,0.9909606814210238,0,1735643777088253974,map,0.9653053059536176,-0.252725228677377,0.1500320223745358,-0.5277754019169167,0.496568902483597,-0.4658748156036437,0.5077726916681764,0.0,0.0,0.0,16,0.009010850851459301,0,1735643777088270664,map,0.9674592010536204,0.0505784273657113,0.028482581230273,-0.488843849053251,0.4981232761623428,-0.4993754909183838,0.5133507690245734,0.0,0.0,0.0,17,1.1338757716804918e-07,0,1735643777088284730,map,0.9941280761081556,-0.2597962384537493,0.2393809765351834,-0.485404483449823,0.5197791261406176,-0.492207948902635,0.5019397199986937,0.0,0.0,0.0,121,2.8345297774848636e-05,0,1735643777088297367,map,0.9975190985931076,0.2077316091133524,0.245207278241522,-0.5049085895299671,0.4776409857017294,-0.4988228334775768,0.5177858493606607,0.0,0.0,0.0,122,2.3182626960552276e-24,0,1735643777088310956,map,0.988450852142875,0.2058009787533224,0.1469223660961855,-0.494591557225541,0.504043057735012,-0.4761817992098031,0.5239949251392313,0.0,0.0,0.0,124,4.107656932205675e-19,0,1735643777088322877,map,0.98690639540843,-0.0284817609280509,0.2452695323224692,-0.538314350674575,0.4931321193629188,-0.4652748667937221,0.5005573603899267,0.0,0.0,0.0,125,1.2467291554076512e-12,0,1735643777088343858,map,0.9770609283407294,-0.0244699327126519,0.1478987526675907,-0.4821457924682283,0.4921895045160614,-0.5191752243032648,0.5057094154937918,0.0,0.0,0.0,126,9.040918275593541e-09,0,1735644242188269615,map,0.9672631682584928,0.324307591081065,0.0284324873322464,-0.4810939945357737,0.4950691399999342,-0.4871980609486707,0.5348767750138285,0.0,0.0,0.0,0,1.149624295341647e-20,0.9553691375979404,-0.3475921876237238,-0.0524339545983487,1.0,2.0119359298239844e-05,0.0001200137838934,-0.0003270881133136,0.0,0.0,0.0,0.0001200137838934,0.0073165928859885,-0.0033486592573825,0.0,0.0,0.0,-0.0003270881133136,-0.0033486592573825,0.0056134960044301,0.0,0.0,0.0,0.0,0.0,0.0,0.0,0.0,0.0,0.0,0.0,0.0,0.0,0.0,0.0,0.0,0.0,0.0,0.0,0.0,0.0,0,0,0,1,15,,1
1.499545762,0,1735643777088230371,map,0.963516090744308,-0.2243024090786129,0.0244325376883614,-0.4984258704629496,0.5019366038144945,-0.4882102159195323,0.5111575906471765,0.0,0.0,0.0,1,0.9901297700313656,0,1735643777088253974,map,0.968191966649915,-0.2535379731871565,0.1499344496779128,-0.5038934587909862,0.5057085215458051,-0.4943014185964519,0.4960003840695568,0.0,0.0,0.0,16,0.009841122373488737,0,1735643777088270664,map,0.972055576878508,0.0522674049028641,0.0272668552283185,-0.4890976050610344,0.4974114755289323,-0.4986258902690214,0.5145265574186787,0.0,0.0,0.0,17,5.237666866461918e-08,0,1735643777088284730,map,0.9913461634567632,-0.2590736385737514,0.2403150694659795,0.3366821004867901,-0.5179808863685916,0.6510774001139633,-0.4409525866002525,0.0,0.0,0.0,121,2.90501755613711e-05,0,1735643777088297367,map,0.989568625590457,0.2042829476833967,0.2457225037858279,0.5072066188738608,-0.494605343757664,0.498618504193315,-0.4994863231089821,0.0,0.0,0.0,122,1.1886998658733563e-24,0,1735643777088310956,map,0.98813679401942,0.207278830194872,0.1481086519091443,-0.4898415962946254,0.50403280892005,-0.481351123882563,0.5237434807314467,0.0,0.0,0.0,124,8.667764457993761e-20,0,1735643777088322877,map,0.988636941237092,-0.0271491966730423,0.2470982619299355,-0.5089958622333086,0.481332819521736,-0.486481690971793,0.522089545413286,0.0,0.0,0.0,125,7.678017227167592e-13,0,1735643777088343858,map,0.9824128075186728,-0.022257187294445,0.1486328448875563,-0.5064702308362001,0.4983224565371338,-0.4944866352582621,0.5006451858736738,0.0,0.0,0.0,126,5.042147766488094e-09,0,1735644242188269615,map,0.9672631682584928,0.324307591081065,0.0284324873322464,-0.4810939945357737,0.4950691399999342,-0.4871980609486707,0.5348767750138285,0.0,0.0,0.0,0,1.4653269089987872e-21,0.9557299732887522,-0.3469837723459527,-0.0579732907329633,1.0,2.081493527855413e-05,0.0001158059916058,-0.0003366269589431,0.0,0.0,0.0,0.0001158059916058,0.0068648583678676,-0.0031899213047912,0.0,0.0,0.0,-0.0003366269589431,-0.0031899213047912,0.0057229161763369,0.0,0.0,0.0,0.0,0.0,0.0,0.0,0.0,0.0,0.0,0.0,0.0,0.0,0.0,0.0,0.0,0.0,0.0,0.0,0.0,0.0,0,0,0,1,16,,1
1.601143288,0,1735643777088230371,map,0.9649373433082954,-0.2247466133666782,0.0242901269015814,-0.4835759107469409,0.5028606330808321,-0.5089330308616371,0.5042545907979418,0.0,0.0,0.0,1,0.9931423374332033,0,1735643777088253974,map,0.965498390338562,-0.2533953823403339,0.1505613803438671,-0.5181367588298567,0.5074490266113199,-0.4702847894558163,0.5028538568481046,0.0,0.0,0.0,16,0.0068431473874618325,0,1735643777088270664,map,0.9658056429862116,0.0493196623557156,0.029461088311292,-0.4853043147606506,0.4970192681754931,-0.5006243234839409,0.5165528587407482,0.0,0.0,0.0,17,2.0102330250743993e-08,0,1735643777088284730,map,0.9888375061832936,-0.2589205686367967,0.2409242790218776,-0.4895206111126953,0.5106105648111197,-0.4909984632708351,0.5084947703416437,0.0,0.0,0.0,121,1.4493583747379827e-05,0,1735643777088297367,map,0.9923064603718668,0.2058485387015213,0.2468267497251495,-0.5849204225566513,0.1230908213401124,-0.1517787163548138,0.7871975420691112,0.0,0.0,0.0,122,2.614286843494598e-26,0,1735643777088310956,map,0.98813679401942,0.207278830194872,0.1481086519091443,-0.4898415962946254,0.50403280892005,-0.481351123882563,0.5237434807314467,0.0,0.0,0.0,124,5.4305462975268445e-21,0,1735643777088322877,map,0.9894898852206246,-0.0267645301795248,0.247743412914587,-0.5019026096223942,0.4897418897049158,-0.4938345964770827,0.5141731646486484,0.0,0.0,0.0,125,1.2163238101545413e-13,0,1735643777088343858,map,0.9762740866681217,-0.023769690645164,0.1496427546724379,-0.4892975730588823,0.5137254451197997,-0.5126256576781859,0.483620705848249,0.0,0.0,0.0,126,1.4931355665468698e-09,0,1735644242188269615,map,0.9672631682584928,0.324307591081065,0.0284324873322464,-0.4810939945357737,0.4950691399999342,-0.4871980609486707,0.5348767750138285,0.0,0.0,0.0,0,7.59637260436205e-23,0.9559156515874428,-0.3446007431496237,-0.0612619797595823,1.0,2.014215021066546e-05,0.000116073503363,-0.000326595584057,0.0,0.0,0.0,0.000116073503363,0.0065519044201666,-0.0031276715465869,0.0,0.0,0.0,-0.000326595584057,-0.0031276715465869,0.0055593216565379,0.0,0.0,0.0,0.0,0.0,0.0,0.0,0.0,0.0,0.0,0.0,0.0,0.0,0.0,0.0,0.0,0.0,0.0,0.0,0.0,0.0,0,0,0,1,17,,1
1.700398297,0,1735643777088230371,map,0.9624106200945504,-0.2243070484569247,0.0244758362815835,-0.4870854588277871,0.502579021399303,-0.5064568223633452,0.5036502458348114,0.0,0.0,0.0,1,0.9947142334835934,0,1735643777088253974,map,0.964758676188956,-0.2530160405649283,0.1506726116375002,-0.5058305608600185,0.4860540668796967,-0.4890217790344119,0.5184058134316835,0.0,0.0,0.0,16,0.005277737979479048,0,1735643777088270664,map,0.9665208213031063,0.0513213306953495,0.0288748568332722,-0.484975359963569,0.4998635698930473,-0.5016035858636158,0.5131560721366821,0.0,0.0,0.0,17,9.51012005749286e-09,0,1735643777088284730,map,0.992119270288139,-0.2593249829952327,0.2418544779763322,0.3554778796750432,-0.5147316896853217,0.6289858892477955,-0.4615880369145078,0.0,0.0,0.0,121,8.018434155736535e-06,0,1735643777088297367,map,0.9923064603718668,0.2058485387015213,0.2468267497251495,-0.5849204225566513,0.1230908213401124,-0.1517787163548138,0.7871975420691112,0.0,0.0,0.0,122,2.332937105572009e-27,0,1735643777088310956,map,0.98813679401942,0.207278830194872,0.1481086519091443,-0.4898415962946254,0.50403280892005,-0.481351123882563,0.5237434807314467,0.0,0.0,0.0,124,8.844679321460902e-22,0,1735643777088322877,map,0.9803182768742612,-0.0280454066145359,0.2472109835995706,-0.5053653367934761,0.4998228231684578,-0.4927944411019818,0.501932924429664,0.0,0.0,0.0,125,3.836560422174209e-14,0,1735643777088343858,map,0.9788844811484918,-0.0221751350714314,0.1496471643451995,-0.502456408189595,0.4968831031360881,-0.4987941812196391,0.5018456978678729,0.0,0.0,0.0,126,5.926132975821252e-10,0,1735644242188269615,map,0.9672631682584928,0.324307591081065,0.0284324873322464,-0.4810939945357737,0.4950691399999342,-0.4871980609486707,0.5348767750138285,0.0,0.0,0.0,0,1.1515852883352293e-23,0.9559018693442656,-0.3423883781265386,-0.0615237415564085,1.0,1.90263710194873e-05,0.0001091066224017,-0.0003083900546422,0.0,0.0,0.0,0.0001091066224017,0.0062711172330787,-0.0029637569311634,0.0,0.0,0.0,-0.0003083900546422,-0.0029637569311634,0.0052516352804476,0.0,0.0,0.0,0.0,0.0,0.0,0.0,0.0,0.0,0.0,0.0,0.0,0.0,0.0,0.0,0.0,0.0,0.0,0.0,0.0,0.0,0,0,0,1,18,,1
1.79911597,0,1735643777088230371,map,0.963213841398559,-0.2247028584798701,0.0251818825441685,-0.5333556803235191,0.7014050512176249,-0.3705741010610986,0.293662234575364,0.0,0.0,0.0,1,0.9959950846370528,0,1735643777088253974,map,0.9659078687350072,-0.2536907760105554,0.1513101472206963,-0.4338473676720505,0.6276167151513153,-0.5263674480384413,0.3752479581186342,0.0,0.0,0.0,16,0.004000946322134991,0,1735643777088270664,map,0.9651186945369596,0.0503808039172137,0.0297981760486805,-0.4827731378415283,0.5026068677747809,-0.5078192565621358,0.5063951387098312,0.0,0.0,0.0,17,3.721761011034685e-09,0,1735643777088284730,map,0.9854478054929988,-0.2587764185897612,0.2420047010282122,-0.4947887518466615,0.5086200862034294,-0.4858474972263202,0.5103350942227669,0.0,0.0,0.0,121,3.965139337991063e-06,0,1735643777088297367,map,0.9923064603718668,0.2058485387015213,0.2468267497251495,-0.5849204225566513,0.1230908213401124,-0.1517787163548138,0.7871975420691112,0.0,0.0,0.0,122,1.074441040615482e-28,0,1735643777088310956,map,0.98813679401942,0.207278830194872,0.1481086519091443,-0.4898415962946254,0.50403280892005,-0.481351123882563,0.5237434807314467,0.0,0.0,0.0,124,7.607786267528055e-23,0,1735643777088322877,map,0.9837718264261082,-0.0267637791299373,0.2485353587903657,-0.5063626667665905,0.5013225255871644,-0.4913198120016473,0.5008766488653673,0.0,0.0,0.0,125,6.0856330646052466e-15,0,1735643777088343858,map,0.980324244185414,-0.0216429742706104,0.1503114500352551,-0.505655736346237,0.489516950762071,-0.4987929416503918,0.5058567312752679,0.0,0.0,0.0,126,1.7970701988307572e-10,0,1735644242188269615,map,0.9672631682584928,0.324307591081065,0.0284324873322464,-0.4810939945357737,0.4950691399999342,-0.4871980609486707,0.5348767750138285,0.0,0.0,0.0,0,7.74258336198833e-25,0.9559592396957396,-0.3432309144129936,-0.0622055880169949,1.0,1.8084227501201747e-05,0.0001024941097392,-0.0002928631190144,0.0,0.0,0.0,0.0001024941097392,0.0059538360444296,-0.0027974290773331,0.0,0.0,0.0,-0.0002928631190144,-0.0027974290773331,0.0049836018863066,0.0,0.0,0.0,0.0,0.0,0.0,0.0,0.0,0.0,0.0,0.0,0.0,0.0,0.0,0.0,0.0,0.0,0.0,0.0,0.0,0.0,0,0,0,1,19,,1
1.89967404,0,1735643777088230371,map,0.9620154886046092,-0.2250981185288282,0.0246148217371708,-0.488706973666493,0.5096032881048923,-0.5055886450543993,0.4958327385666223,0.0,0.0,0.0,1,0.9969756710856328,0,1735643777088253974,map,0.9633929800008388,-0.2537438774580208,0.151103934480665,0.5028723188227543,-0.5015814722477341,0.4959412351249981,-0.4995775705156431,0.0,0.0,0.0,16,0.0030221176514656626,0,1735643777088270664,map,0.9677883257603428,0.0516579454041849,0.0286470377097989,-0.5012205220506722,0.5001037821969796,-0.4928313963288108,0.5057582526268082,0.0,0.0,0.0,17,1.2287330142664557e-09,0,1735643777088284730,map,0.9849040898000784,-0.2586973760028419,0.2416139155388704,0.329903133585088,-0.4999971033987202,0.6566722074015531,-0.4582012997253505,0.0,0.0,0.0,121,2.2099756961111358e-06,0,1735643777088297367,map,0.9923064603718668,0.2058485387015213,0.2468267497251495,-0.5849204225566513,0.1230908213401124,-0.1517787163548138,0.7871975420691112,0.0,0.0,0.0,122,3.460447846128392e-30,0,1735643777088310956,map,0.98813679401942,0.207278830194872,0.1481086519091443,-0.4898415962946254,0.50403280892005,-0.481351123882563,0.5237434807314467,0.0,0.0,0.0,124,4.920623330548388e-24,0,1735643777088322877,map,0.981872474895917,-0.0272462409933915,0.2483475483852782,-0.5079559139020753,0.4873307815199809,-0.4879250169147842,0.5161576084721985,0.0,0.0,0.0,125,1.1430088809952948e-15,0,1735643777088343858,map,0.975797716524043,-0.0228082789964548,0.1502216390573319,-0.5023557206589159,0.4959047722301373,-0.498185764544378,0.5035157701661094,0.0,0.0,0.0,126,5.847124813079063e-11,0,1735644242188269615,map,0.9672631682584928,0.324307591081065,0.0284324873322464,-0.4810939945357737,0.4950691399999342,-0.4871980609486707,0.5348767750138285,0.0,0.0,0.0,0,3.9373036088538295e-26,0.9558870457901788,-0.3445805989601517,-0.0608373178138144,1.0,1.72790433661439e-05,9.92207452282614e-05,-0.0002800967976905,0.0,0.0,0.0,9.92207452282614e-05,0.005690755561368,-0.0026926455533082,0.0,0.0,0.0,-0.0002800967976905,-0.0026926455533082,0.0047699928956206,0.0,0.0,0.0,0.0,0.0,0.0,0.0,0.0,0.0,0.0,0.0,0.0,0.0,0.0,0.0,0.0,0.0,0.0,0.0,0.0,0.0,0,0,0,1,20,,1
2.000279812,0,1735643777088230371,map,0.9631622344407154,-0.2254634412372825,0.024338146815229,-0.483985562049892,0.4980218037215341,-0.5116549539132669,0.5059065792033264,0.0,0.0,0.0,1,0.9977145110591858,0,1735643777088253974,map,0.9627237594103544,-0.2539669629095702,0.1510060329374277,-0.4829108922279336,0.46625288774884,-0.5089068135250348,0.5389055297371546,0.0,0.0,0.0,16,0.002284333799304088,0,1735643777088270664,map,0.9671692436093586,0.0515881824140861,0.0287799594678463,-0.4956056353509734,0.5013162688163143,-0.4987604424104456,0.5042767830417957,0.0,0.0,0.0,17,4.5022209775370096e-10,0,1735643777088284730,map,0.9803098255555984,-0.2583794662979072,0.2414247005448949,-0.5090600808013491,0.5077310776166173,-0.4724884775410131,0.5097270108084985,0.0,0.0,0.0,121,1.1546729869665645e-06,0,1735643777088297367,map,0.9923064603718668,0.2058485387015213,0.2468267497251495,-0.5849204225566513,0.1230908213401124,-0.1517787163548138,0.7871975420691112,0.0,0.0,0.0,122,1.65313602009378e-31,0,1735643777088310956,map,0.98813679401942,0.207278830194872,0.1481086519091443,-0.4898415962946254,0.50403280892005,-0.481351123882563,0.5237434807314467,0.0,0.0,0.0,124,4.194525330870587e-25,0,1735643777088322877,map,0.9744699891970208,-0.0291067694261409,0.2474188430385957,-0.4824814865618304,0.5016609855219353,-0.5108938367328393,0.5045149733344345,0.0,0.0,0.0,125,3.177842985744722e-16,0,1735643777088343858,map,0.97606932527081,-0.0225884882696651,0.1506087795129082,0.5228720652130218,-0.517612351487356,0.4883050245043168,-0.4692978372541663,0.0,0.0,0.0,126,1.8300760508564412e-11,0,1735644242188269615,map,0.9672631682584928,0.324307591081065,0.0284324873322464,-0.4810939945357737,0.4950691399999342,-0.4871980609486707,0.5348767750138285,0.0,0.0,0.0,0,2.509350146343989e-27,0.9559653382452048,-0.3449077556851709,-0.06194199884821,1.0,1.657882594755979e-05,9.39836697728391e-05,-0.0002684886187474,0.0,0.0,0.0,9.39836697728391e-05,0.0054219078317574,-0.002557196259896,0.0,0.0,0.0,-0.0002684886187474,-0.002557196259896,0.0045672567805366,0.0,0.0,0.0,0.0,0.0,0.0,0.0,0.0,0.0,0.0,0.0,0.0,0.0,0.0,0.0,0.0,0.0,0.0,0.0,0.0,0.0,0,0,0,1,21,,1
2.09929128,0,1735643777088230371,map,0.9601763213982912,-0.2256082508469756,0.0250334923515066,-0.4909242995229348,0.4915456076676887,-0.5030557637629672,0.5141119977839236,0.0,0.0,0.0,1,0.9979378199471657,0,1735643777088253974,map,0.9685141691412886,-0.2552559607791713,0.1506742092798522,-0.485012896578688,0.4984047533325025,-0.5079678557950289,0.5082556930196843,0.0,0.0,0.0,16,0.0020614919207995793,0,1735643777088270664,map,0.966406698978926,0.0505446826508166,0.0287186152409783,-0.4919368928068795,0.4967896901396761,-0.4958285853835626,0.5151233941328748,0.0,0.0,0.0,17,2.455940327556982e-10,0,1735643777088284730,map,0.9843881230132356,-0.25942366344354,0.2419763952468501,-0.495515882777146,0.5181598158055377,-0.4834226961484789,0.5022717511950012,0.0,0.0,0.0,121,6.878780921448364e-07,0,1735643777088297367,map,0.9923064603718668,0.2058485387015213,0.2468267497251495,-0.5849204225566513,0.1230908213401124,-0.1517787163548138,0.7871975420691112,0.0,0.0,0.0,122,1.4459863747893957e-32,0,1735643777088310956,map,0.98813679401942,0.207278830194872,0.1481086519091443,-0.4898415962946254,0.50403280892005,-0.481351123882563,0.5237434807314467,0.0,0.0,0.0,124,6.289380895255915e-26,0,1735643777088322877,map,0.978216986650826,-0.0283640184047032,0.2479827996698728,-0.4848003943821361,0.5047461917275212,-0.5097651066098067,0.500339280515315,0.0,0.0,0.0,125,7.542743735192889e-17,0,1735643777088343858,map,0.97376078689257,-0.0235777871339563,0.1506058553154482,0.4849860294768973,-0.4993964773102244,0.5159407099094294,-0.4991962475024497,0.0,0.0,0.0,126,8.3484668320963e-12,0,1735644242188269615,map,0.9672631682584928,0.324307591081065,0.0284324873322464,-0.4810939945357737,0.4950691399999342,-0.4871980609486707,0.5348767750138285,0.0,0.0,0.0,0,3.3168044570304985e-28,0.9559983076587066,-0.3466092214596885,-0.06207610872164,1.0,1.5848069576702996e-05,8.853366188090455e-05,-0.0002563774426238,0.0,0.0,0.0,8.853366188090455e-05,0.0052362521771873,-0.0024361682157113,0.0,0.0,0.0,-0.0002563774426238,-0.0024361682157113,0.0043600318942243,0.0,0.0,0.0,0.0,0.0,0.0,0.0,0.0,0.0,0.0,0.0,0.0,0.0,0.0,0.0,0.0,0.0,0.0,0.0,0.0,0.0,0,0,0,1,22,,1
2.200371158,0,1735643777088230371,map,0.9601743368109156,-0.2266329414533544,0.0243554163720573,-0.4752412494659092,0.5055343669755684,-0.5177649094438843,0.5005000071541048,0.0,0.0,0.0,1,0.9984704820476269,0,1735643777088253974,map,0.9613986837922612,-0.2554636348240057,0.1503238417280183,-0.5016345199506759,0.4782725863267287,-0.4856657500426831,0.5326790035262088,0.0,0.0,0.0,16,0.0015290900001949772,0,1735643777088270664,map,0.9685261569244727,0.0505245800236933,0.0276261321216247,-0.4996137302850214,0.497837147896562,-0.4963468081215364,0.5061463629746491,0.0,0.0,0.0,17,9.070036977601477e-11,0,1735643777088284730,map,0.9877263156854954,-0.2611049673743589,0.2421594589494387,0.4680581746031284,-0.5141213490977281,0.5202613951975273,-0.4959121537694371,0.0,0.0,0.0,121,4.2785897467434464e-07,0,1735643777088297367,map,0.9923064603718668,0.2058485387015213,0.2468267497251495,-0.5849204225566513,0.1230908213401124,-0.1517787163548138,0.7871975420691112,0.0,0.0,0.0,122,4.774621820748079e-34,0,1735643777088310956,map,0.98813679401942,0.207278830194872,0.1481086519091443,-0.4898415962946254,0.50403280892005,-0.481351123882563,0.5237434807314467,0.0,0.0,0.0,124,4.066832488412006e-27,0,1735643777088322877,map,0.9800605055908987,-0.0285294565557718,0.2479163529419482,-0.5032917746524487,0.5039824276421669,-0.4939652709250303,0.4986957121482577,0.0,0.0,0.0,125,1.4343307054316957e-17,0,1735643777088343858,map,0.9782098827978912,-0.0230500586825381,0.1502092728224679,0.5091985837599552,-0.5014958248829816,0.4937798978271699,-0.4953787969055432,0.0,0.0,0.0,126,2.503057581772841e-12,0,1735644242188269615,map,0.9672631682584928,0.324307591081065,0.0284324873322464,-0.4810939945357737,0.4950691399999342,-0.4871980609486707,0.5348767750138285,0.0,0.0,0.0,0,1.6952785274341787e-29,0.9559152778755918,-0.3480221302397783,-0.0605319746335867,1.0,1.5310689860818014e-05,8.72652694444888e-05,-0.0002480511978978,0.0,0.0,0.0,8.72652694444888e-05,0.0050525078859076,-0.0023782457119407,0.0,0.0,0.0,-0.0002480511978978,-0.0023782457119407,0.0042229209919291,0.0,0.0,0.0,0.0,0.0,0.0,0.0,0.0,0.0,0.0,0.0,0.0,0.0,0.0,0.0,0.0,0.0,0.0,0.0,0.0,0.0,0,0,0,1,23,,1
2.300229417,0,1735643777088230371,map,0.9580140090825215,-0.2256961706525277,0.0259052765761914,-0.4925614845878553,0.4982325487886221,-0.4909739568361745,0.5177760953702198,0.0,0.0,0.0,1,0.9987961700068196,0,1735643777088253974,map,0.9629174529897392,-0.2548139792805266,0.1516615883512896,0.5039614033681925,-0.501239332113875,0.4949417972731835,-0.4998146188030007,0.0,0.0,0.0,16,0.001203611354216794,0,1735643777088270664,map,0.9607365630980604,0.0489089235017861,0.0305646590182714,-0.4822402983447278,0.5026852575468185,-0.503317585035727,0.5112956435285558,0.0,0.0,0.0,17,3.2641435796694106e-11,0,1735643777088284730,map,0.9809305789901496,-0.2587169689575955,0.2425357798352275,0.3176117807679049,-0.4782663108396001,0.6707317054486757,-0.4695775462468687,0.0,0.0,0.0,121,2.186056538396286e-07,0,1735643777088297367,map,0.9923064603718668,0.2058485387015213,0.2468267497251495,-0.5849204225566513,0.1230908213401124,-0.1517787163548138,0.7871975420691112,0.0,0.0,0.0,122,2.0529241465594218e-35,0,1735643777088310956,map,0.98813679401942,0.207278830194872,0.1481086519091443,-0.4898415962946254,0.50403280892005,-0.481351123882563,0.5237434807314467,0.0,0.0,0.0,124,3.338782276718669e-28,0,1735643777088322877,map,0.9774557989748738,-0.0275656296429328,0.2496771502393623,-0.5032421261560622,0.4924440287532736,-0.4921649612602023,0.5118787863497707,0.0,0.0,0.0,125,2.138523954475747e-18,0,1735643777088343858,map,0.9752644793017118,-0.0220153824511573,0.1515653757217064,-0.5041864747509707,0.5084395947851001,-0.5040843685799914,0.482891423082108,0.0,0.0,0.0,126,6.683869384484429e-13,0,1735644242188269615,map,0.9672631682584928,0.324307591081065,0.0284324873322464,-0.4810939945357737,0.4950691399999342,-0.4871980609486707,0.5348767750138285,0.0,0.0,0.0,0,1.0513953509665226e-30,0.9558509467160444,-0.3488263430993258,-0.0593970929851233,1.0,1.476792990599096e-05,8.481914330385354e-05,-0.0002393949211238,0.0,0.0,0.0,8.481914330385354e-05,0.0048568621654344,-0.0023001439281723,0.0,0.0,0.0,-0.0002393949211238,-0.0023001439281723,0.0040765889467872,0.0,0.0,0.0,0.0,0.0,0.0,0.0,0.0,0.0,0.0,0.0,0.0,0.0,0.0,0.0,0.0,0.0,0.0,0.0,0.0,0.0,0,0,0,1,24,,1
2.399644198,0,1735643777088230371,map,0.9607181299321088,-0.2264845299647237,0.0247158116928578,-0.4821068746078907,0.5201851261861162,-0.5097288906869407,0.486987529562726,0.0,0.0,0.0,1,0.9989787171977026,0,1735643777088253974,map,0.9594933820206216,-0.254953316662017,0.1513855086890947,-0.5067588518178394,0.4820285092210536,-0.488347960459597,0.52188145389288,0.0,0.0,0.0,16,0.0010211107763564628,0,1735643777088270664,map,0.9621404806825696,0.0493717178087755,0.0299377332218254,-0.4916283875263647,0.4982663750680353,-0.4984658448196776,0.511433230835651,0.0,0.0,0.0,17,3.9871970474324834e-11,0,1735643777088284730,map,0.9817999053476736,-0.259706247614091,0.2430745428654269,-0.4815783942180454,0.5006574776183902,-0.5011424080884977,0.5160238629583156,0.0,0.0,0.0,121,1.7198517585445273e-07,0,1735643777088297367,map,0.9923064603718668,0.2058485387015213,0.2468267497251495,-0.5849204225566513,0.1230908213401124,-0.1517787163548138,0.7871975420691112,0.0,0.0,0.0,122,5.8431003850628e-35,0,1735643777088310956,map,0.98813679401942,0.207278830194872,0.1481086519091443,-0.4898415962946254,0.50403280892005,-0.481351123882563,0.5237434807314467,0.0,0.0,0.0,124,7.646528458558931e-28,0,1735643777088322877,map,0.9755551537480996,-0.0281965669853889,0.2492511234360325,0.5099550727652004,-0.5076963234917434,0.4851522566146677,-0.4968073618372641,0.0,0.0,0.0,125,3.1519372879460778e-18,0,1735643777088343858,map,0.972823075812302,-0.022818943513919,0.1514894438753565,0.5046967503650175,-0.5009547854149741,0.5044285493672055,-0.4897727347700418,0.0,0.0,0.0,126,8.931427527770375e-13,0,1735644242188269615,map,0.9672631682584928,0.324307591081065,0.0284324873322464,-0.4810939945357737,0.4950691399999342,-0.4871980609486707,0.5348767750138285,0.0,0.0,0.0,0,2.4509266460878744e-30,0.9559395188318808,-0.3513067308752543,-0.0602000133548665,1.0,1.4365493182639988e-05,7.615374092990421e-05,-0.0002315259168228,0.0,0.0,0.0,7.615374092990421e-05,0.0048102434432724,-0.0021603408781617,0.0,0.0,0.0,-0.0002315259168228,-0.0021603408781617,0.0039289977357993,0.0,0.0,0.0,0.0,0.0,0.0,0.0,0.0,0.0,0.0,0.0,0.0,0.0,0.0,0.0,0.0,0.0,0.0,0.0,0.0,0.0,0,0,0,1,25,,1
2.499867617,0,1735643777088230371,map,0.9554426579777012,-0.2264579726080683,0.026574786896502,-0.4924457822150783,0.4945122162045324,-0.4993986291927146,0.5133768876405512,0.0,0.0,0.0,1,0.9991057143086411,0,1735643777088253974,map,0.9575749317925616,-0.2551746908387214,0.1520492050143888,-0.5344204344822926,0.4915362838520241,-0.45866815546964,0.5122600941150679,0.0,0.0,0.0,16,0.0008941701727525415,0,1735643777088270664,map,0.958757785205662,0.0475248837697564,0.0309732367062619,-0.4865488695274068,0.5029669297595275,-0.5053311945298126,0.5049107336598724,0.0,0.0,0.0,17,1.8880849329979135e-11,0,1735643777088284730,map,0.9821254821808564,-0.2601614755826941,0.2439123480307377,-0.4915468155868217,0.4998442393957143,-0.4941985427266127,0.5141062777250125,0.0,0.0,0.0,121,1.1549942438514315e-07,0,1735643777088297367,map,0.9923064603718668,0.2058485387015213,0.2468267497251495,-0.5849204225566513,0.1230908213401124,-0.1517787163548138,0.7871975420691112,0.0,0.0,0.0,122,3.111131360685942e-36,0,1735643777088310956,map,0.98813679401942,0.207278830194872,0.1481086519091443,-0.4898415962946254,0.50403280892005,-0.481351123882563,0.5237434807314467,0.0,0.0,0.0,124,7.269526037546743e-29,0,1735643777088322877,map,0.975846293230781,-0.0277338747940674,0.2499260834070786,-0.5033605286226029,0.4977494135825483,-0.4943336933305696,0.5044877591588932,0.0,0.0,0.0,125,6.880150708028254e-19,0,1735643777088343858,map,0.9737595625886016,-0.022112373728122,0.1520443635044492,-0.4875698884355173,0.4863410080389107,-0.5125564237435281,0.5128683459426199,0.0,0.0,0.0,126,3.010796137448133e-13,0,1735644242188269615,map,0.9672631682584928,0.324307591081065,0.0284324873322464,-0.4810939945357737,0.4950691399999342,-0.4871980609486707,0.5348767750138285,0.0,0.0,0.0,0,1.7394217404982373e-31,0.955863000279846,-0.3522166633998284,-0.0588600052047256,1.0,1.3959351434214256e-05,7.496541887488187e-05,-0.0002251844609521,0.0,0.0,0.0,7.496541887488187e-05,0.0046459335100515,-0.0021077337693614,0.0,0.0,0.0,-0.0002251844609521,-0.0021077337693614,0.0038227729843296,0.0,0.0,0.0,0.0,0.0,0.0,0.0,0.0,0.0,0.0,0.0,0.0,0.0,0.0,0.0,0.0,0.0,0.0,0.0,0.0,0.0,0,0,0,1,26,,1
