%time,field.boxes0.header.seq,field.boxes0.header.stamp,field.boxes0.header.frame_id,field.boxes0.pose.position.x,field.boxes0.pose.position.y,field.boxes0.pose.position.z,field.boxes0.pose.orientation.x,field.boxes0.pose.orientation.y,field.boxes0.pose.orientation.z,field.boxes0.pose.orientation.w,field.boxes0.scale.x,field.boxes0.scale.y,field.boxes0.scale.z,field.boxes0.id,field.boxes0.pdf,field.boxes1.header.seq,field.boxes1.header.stamp,field.boxes1.header.frame_id,field.boxes1.pose.position.x,field.boxes1.pose.position.y,field.boxes1.pose.position.z,field.boxes1.pose.orientation.x,field.boxes1.pose.orientation.y,field.boxes1.pose.orientation.z,field.boxes1.pose.orientation.w,field.boxes1.scale.x,field.boxes1.scale.y,field.boxes1.scale.z,field.boxes1.id,field.boxes1.pdf,field.boxes2.header.seq,field.boxes2.header.stamp,field.boxes2.header.frame_id,field.boxes2.pose.position.x,field.boxes2.pose.position.y,field.boxes2.pose.position.z,field.boxes2.pose.orientation.x,field.boxes2.pose.orientation.y,field.boxes2.pose.orientation.z,field.boxes2.pose.orientation.w,field.boxes2.scale.x,field.boxes2.scale.y,field.boxes2.scale.z,field.boxes2.id,field.boxes2.pdf,field.boxes3.header.seq,field.boxes3.header.stamp,field.boxes3.header.frame_id,field.boxes3.pose.position.x,field.boxes3.pose.position.y,field.boxes3.pose.position.z,field.boxes3.pose.orientation.x,field.boxes3.pose.orientation.y,field.boxes3.pose.orientation.z,field.boxes3.pose.orientation.w,field.boxes3.scale.x,field.boxes3.scale.y,field.boxes3.scale.z,field.boxes3.id,field.boxes3.pdf,field.boxes4.header.seq,field.boxes4.header.stamp,field.boxes4.header.frame_id,field.boxes4.pose.position.x,field.boxes4.pose.position.y,field.boxes4.pose.position.z,field.boxes4.pose.orientation.x,field.boxes4.pose.orientation.y,field.boxes4.pose.orientation.z,field.boxes4.pose.orientation.w,field.boxes4.scale.x,field.boxes4.scale.y,field.boxes4.scale.z,field.boxes4.id,field.boxes4.pdf,field.boxes5.header.seq,field.boxes5.header.stamp,field.boxes5.header.frame_id,field.boxes5.pose.position.x,field.boxes5.pose.position.y,field.boxes5.pose.position.z,field.boxes5.pose.orientation.x,field.boxes5.pose.orientation.y,field.boxes5.pose.orientation.z,field.boxes5.pose.orientation.w,field.boxes5.scale.x,field.boxes5.scale.y,field.boxes5.scale.z,field.boxes5.id,field.boxes5.pdf,field.boxes6.header.seq,field.boxes6.header.stamp,field.boxes6.header.frame_id,field.boxes6.pose.position.x,field.boxes6.pose.position.y,field.boxes6.pose.position.z,field.boxes6.pose.orientation.x,field.boxes6.pose.orientation.y,field.boxes6.pose.orientation.z,field.boxes6.pose.orientation.w,field.boxes6.scale.x,field.boxes6.scale.y,field.boxes6.scale.z,field.boxes6.id,field.boxes6.pdf,field.boxes7.header.seq,field.boxes7.header.stamp,field.boxes7.header.frame_id,field.boxes7.pose.position.x,field.boxes7.pose.position.y,field.boxes7.pose.position.z,field.boxes7.pose.orientation.x,field.boxes7.pose.orientation.y,field.boxes7.pose.orientation.z,field.boxes7.pose.orientation.w,field.boxes7.scale.x,field.boxes7.scale.y,field.boxes7.scale.z,field.boxes7.id,field.boxes7.pdf,field.boxes8.header.seq,field.boxes8.header.stamp,field.boxes8.header.frame_id,field.boxes8.pose.position.x,field.boxes8.pose.position.y,field.boxes8.pose.position.z,field.boxes8.pose.orientation.x,field.boxes8.pose.orientation.y,field.boxes8.pose.orientation.z,field.boxes8.pose.orientation.w,field.boxes8.scale.x,field.boxes8.scale.y,field.boxes8.scale.z,field.boxes8.id,field.boxes8.pdf,field.pose.pose.position.x,field.pose.pose.position.y,field.pose.pose.position.z,field.pose.pose.orientation.w,field.pose.covariance0,field.pose.covariance1,field.pose.covariance2,field.pose.covariance3,field.pose.covariance4,field.pose.covariance5,field.pose.covariance6,field.pose.covariance7,field.pose.covariance8,field.pose.covariance9,field.pose.covariance10,field.pose.covariance11,field.pose.covariance12,field.pose.covariance13,field.pose.covariance14,field.pose.covariance15,field.pose.covariance16,field.pose.covariance17,field.pose.covariance18,field.pose.covariance19,field.pose.covariance20,field.pose.covariance21,field.pose.covariance22,field.pose.covariance23,field.pose.covariance24,field.pose.covariance25,field.pose.covariance26,field.pose.covariance27,field.pose.covariance28,field.pose.covariance29,field.pose.covariance30,field.pose.covariance31,field.pose.covariance32,field.pose.covariance33,field.pose.covariance34,field.pose.covariance35,field.buttons0,field.buttons1,field.buttons2,field.buttons3,intersection_length,vacuum,desired_box
0.0,0,1735643777088230371,map,0.977235012585022,-0.219052274471598,0.0223649290911618,-0.4935123503115863,0.5033571971583994,-0.4981380989248722,0.5049114046625293,0.0,0.0,0.0,1,0.1111111111111111,0,1735643777088253974,map,0.9845762636092632,-0.249003961019269,0.1478807500049129,-0.4983275521567243,0.501076786235804,-0.4993705960334205,0.5012192263613914,0.0,0.0,0.0,16,0.1111111111111111,0,1735643777088270664,map,0.986507922912314,0.0577332167215985,0.0247963807453321,-0.4907236794230685,0.5200117817913025,-0.5073332165357982,0.4810312096435751,0.0,0.0,0.0,17,0.1111111111111111,0,1735643777088284730,map,1.0052523424546551,-0.2542677756524915,0.2358649837653002,-0.491845844619863,0.5035049697321471,-0.4818107891121266,0.5219470989289555,0.0,0.0,0.0,121,0.1111111111111111,0,1735643777088297367,map,1.0098963057582635,0.2125202892435383,0.2404154637562001,-0.5124211594452714,0.4965230075660476,-0.4892954715319429,0.5014772176765996,0.0,0.0,0.0,122,0.1111111111111111,0,1735643777088310956,map,0.9969418527405428,0.2057726660105316,0.1441450458563134,-0.470215972720418,0.4994385091819188,-0.4988145571662992,0.5297566914194876,0.0,0.0,0.0,124,0.1111111111111111,0,1735643777088322877,map,1.002404851087893,-0.0236036781476218,0.2411825061573854,0.461267004354547,-0.5105650413670989,0.5318898222510101,-0.493608454357686,0.0,0.0,0.0,125,0.1111111111111111,0,1735643777088343858,map,0.9949276822864797,-0.0195979333364089,0.145088035069665,-0.4874443827913155,0.5234398198642558,-0.5192851168816969,0.4677089864978339,0.0,0.0,0.0,126,0.1111111111111111,0,1735644242188269615,map,0.9702028272691344,0.3323738445694951,0.0224641452659716,-0.504095432845197,0.4951371264652751,-0.4788079857021436,0.521027766446453,0.0,0.0,0.0,0,0.1111111111111111,0.9305225876206712,0.1067192328943887,0.2239351825320023,1.0,0.0,0.0,0.0,0.0,0.0,0.0,0.0,0.0,0.0,0.0,0.0,0.0,0.0,0.0,0.0,0.0,0.0,0.0,0.0,0.0,0.0,0.0,0.0,0.0,0.0,0.0,0.0,0.0,0.0,0.0,0.0,0.0,0.0,0.0,0.0,0.0,0,0,0,1,1,,125
0.1010558,0,1735643777088230371,map,0.9813623422678192,-0.2197469300984657,0.0215669135973696,-0.5012515997867603,0.5023570594599752,-0.4911794078101665,0.5051009877887729,0.0,0.0,0.0,1,,0,1735643777088253974,map,0.9895241687246727,-0.2500963978123695,0.1471927366688127,-0.5049264299136512,0.507042531451647,-0.4927623184238339,0.4951186415550601,0.0,0.0,0.0,16,,0,1735643777088270664,map,0.9803160040004724,0.0559332174605654,0.0274977993476987,-0.4808288741930344,0.5023463985780783,-0.5072634518188243,0.5090535139125794,0.0,0.0,0.0,17,,0,1735643777088284730,map,1.015871389216542,-0.256349185217642,0.235795598560677,-0.4920388216723839,0.5017809032123782,-0.5036655899163253,0.5024287976150072,0.0,0.0,0.0,121,,0,1735643777088297367,map,1.0121923927151957,0.2133050941497936,0.2408953407737734,-0.5080488976308773,0.4954669584177487,-0.491341712229877,0.5049575552017492,0.0,0.0,0.0,122,,0,1735643777088310956,map,1.0001759511126969,0.207038083611479,0.1438635141242,-0.4696195414230524,0.499755434970315,-0.4991851972408899,0.5296377350480295,0.0,0.0,0.0,124,,0,1735643777088322877,map,0.996662696091887,-0.0241155172438874,0.2416180533174236,-0.501277243976477,0.5035093963516717,-0.4970948319753872,0.4980925019314023,0.0,0.0,0.0,125,,0,1735643777088343858,map,1.0003573907453984,-0.0186831056615623,0.1446302699969985,-0.5026750857400417,0.4657097044952524,-0.4902138993075202,0.5386302648764757,0.0,0.0,0.0,126,,0,1735644242188269615,map,0.9702028272691344,0.3323738445694951,0.0224641452659716,-0.504095432845197,0.4951371264652751,-0.4788079857021436,0.521027766446453,0.0,0.0,0.0,0,,0.93048572738596,0.1058926088437361,0.2246628989624767,1.0,1.3586769029623087e-09,3.0469556524948965e-08,-2.6823798430458234e-08,0.0,0.0,0.0,3.0469556524948965e-08,6.833073211172519e-07,-6.015479034851579e-07,0.0,0.0,0.0,-2.6823798430458234e-08,-6.015479034851579e-07,5.295712031823755e-07,0.0,0.0,0.0,0.0,0.0,0.0,0.0,0.0,0.0,0.0,0.0,0.0,0.0,0.0,0.0,0.0,0.0,0.0,0.0,0.0,0.0,0,0,0,1,2,,125
0.200851073,0,1735643777088230371,map,0.9770140336630944,-0.2180217748213057,0.0238415902884198,-0.493282228539017,0.4905259762863271,-0.496827068227959,0.5188639261617033,0.0,0.0,0.0,1,,0,1735643777088253974,map,0.9848958510775184,-0.2479857279493483,0.1488921279437925,-0.4410821947043093,0.7070641719364333,-0.4649877961145464,0.2988195170051855,0.0,0.0,0.0,16,,0,1735643777088270664,map,0.9904777755424508,0.0589328588648447,0.024576579511505,-0.5117563298367883,0.5007818557540276,-0.4818862448556784,0.505082803942508,0.0,0.0,0.0,17,,0,1735643777088284730,map,1.0038978754988706,-0.253095827709128,0.2365472319717956,-0.504593626424044,0.4855004442844461,-0.4826430445943339,0.5260515965915796,0.0,0.0,0.0,121,,0,1735643777088297367,map,1.003170828301544,0.2090000953974336,0.2414832675927424,0.5005669750973223,-0.5013972828251088,0.5035883305055402,-0.494400911807571,0.0,0.0,0.0,122,,0,1735643777088310956,map,1.0056319257661974,0.2101475905236466,0.1434344722555113,-0.4843628825892871,0.5013051072326065,-0.4820009577280335,0.5308115147409296,0.0,0.0,0.0,124,,0,1735643777088322877,map,1.0013678083793138,-0.0231111584037253,0.2415074667995923,-0.4833055611075204,0.544907942655693,-0.5117451994572462,0.455640120561994,0.0,0.0,0.0,125,,0,1735643777088343858,map,0.994697650683514,-0.0188157082746942,0.1458512016569653,0.4794997000511581,-0.504094487677781,0.5283779876446686,-0.4866060905047275,0.0,0.0,0.0,126,,0,1735644242188269615,map,0.9702028272691344,0.3323738445694951,0.0224641452659716,-0.504095432845197,0.4951371264652751,-0.4788079857021436,0.521027766446453,0.0,0.0,0.0,0,,0.9285409531687056,0.1080746806630101,0.2533616344720775,1.0,7.56519929679518e-06,-8.466960990958613e-06,-0.000111643004306,0.0,0.0,0.0,-8.466960990958613e-06,9.978413063017486e-06,0.0001248443720729,0.0,0.0,0.0,-0.000111643004306,0.0001248443720729,0.0016475878871688,0.0,0.0,0.0,0.0,0.0,0.0,0.0,0.0,0.0,0.0,0.0,0.0,0.0,0.0,0.0,0.0,0.0,0.0,0.0,0.0,0.0,0,0,0,1,3,,125
0.301572168,0,1735643777088230371,map,0.9815974757416556,-0.2197106907475167,0.0219596522199461,-0.4949382856706723,0.4948653280954395,-0.4892620659607259,0.5203527949749204,0.0,0.0,0.0,1,,0,1735643777088253974,map,0.983338294583646,-0.2487092649468564,0.1494168676806397,-0.5058632562115243,0.5100643528859347,-0.4911855164092202,0.4926190317069917,0.0,0.0,0.0,16,,0,1735643777088270664,map,0.9880786707735691,0.0582112772320026,0.0252537187197633,-0.486343212700932,0.5047175719326292,-0.506245138842628,0.5024403561024686,0.0,0.0,0.0,17,,0,1735643777088284730,map,1.0061864285044757,-0.2546394818234219,0.23686420484923,-0.493823294522266,0.4836197387016103,-0.4984715155626408,0.5232367058015386,0.0,0.0,0.0,121,,0,1735643777088297367,map,1.0034618027358744,0.2093167158641691,0.2418050411067898,-0.487385948856507,0.49145522266518,-0.5113249786662571,0.5093853817732822,0.0,0.0,0.0,122,,0,1735643777088310956,map,1.0063289632199883,0.2104054057861099,0.1435548698881628,-0.4985975883032411,0.5074381024537228,-0.4691665548822188,0.523249234014066,0.0,0.0,0.0,124,,0,1735643777088322877,map,1.0009837103901038,-0.0235169526804841,0.2419754143198594,-0.5974233375799518,0.4405668928345895,-0.3920206525673463,0.5434206258632241,0.0,0.0,0.0,125,,0,1735643777088343858,map,1.0005541340789144,-0.0187192069827387,0.1450713017324798,0.6625310816455913,-0.4998814919980596,0.3391732073798087,-0.4428685981270405,0.0,0.0,0.0,126,,0,1735644242188269615,map,0.9702028272691344,0.3323738445694951,0.0224641452659716,-0.504095432845197,0.4951371264652751,-0.4788079857021436,0.521027766446453,0.0,0.0,0.0,0,,0.9258214812363832,0.110398281517864,0.2936465387795628,1.0,2.7860482244666727e-05,-2.530712266330618e-05,-0.000412393252911,0.0,0.0,0.0,-2.530712266330618e-05,2.3681172595295863e-05,0.0003744513933144,0.0,0.0,0.0,-0.000412393252911,0.0003744513933144,0.0061043114605663,0.0,0.0,0.0,0.0,0.0,0.0,0.0,0.0,0.0,0.0,0.0,0.0,0.0,0.0,0.0,0.0,0.0,0.0,0.0,0.0,0.0,0,0,0,1,4,,125
0.401004464,0,1735643777088230371,map,0.9809439172680896,-0.2189329534493278,0.0240524797604278,-0.4808599008280374,0.4967422354475676,-0.5106727947129177,0.5111107551581175,0.0,0.0,0.0,1,0.0,0,1735643777088253974,map,0.9863254254827736,-0.2488421055011075,0.1503289833087702,-0.4975701823522899,0.4950083531508382,-0.4983225925115605,0.5089845162059068,0.0,0.0,0.0,16,0.0,0,1735643777088270664,map,0.986144435027811,0.057700836220411,0.0276464862333369,-0.490537263329823,0.4922776175520894,-0.4975472464635632,0.5191172103471942,0.0,0.0,0.0,17,0.9999999999956728,0,1735643777088284730,map,1.00479646027256,-0.2541607187644852,0.238284321310734,-0.4687616263650678,0.4552234382634578,-0.5188036757709086,0.5512503105756638,0.0,0.0,0.0,121,0.0,0,1735643777088297367,map,1.010974675841462,0.2133272363377568,0.2430226257032537,-0.5071912755388539,0.4940313827030776,-0.4919524532439951,0.5066288450818508,0.0,0.0,0.0,122,2.970238200216535e-15,0,1735643777088310956,map,1.0025286444474388,0.2086972649913837,0.1456049838532779,-0.4814483965284991,0.4977213166993144,-0.4822289858995596,0.5365968109684589,0.0,0.0,0.0,124,4.324140055703417e-12,0,1735643777088322877,map,0.996017646339084,-0.0243360212075135,0.243779850940105,-0.6103049878053258,0.4748121500365221,-0.3857036968259582,0.5033029925327537,0.0,0.0,0.0,125,1.048826951917093e-32,0,1735643777088343858,map,0.9978538380274454,-0.0191055945723588,0.146571603427751,-0.4906629330136787,0.4693417557569516,-0.5025600324712628,0.5351650364437867,0.0,0.0,0.0,126,2.864409970955395e-32,0,1735644242188269615,map,0.9702028272691344,0.3323738445694951,0.0224641452659716,-0.504095432845197,0.4951371264652751,-0.4788079857021436,0.521027766446453,0.0,0.0,0.0,0,0.0,0.9234513671479372,0.1056918038018416,0.3301814892491125,1.0,4.475814896473564e-05,2.4373858436163555e-05,-0.000676282605643,0.0,0.0,0.0,2.4373858436163555e-05,0.0001075486680418,-0.0003882426063121,0.0,0.0,0.0,-0.000676282605643,-0.0003882426063121,0.0102226595917028,0.0,0.0,0.0,0.0,0.0,0.0,0.0,0.0,0.0,0.0,0.0,0.0,0.0,0.0,0.0,0.0,0.0,0.0,0.0,0.0,0.0,0,0,0,1,5,,125
0.49942305,0,1735643777088230371,map,0.9786175250419727,-0.2187190577587344,0.0257356133561759,-0.5002586848422672,0.782709486745974,-0.3087489960576635,0.2044044153904813,0.0,0.0,0.0,1,2.50901042988443e-32,0,1735643777088253974,map,0.980288716910025,-0.2480004121571887,0.1516432949479891,-0.5082981542361195,0.4798423961903033,-0.4871279603294003,0.523536638148488,0.0,0.0,0.0,16,3.3861858197703827e-32,0,1735643777088270664,map,0.9884785750633795,0.0584088726249228,0.0270241597263516,-0.4880647610733086,0.5027014813842846,-0.5025794340139675,0.5064562390954428,0.0,0.0,0.0,17,0.015439791177803383,0,1735643777088284730,map,1.012330289198624,-0.2563927955573043,0.2381277487469524,-0.3669994448260394,0.6523528254523204,-0.5690180457877467,0.3405373139461331,0.0,0.0,0.0,121,1.3784874779468944e-30,0,1735643777088297367,map,1.0147456797740322,0.2149846704041117,0.2429871746338939,-0.5016425772468097,0.4754321027861554,-0.4955776812052153,0.5260435364347474,0.0,0.0,0.0,122,0.3560726030564127,0,1735643777088310956,map,1.0090481103069966,0.2118233203160617,0.1443833164891366,-0.4929891968206389,0.5012351006487037,-0.4716862459335569,0.5322002546907826,0.0,0.0,0.0,124,0.621903061495836,0,1735643777088322877,map,1.0045572690856233,-0.0232836956977288,0.2439229704875447,-0.5112347296193065,0.500748511320517,-0.487056743686392,0.5006652654927934,0.0,0.0,0.0,125,0.006370303802571209,0,1735643777088343858,map,1.0040674466100528,-0.0184844356483569,0.1456339928871115,-0.4899702403463912,0.4708461417318934,-0.5031744126932253,0.5338994144985719,0.0,0.0,0.0,126,0.0002142219022274332,0,1735644242188269615,map,0.9702028272691344,0.3323738445694951,0.0224641452659716,-0.504095432845197,0.4951371264652751,-0.4788079857021436,0.521027766446453,0.0,0.0,0.0,0,1.856514931269758e-08,0.9222967963467162,0.090349366060932,0.3507420111447287,1.0,4.396362614577363e-05,0.0001088812018728,-0.0006822617292286,0.0,0.0,0.0,0.0001088812018728,0.0012665758692033,-0.0019007781407805,0.0,0.0,0.0,-0.0006822617292286,-0.0019007781407805,0.0106325582961863,0.0,0.0,0.0,0.0,0.0,0.0,0.0,0.0,0.0,0.0,0.0,0.0,0.0,0.0,0.0,0.0,0.0,0.0,0.0,0.0,0.0,0,0,0,1,6,,125
0.60132992,0,1735643777088230371,map,0.9790270472351688,-0.2195218968193324,0.0259066258689758,-0.4853409544199807,0.4939929870593246,-0.4978217954978284,0.5221001308429516,0.0,0.0,0.0,1,1.2675293442704225e-17,0,1735643777088253974,map,0.9897895688025008,-0.2506870223999827,0.1503380515166284,-0.5009076274658465,0.5068737200493572,-0.4968511364182853,0.4952873195527234,0.0,0.0,0.0,16,3.1296741470052045e-16,0,1735643777088270664,map,0.979642599695668,0.0552562928085998,0.0315199419471771,-0.4689778598084547,0.4983694424824437,-0.514850990207036,0.5163488391504863,0.0,0.0,0.0,17,0.005039824916810669,0,1735643777088284730,map,1.0108593111307358,-0.2572281657300578,0.2380547100302666,-0.4845587780516207,0.4859060281045598,-0.5004791250318593,0.5278435069905812,0.0,0.0,0.0,121,1.928984341385807e-14,0,1735643777088297367,map,1.0058525527692737,0.2095257014036164,0.2432803997966955,-0.4958698747023823,0.4856965142749256,-0.5090573286368835,0.508991748012589,0.0,0.0,0.0,122,0.5433041338724302,0,1735643777088310956,map,1.0020959438197188,0.2074415164540375,0.1459720257397554,-0.4812889469822833,0.5018868784909392,-0.4846168627200573,0.5306759906747957,0.0,0.0,0.0,124,0.3157674909798619,0,1735643777088322877,map,0.999414822030672,-0.0248496895705871,0.244122207320501,-0.5283107346325007,0.5512357486615997,-0.4622427417864778,0.4509529517979377,0.0,0.0,0.0,125,0.129417280799785,0,1735643777088343858,map,0.9963489072925892,-0.0202814070102888,0.1473188581762152,-0.4858877324850654,0.4751353341960119,-0.5103862668001412,0.5269396400734918,0.0,0.0,0.0,126,0.006454960881501479,0,1735644242188269615,map,0.9702028272691344,0.3323738445694951,0.0224641452659716,-0.504095432845197,0.4951371264652751,-0.4788079857021436,0.521027766446453,0.0,0.0,0.0,0,1.6308549591117076e-05,0.922062814403886,0.075018769817683,0.3574963400216354,1.0,3.801159342237228e-05,0.0001148492406248,-0.000594278113869,0.0,0.0,0.0,0.0001148492406248,0.0024957995463582,-0.0022505257398192,0.0,0.0,0.0,-0.000594278113869,-0.0022505257398192,0.0093873471481956,0.0,0.0,0.0,0.0,0.0,0.0,0.0,0.0,0.0,0.0,0.0,0.0,0.0,0.0,0.0,0.0,0.0,0.0,0.0,0.0,0.0,0,0,0,1,7,,125
0.702877269,0,1735643777088230371,map,0.9787813001169012,-0.2206980883380718,0.0236441755486454,-0.488074265148739,0.4965161562598872,-0.5112718346706091,0.5038415716720632,0.0,0.0,0.0,1,2.5653728086291906e-10,0,1735643777088253974,map,0.9845681978864038,-0.250977097661049,0.1495493601763126,-0.5101928328683227,0.5002958787313357,-0.4788451695861385,0.5100143238951808,0.0,0.0,0.0,16,1.3900874660235307e-08,0,1735643777088270664,map,0.9860280140882304,0.0567545424170969,0.0263318460420529,-0.4889630984946501,0.4844933348632195,-0.490735702043593,0.5341907594889762,0.0,0.0,0.0,17,0.003167459836251705,0,1735643777088284730,map,1.0114990378775817,-0.2591430568968638,0.2362896340693355,-0.5006640392708287,0.5178569008843678,-0.4776054168494659,0.5030435525712503,0.0,0.0,0.0,121,2.1990397710189542e-07,0,1735643777088297367,map,1.0031969756570278,0.20888495902383,0.2418808230045701,-0.511601073221038,0.4949862871097711,-0.4886331294038601,0.5044705960721161,0.0,0.0,0.0,122,0.3570103853416485,0,1735643777088310956,map,0.9943425487528318,0.2044179506597984,0.1453031126170987,-0.4658567733118146,0.4950019124072746,-0.4986120229850783,0.5379001989285493,0.0,0.0,0.0,124,0.10940380249062939,0,1735643777088322877,map,1.0047042939911468,-0.0248432322340405,0.241797997861196,-0.5067267412820586,0.5015435489007831,-0.491424007390403,0.5001844891497843,0.0,0.0,0.0,125,0.4912375103884832,0,1735643777088343858,map,0.9962773488485116,-0.0209336931448147,0.145333106229356,-0.4895351839304765,0.4938802883309437,-0.5137156739325995,0.5025273831825223,0.0,0.0,0.0,126,0.03914374769178835,0,1735644242188269615,map,0.9702028272691344,0.3323738445694951,0.0224641452659716,-0.504095432845197,0.4951371264652751,-0.4788079857021436,0.521027766446453,0.0,0.0,0.0,0,3.686018980986092e-05,0.9223416040265304,0.0582147364016239,0.3568739294144895,1.0,3.3804209820434746e-05,6.769955460200313e-05,-0.0005212080009634,0.0,0.0,0.0,6.769955460200313e-05,0.0041604533763997,-0.0018959969618548,0.0,0.0,0.0,-0.0005212080009634,-0.0018959969618548,0.0082166405194183,0.0,0.0,0.0,0.0,0.0,0.0,0.0,0.0,0.0,0.0,0.0,0.0,0.0,0.0,0.0,0.0,0.0,0.0,0.0,0.0,0.0,0,0,0,1,8,,125
0.800836256,0,1735643777088230371,map,0.9801070212871916,-0.2216553569142771,0.0219254021012924,-0.4801236068006134,0.4909017937828778,-0.5106826182208337,0.5173973468241191,0.0,0.0,0.0,1,9.305162493601816e-09,0,1735643777088253974,map,0.9869380084835776,-0.25237941253676,0.1476693877568559,-0.4913416481644014,0.4938217991267481,-0.5050632515389287,0.5095434499934592,0.0,0.0,0.0,16,4.999227256028057e-07,0,1735643777088270664,map,0.9899126564670596,0.0579834824352114,0.0229934107394262,-0.4826105025051888,0.4855477828544482,-0.5011140466931109,0.5293535355919273,0.0,0.0,0.0,17,0.002038068671703317,0,1735643777088284730,map,1.0133223782923009,-0.2605955548852646,0.2349669998219868,-0.4751027701799771,0.506879410190408,-0.5157793129434655,0.5013205777064248,0.0,0.0,0.0,121,5.902460663765264e-06,0,1735643777088297367,map,1.0126830403556488,0.2147136138996496,0.2397870941558484,-0.5093799095085846,0.4949573851932503,-0.489195567962669,0.5061985686638877,0.0,0.0,0.0,122,0.18232224661327354,0,1735643777088310956,map,0.999757889552898,0.2077141021142087,0.1427659925606455,-0.4697881130286565,0.4941225053298269,-0.4888209796024191,0.5442390361634135,0.0,0.0,0.0,124,0.04408431514597671,0,1735643777088322877,map,0.98664903487587,-0.0273400179875835,0.2424130460726526,0.6397184844404417,-0.5242600623098764,0.3550276950950927,-0.43573728718981,0.0,0.0,0.0,125,0.7126256319068922,0,1735643777088343858,map,0.9984765887900487,-0.0206712888101319,0.1432450905937991,-0.4826664159966146,0.4697251860719737,-0.5090315496760469,0.5359834529843578,0.0,0.0,0.0,126,0.058913366364334085,0,1735644242188269615,map,0.9702028272691344,0.3323738445694951,0.0224641452659716,-0.504095432845197,0.4951371264652751,-0.4788079857021436,0.521027766446453,0.0,0.0,0.0,0,9.95960926828183e-06,0.922727940399928,0.047442181906595,0.35336188923652,1.0,3.124223285433439e-05,2.6882744781730525e-05,-0.000474150631781,0.0,0.0,0.0,2.6882744781730525e-05,0.0046265642218089,-0.0013826614791126,0.0,0.0,0.0,-0.000474150631781,-0.0013826614791126,0.0074023558713985,0.0,0.0,0.0,0.0,0.0,0.0,0.0,0.0,0.0,0.0,0.0,0.0,0.0,0.0,0.0,0.0,0.0,0.0,0.0,0.0,0.0,0,0,0,1,9,,125
0.901671578,0,1735643777088230371,map,0.980386106569574,-0.2217377322233703,0.0210338592098259,-0.5067610011656825,0.8084305445398641,-0.2481558524873739,0.1674873584148924,0.0,0.0,0.0,1,4.172829647484918e-09,0,1735643777088253974,map,0.9873018550995004,-0.2526396729715636,0.1466391141375703,-0.4991569613636533,0.5068784435868753,-0.4956641945757521,0.4982304462442275,0.0,0.0,0.0,16,4.3081843617576885e-07,0,1735643777088270664,map,0.9872259053751996,0.0577429920531683,0.0230753004916124,-0.4971982289570021,0.4894892317158273,-0.4910168529759174,0.5216288558447435,0.0,0.0,0.0,17,0.0009594423098301565,0,1735643777088284730,map,1.0026166057338493,-0.2575087327148025,0.2352272532249743,-0.3534168915398287,0.7031048872809024,-0.5437163248300815,0.2917405977393338,0.0,0.0,0.0,121,9.852628072182441e-06,0,1735643777088297367,map,1.005138983797105,0.2117233749076292,0.2394892379467213,-0.5043829652989558,0.4919963447064853,-0.4938765079740188,0.5095325465395502,0.0,0.0,0.0,122,0.16210181012995944,0,1735643777088310956,map,0.9976170401198604,0.2075845739851831,0.1419732242778565,-0.4851367336753011,0.4986859270262417,-0.4800442260884459,0.5343334509685719,0.0,0.0,0.0,124,0.0291364901019642,0,1735643777088322877,map,0.992264229566429,-0.0263492156819549,0.2411725852742253,0.634500621450342,-0.4912560809791029,0.3580107978448248,-0.4773936456496824,0.0,0.0,0.0,125,0.7592355080519325,0,1735643777088343858,map,0.9942735055527772,-0.0212846151441964,0.1436230946110834,0.6991969899165814,-0.5393479576143771,0.2901145483182046,-0.3688643365289144,0.0,0.0,0.0,126,0.04855251547590028,0,1735644242188269615,map,0.9702028272691344,0.3323738445694951,0.0224641452659716,-0.504095432845197,0.4951371264652751,-0.4788079857021436,0.521027766446453,0.0,0.0,0.0,0,3.946311075347436e-06,0.9227214200455702,0.040440754245972,0.3549420524674029,1.0,2.811839220408953e-05,2.460533640778504e-05,-0.0004268282976208,0.0,0.0,0.0,2.460533640778504e-05,0.0046050877032104,-0.0013439659181783,0.0,0.0,0.0,-0.0004268282976208,-0.0013439659181783,0.0066845925267848,0.0,0.0,0.0,0.0,0.0,0.0,0.0,0.0,0.0,0.0,0.0,0.0,0.0,0.0,0.0,0.0,0.0,0.0,0.0,0.0,0.0,0,0,0,1,10,,125
1.001066522,0,1735643777088230371,map,0.980221818662002,-0.2220385041848621,0.0215710005791516,-0.4886088006084795,0.5036656021579156,-0.5064326629346082,0.5011071333395775,0.0,0.0,0.0,1,9.025130240943966e-10,0,1735643777088253974,map,0.9836038965027992,-0.2518791321421392,0.1486963118502359,-0.5025157933551353,0.5031922321396125,-0.4920135334308998,0.5021933271797371,0.0,0.0,0.0,16,1.979938408246848e-07,0,1735643777088270664,map,0.975600931503335,0.055376125850703,0.0295544377489062,-0.4817207915532795,0.4898994972948182,-0.4963066625036799,0.530681880499066,0.0,0.0,0.0,17,0.0006712444940635521,0,1735643777088284730,map,1.0043585330731148,-0.2591437267242923,0.2358337600569323,-0.5041412639155758,0.5198774269814745,-0.4714866997751078,0.5032587196143802,0.0,0.0,0.0,121,4.78017861276917e-06,0,1735643777088297367,map,0.9994957860860206,0.2101245892694576,0.2412179336655222,-0.5023964847683643,0.4892771548629491,-0.4963940483517698,0.5116625710197586,0.0,0.0,0.0,122,0.1400866225749011,0,1735643777088310956,map,0.9952735104229836,0.2076439701278025,0.1433608984591792,-0.4875504083072512,0.5016538943333119,-0.4771316781459302,0.5319617762295556,0.0,0.0,0.0,124,0.020463907544466444,0,1735643777088322877,map,0.990607517318286,-0.0259212341751088,0.2420292334623293,-0.4831231127312095,0.483130928792943,-0.5085908061377092,0.5239388852726725,0.0,0.0,0.0,125,0.7988933893054578,0,1735643777088343858,map,0.9903322566103188,-0.021294548550375,0.1452579294221797,-0.4935263347571474,0.4814859979159126,-0.5019144862243216,0.52219233930638,0.0,0.0,0.0,126,0.03987859288277167,0,1735644242188269615,map,0.9702028272691344,0.3323738445694951,0.0224641452659716,-0.504095432845197,0.4951371264652751,-0.4788079857021436,0.521027766446453,0.0,0.0,0.0,0,1.2641233728447199e-06,0.9226683343561576,0.0366266508879812,0.3565455913542392,1.0,2.5590355635194525e-05,2.439323070593701e-05,-0.0003888769747829,0.0,0.0,0.0,2.439323070593701e-05,0.0043319172108093,-0.0012829478288735,0.0,0.0,0.0,-0.0003888769747829,-0.0012829478288735,0.006102615666693,0.0,0.0,0.0,0.0,0.0,0.0,0.0,0.0,0.0,0.0,0.0,0.0,0.0,0.0,0.0,0.0,0.0,0.0,0.0,0.0,0.0,0,0,0,1,11,,125
1.100582447,0,1735643777088230371,map,0.980221818662002,-0.2220385041848621,0.0215710005791516,-0.4886088006084795,0.5036656021579156,-0.5064326629346082,0.5011071333395775,0.0,0.0,0.0,1,1.840207611056792e-10,0,1735643777088253974,map,0.9741033433890566,-0.250398107335967,0.1491349810667073,-0.5010485284051733,0.4840571516684951,-0.4905233249931183,0.5234748453739587,0.0,0.0,0.0,16,6.80587063976145e-08,0,1735643777088270664,map,0.975665006751358,0.0560697585461952,0.0264062011441537,-0.491620659693405,0.4934403909376549,-0.4944117456724606,0.5199833971340105,0.0,0.0,0.0,17,0.00039139260937915923,0,1735643777088284730,map,0.9995743200912212,-0.2595007573119499,0.2342398525319546,-0.5014312469457597,0.523038011957196,-0.4723707810406171,0.5018603270366794,0.0,0.0,0.0,121,1.593840407844572e-06,0,1735643777088297367,map,0.9948196603185404,0.2091881830229701,0.239548395311002,-0.508393176361756,0.4969625087715665,-0.4899326234835097,0.5045103245235336,0.0,0.0,0.0,122,0.13077246541870222,0,1735643777088310956,map,0.9866735204952416,0.2046826569035514,0.1432101391894991,-0.4810189484119481,0.5001458979421431,-0.4830581713926883,0.5339753319124989,0.0,0.0,0.0,124,0.01858677495819261,0,1735643777088322877,map,0.9869478609796624,-0.0266649519253277,0.2405414252116293,-0.4792365029595881,0.479461022244993,-0.5128368107232976,0.5267332417324809,0.0,0.0,0.0,125,0.8172880246548488,0,1735643777088343858,map,0.9846393120272134,-0.0216670723129317,0.1441588244473829,-0.4867745758568418,0.490955508567535,-0.5178224431184149,0.5038582323525748,0.0,0.0,0.0,126,0.03295916684773404,0,1735644242188269615,map,0.9702028272691344,0.3323738445694951,0.0224641452659716,-0.504095432845197,0.4951371264652751,-0.4788079857021436,0.521027766446453,0.0,0.0,0.0,0,5.134280081073217e-07,0.92235162073654,0.0354770463153598,0.3615379277333437,1.0,2.4561208684292612e-05,2.6365511159005093e-05,-0.0003738631103924,0.0,0.0,0.0,2.6365511159005093e-05,0.0039854616073158,-0.001239166849825,0.0,0.0,0.0,-0.0003738631103924,-0.001239166849825,0.0058682220088787,0.0,0.0,0.0,0.0,0.0,0.0,0.0,0.0,0.0,0.0,0.0,0.0,0.0,0.0,0.0,0.0,0.0,0.0,0.0,0.0,0.0,0,0,0,1,12,,125
1.199909995,0,1735643777088230371,map,0.980221818662002,-0.2220385041848621,0.0215710005791516,-0.4886088006084795,0.5036656021579156,-0.5064326629346082,0.5011071333395775,0.0,0.0,0.0,1,3.214507664988017e-10,0,1735643777088253974,map,0.9735588648854564,-0.2503340217432644,0.15020987697854,-0.5064740653771538,0.4863564262985297,-0.4885244615919901,0.5179626416303758,0.0,0.0,0.0,16,5.244359915407409e-08,0,1735643777088270664,map,0.975665006751358,0.0560697585461952,0.0264062011441537,-0.491620659693405,0.4934403909376549,-0.4944117456724606,0.5199833971340105,0.0,0.0,0.0,17,0.0008121244208626702,0,1735643777088284730,map,0.99941146750815,-0.2598888857982303,0.2348273749881301,-0.4876743719686345,0.5047832312831797,-0.4919957984404856,0.5150803147638415,0.0,0.0,0.0,121,7.870703285729e-07,0,1735643777088297367,map,0.99448357143208,0.2102911341559065,0.240283845181032,-0.4937734591897081,0.47521099337973,-0.5019115843687333,0.5276808166376217,0.0,0.0,0.0,122,0.09434032718981573,0,1735643777088310956,map,0.9900259692501762,0.2078454038380133,0.142454305615882,-0.486230636233457,0.4954622774116208,-0.4775375254553625,0.5385673698174315,0.0,0.0,0.0,124,0.01367119841147498,0,1735643777088322877,map,0.9919934161543515,-0.0259228222197963,0.2406068934331548,0.6146420989644265,-0.5087971677945402,0.3784335810662558,-0.469178598133193,0.0,0.0,0.0,125,0.8480827516747899,0,1735643777088343858,map,0.9846393120272134,-0.0216670723129317,0.1441588244473829,-0.4867745758568418,0.490955508567535,-0.5178224431184149,0.5038582323525748,0.0,0.0,0.0,126,0.043092454830447956,0,1735644242188269615,map,0.9702028272691344,0.3323738445694951,0.0224641452659716,-0.504095432845197,0.4951371264652751,-0.4788079857021436,0.521027766446453,0.0,0.0,0.0,0,3.036372304074394e-07,0.9216970822063228,0.0353366126290859,0.3713820798163218,1.0,2.781293318981529e-05,2.544042601928547e-05,-0.0004224249316205,0.0,0.0,0.0,2.544042601928547e-05,0.0036791242969652,-0.0011604357296984,0.0,0.0,0.0,-0.0004224249316205,-0.0011604357296984,0.0065797082786817,0.0,0.0,0.0,0.0,0.0,0.0,0.0,0.0,0.0,0.0,0.0,0.0,0.0,0.0,0.0,0.0,0.0,0.0,0.0,0.0,0.0,0,0,0,1,13,,125
1.300992503,0,1735643777088230371,map,0.980221818662002,-0.2220385041848621,0.0215710005791516,-0.4886088006084795,0.5036656021579156,-0.5064326629346082,0.5011071333395775,0.0,0.0,0.0,1,2.52183751711992e-10,0,1735643777088253974,map,0.9785018379429072,-0.2527997201125688,0.1481216175609977,-0.4955040637091921,0.5008598501553312,-0.5004296616728492,0.5031752051403712,0.0,0.0,0.0,16,1.8855878348917605e-08,0,1735643777088270664,map,0.975665006751358,0.0560697585461952,0.0264062011441537,-0.491620659693405,0.4934403909376549,-0.4944117456724606,0.5199833971340105,0.0,0.0,0.0,17,0.00101302021870703,0,1735643777088284730,map,1.0026354115282814,-0.2620746779541888,0.2335245250725758,-0.4822133140190754,0.5083983263886513,-0.5005255263520093,0.5084050147057987,0.0,0.0,0.0,121,2.6523134909470657e-07,0,1735643777088297367,map,0.996772751203107,0.2120729036206626,0.2393277980573671,-0.5085835793273907,0.4825690758067447,-0.4854636085748307,0.5222977260749543,0.0,0.0,0.0,122,0.06646999379816193,0,1735643777088310956,map,0.9887429016651156,0.2076273477339257,0.1420666590354138,-0.480035161505041,0.4951763338761449,-0.4746572695389977,0.5468702940932096,0.0,0.0,0.0,124,0.010572870634737396,0,1735643777088322877,map,0.9823589005527568,-0.0269857971488909,0.2417704176906035,0.6232090762497077,-0.5521484732698966,0.3679054466340111,-0.4139904504728787,0.0,0.0,0.0,125,0.8763822732042523,0,1735643777088343858,map,0.984258000403523,-0.0217292336687834,0.1437813348683516,-0.4837538391830047,0.4778987039938593,-0.5144827357019869,0.5224007718804534,0.0,0.0,0.0,126,0.04556142468025413,0,1735644242188269615,map,0.9702028272691344,0.3323738445694951,0.0224641452659716,-0.504095432845197,0.4951371264652751,-0.4788079857021436,0.521027766446453,0.0,0.0,0.0,0,1.331244761636972e-07,0.9211758053254592,0.0353972365206835,0.3791854828203094,1.0,2.9358779729623346e-05,2.321242890166236e-05,-0.0004451322587335,0.0,0.0,0.0,2.321242890166236e-05,0.0034163774826558,-0.0010713975187399,0.0,0.0,0.0,-0.0004451322587335,-0.0010713975187399,0.0069013393956731,0.0,0.0,0.0,0.0,0.0,0.0,0.0,0.0,0.0,0.0,0.0,0.0,0.0,0.0,0.0,0.0,0.0,0.0,0.0,0.0,0.0,0,0,0,1,14,,125
1.400486667,0,1735643777088230371,map,0.980221818662002,-0.2220385041848621,0.0215710005791516,-0.4886088006084795,0.5036656021579156,-0.5064326629346082,0.5011071333395775,0.0,0.0,0.0,1,6.310258565564295e-11,0,1735643777088253974,map,0.9794360229958352,-0.2532248988429537,0.1475019877413549,-0.4942481523802452,0.5003179997371546,-0.4979610435137836,0.5073809832368478,0.0,0.0,0.0,16,5.2554439468418805e-09,0,1735643777088270664,map,0.975665006751358,0.0560697585461952,0.0264062011441537,-0.491620659693405,0.4934403909376549,-0.4944117456724606,0.5199833971340105,0.0,0.0,0.0,17,0.0007319933500749043,0,1735643777088284730,map,1.0008152191589474,-0.2618387661569736,0.2332587670563367,-0.4864983007815884,0.5097968747406686,-0.4959296917206061,0.5074251577436606,0.0,0.0,0.0,121,9.555616288845828e-08,0,1735643777088297367,map,0.9979900374409822,0.2131334662072866,0.2383279201746618,-0.5083048708751886,0.4787136721538753,-0.4879361744490238,0.5238107177230743,0.0,0.0,0.0,122,0.052872120399496604,0,1735643777088310956,map,0.9879452037659492,0.2075239146829979,0.1415967585742171,-0.4721919797525533,0.4926296762553959,-0.4781314376816065,0.5529385722034487,0.0,0.0,0.0,124,0.008070553032209634,0,1735643777088322877,map,0.9771084125770496,-0.027604511274173,0.2420342621137801,-0.4664834772533541,0.4567907408903378,-0.5209771907141174,0.5498346580946875,0.0,0.0,0.0,125,0.899141501916055,0,1735643777088343858,map,0.984258000403523,-0.0217292336687834,0.1437813348683516,-0.4837538391830047,0.4778987039938593,-0.5144827357019869,0.5224007718804534,0.0,0.0,0.0,126,0.03918368033266837,0,1735644242188269615,map,0.9702028272691344,0.3323738445694951,0.0224641452659716,-0.504095432845197,0.4951371264652751,-0.4788079857021436,0.521027766446453,0.0,0.0,0.0,0,5.009478606639355e-08,0.9209270942502936,0.0349105356490484,0.3830178063308675,1.0,2.8267528532389183e-05,2.335960420050941e-05,-0.0004288007530277,0.0,0.0,0.0,2.335960420050941e-05,0.0031919352721504,-0.0010260837501922,0.0,0.0,0.0,-0.0004288007530277,-0.0010260837501922,0.0066468639514822,0.0,0.0,0.0,0.0,0.0,0.0,0.0,0.0,0.0,0.0,0.0,0.0,0.0,0.0,0.0,0.0,0.0,0.0,0.0,0.0,0.0,0,0,0,1,15,,125
1.501684945,0,1735643777088230371,map,0.980221818662002,-0.2220385041848621,0.0215710005791516,-0.4886088006084795,0.5036656021579156,-0.5064326629346082,0.5011071333395775,0.0,0.0,0.0,1,1.759863171418029e-11,0,1735643777088253974,map,0.9741294205451112,-0.2529801702914809,0.1460552732874148,-0.496872258506833,0.4969251603973014,-0.4955141144045268,0.5105380555025585,0.0,0.0,0.0,16,1.7597051758684894e-09,0,1735643777088270664,map,0.975665006751358,0.0560697585461952,0.0264062011441537,-0.491620659693405,0.4934403909376549,-0.4944117456724606,0.5199833971340105,0.0,0.0,0.0,17,0.0004892595131368557,0,1735643777088284730,map,0.9994035877543191,-0.2636005082433625,0.2302692894054097,-0.4902293613409894,0.5137630494020993,-0.4893200560238522,0.5062495285144244,0.0,0.0,0.0,121,2.737534361725197e-08,0,1735643777088297367,map,0.9921606009893832,0.2114780989632061,0.2363386666487936,-0.5003683058279923,0.4762474571359555,-0.4908446865733299,0.530934470304096,0.0,0.0,0.0,122,0.05054945612467165,0,1735643777088310956,map,0.985920618619876,0.2077157613549429,0.1403288385844083,-0.4738675257083328,0.4931486929392412,-0.4791357830643694,0.5501661895451903,0.0,0.0,0.0,124,0.005916444401473536,0,1735643777088322877,map,0.9791908980717854,-0.0267430378151256,0.2402112611003099,-0.4650203656230556,0.4734375750573039,-0.5256049326031204,0.5323085354406116,0.0,0.0,0.0,125,0.9093161047216771,0,1735643777088343858,map,0.984258000403523,-0.0217292336687834,0.1437813348683516,-0.4837538391830047,0.4778987039938593,-0.5144827357019869,0.5224007718804534,0.0,0.0,0.0,126,0.033728688731983224,0,1735644242188269615,map,0.9702028272691344,0.3323738445694951,0.0224641452659716,-0.504095432845197,0.4951371264652751,-0.4788079857021436,0.521027766446453,0.0,0.0,0.0,0,1.7354410177273778e-08,0.9207774100779352,0.0357488956621655,0.3850847282083279,1.0,2.6836888270933715e-05,2.0017290567451568e-05,-0.0004066414883218,0.0,0.0,0.0,2.0017290567451568e-05,0.0030029820303149,-0.0009359611460207,0.0,0.0,0.0,-0.0004066414883218,-0.0009359611460207,0.0062955174452275,0.0,0.0,0.0,0.0,0.0,0.0,0.0,0.0,0.0,0.0,0.0,0.0,0.0,0.0,0.0,0.0,0.0,0.0,0.0,0.0,0.0,0,0,0,1,16,,125
1.60175583,0,1735643777088230371,map,0.980221818662002,-0.2220385041848621,0.0215710005791516,-0.4886088006084795,0.5036656021579156,-0.5064326629346082,0.5011071333395775,0.0,0.0,0.0,1,4.947582286757604e-12,0,1735643777088253974,map,0.977825782634468,-0.2549935946390065,0.1431558210266438,-0.4985301304700774,0.5101986546306684,-0.4927653707269742,0.4983445908594284,0.0,0.0,0.0,16,3.9661319570216617e-10,0,1735643777088270664,map,0.975665006751358,0.0560697585461952,0.0264062011441537,-0.491620659693405,0.4934403909376549,-0.4944117456724606,0.5199833971340105,0.0,0.0,0.0,17,0.00037772941692529826,0,1735643777088284730,map,0.9972532914521832,-0.2635158363190831,0.2291006284090717,-0.4889966936527619,0.5117742964813076,-0.4891382429602325,0.5096205277768021,0.0,0.0,0.0,121,1.0458184178744593e-08,0,1735643777088297367,map,0.9881340787961598,0.2094363108789324,0.2356336881275932,-0.5042450644014084,0.4826449731139405,-0.4911584395837834,0.5211085608395688,0.0,0.0,0.0,122,0.05095404187729972,0,1735643777088310956,map,0.9799417824395382,0.2049490443543283,0.1391992745339398,-0.4750520974587267,0.4951880443679614,-0.4780434342257957,0.5482597745674088,0.0,0.0,0.0,124,0.0054488449920306985,0,1735643777088322877,map,0.9798046572670956,-0.0274233972956082,0.2372627579590941,-0.4834711403987042,0.4847331870646573,-0.5095578860099327,0.5211910921771449,0.0,0.0,0.0,125,0.9110818706681438,0,1735643777088343858,map,0.984258000403523,-0.0217292336687834,0.1437813348683516,-0.4837538391830047,0.4778987039938593,-0.5144827357019869,0.5224007718804534,0.0,0.0,0.0,126,0.03213749545181901,0,1735644242188269615,map,0.9702028272691344,0.3323738445694951,0.0224641452659716,-0.504095432845197,0.4951371264652751,-0.4788079857021436,0.521027766446453,0.0,0.0,0.0,0,6.7340365583600475e-09,0.920874911130373,0.0357541132613013,0.3836216528428013,1.0,2.5410351068031365e-05,1.8847942429524124e-05,-0.0003850038229804,0.0,0.0,0.0,1.8847942429524124e-05,0.0028263364641051,-0.0008810267478717,0.0,0.0,0.0,-0.0003850038229804,-0.0008810267478717,0.0059594423220292,0.0,0.0,0.0,0.0,0.0,0.0,0.0,0.0,0.0,0.0,0.0,0.0,0.0,0.0,0.0,0.0,0.0,0.0,0.0,0.0,0.0,0,0,0,1,17,,125
1.701125307,0,1735643777088230371,map,0.980221818662002,-0.2220385041848621,0.0215710005791516,-0.4886088006084795,0.5036656021579156,-0.5064326629346082,0.5011071333395775,0.0,0.0,0.0,1,5.9377647845678114e-12,0,1735643777088253974,map,0.9712785203201482,-0.2529374186067057,0.1450935422908773,-0.5032526164864656,0.4988738063834235,-0.4916176587651937,0.5061361545021951,0.0,0.0,0.0,16,5.865530831270407e-10,0,1735643777088270664,map,0.975665006751358,0.0560697585461952,0.0264062011441537,-0.491620659693405,0.4934403909376549,-0.4944117456724606,0.5199833971340105,0.0,0.0,0.0,17,0.00034228285914911504,0,1735643777088284730,map,0.983617039822294,-0.2588956017387504,0.2313924410925257,-0.4939235880761545,0.4911597011909998,-0.4899984613564155,0.5241213074625853,0.0,0.0,0.0,121,1.8282628917956273e-08,0,1735643777088297367,map,0.9787579149182872,0.2042132065628003,0.236978523266739,-0.4914343972769555,0.4912430237302663,-0.5034370666046258,0.5135403049205677,0.0,0.0,0.0,122,0.04388023788243681,0,1735643777088310956,map,0.9749764599829092,0.2022110858526657,0.1403412603394986,-0.4770743019852967,0.500848485398253,-0.4855166069031575,0.5346255974799209,0.0,0.0,0.0,124,0.0038544902621047575,0,1735643777088322877,map,0.9741148157422704,-0.0286038444126888,0.2375145112597421,-0.4941248539847697,0.4951862759358236,-0.5055094922215273,0.5050656730300261,0.0,0.0,0.0,125,0.9243157853271484,0,1735643777088343858,map,0.977253546908827,-0.0232034770261372,0.1395985856706562,-0.4915653780603504,0.4831177275533962,-0.5046226733514578,0.5199198957105362,0.0,0.0,0.0,126,0.027607183070065686,0,1735644242188269615,map,0.9702028272691344,0.3323738445694951,0.0224641452659716,-0.504095432845197,0.4951371264652751,-0.4788079857021436,0.521027766446453,0.0,0.0,0.0,0,1.7239754736058527e-09,0.9211116921288184,0.0343313043731712,0.3803725093992457,1.0,2.495177399840756e-05,1.20736346615873e-05,-0.0003766934239909,0.0,0.0,0.0,1.20736346615873e-05,0.0027037323189012,-0.0007534913445393,0.0,0.0,0.0,-0.0003766934239909,-0.0007534913445393,0.0058078300560132,0.0,0.0,0.0,0.0,0.0,0.0,0.0,0.0,0.0,0.0,0.0,0.0,0.0,0.0,0.0,0.0,0.0,0.0,0.0,0.0,0.0,0,0,0,1,18,,125
1.800647983,0,1735643777088230371,map,0.980221818662002,-0.2220385041848621,0.0215710005791516,-0.4886088006084795,0.5036656021579156,-0.5064326629346082,0.5011071333395775,0.0,0.0,0.0,1,8.503500254770727e-11,0,1735643777088253974,map,0.9678017678965902,-0.2523868236160178,0.1460016334218289,-0.4994955342367602,0.4988123124540278,-0.4913502536517858,0.5101621472219638,0.0,0.0,0.0,16,3.4332190381395113e-09,0,1735643777088270664,map,0.975665006751358,0.0560697585461952,0.0264062011441537,-0.491620659693405,0.4934403909376549,-0.4944117456724606,0.5199833971340105,0.0,0.0,0.0,17,0.0005727253529746188,0,1735643777088284730,map,0.9839251769990734,-0.2604362516406949,0.2302746880402781,-0.4974158775695745,0.5001077416055616,-0.4825094889785246,0.5192824708899372,0.0,0.0,0.0,121,3.669183211843148e-08,0,1735643777088297367,map,0.9737198197541016,0.2012916594123722,0.2370511136542698,0.4971905464258008,-0.4983786645817456,0.5046567934248123,-0.4997417213768688,0.0,0.0,0.0,122,0.02285349806462335,0,1735643777088310956,map,0.9738549716082828,0.201529703824899,0.1395891023296739,-0.483502490519894,0.5048201934075306,-0.4791482188361133,0.5308473399907208,0.0,0.0,0.0,124,0.0017677547744335003,0,1735643777088322877,map,0.9724813057560366,-0.029388170101915,0.2370828205194242,-0.4969935900875407,0.4907911666150411,-0.4991280328708889,0.5128280501171733,0.0,0.0,0.0,125,0.9331140228758402,0,1735643777088343858,map,0.975617949579545,-0.0239639361759742,0.1388057221421831,-0.5005750521591364,0.4878217846926848,-0.4999023223196451,0.5114217356297517,0.0,0.0,0.0,126,0.041691958383814585,0,1735644242188269615,map,0.9702028272691344,0.3323738445694951,0.0224641452659716,-0.504095432845197,0.4951371264652751,-0.4788079857021436,0.521027766446453,0.0,0.0,0.0,0,3.382274511744387e-10,0.9215285372762118,0.0322323177014016,0.3745665758556958,1.0,2.676620051962904e-05,-4.310963148551165e-06,-0.0004004306083341,0.0,0.0,0.0,-4.310963148551165e-06,0.0026407340287752,-0.0004944755171013,0.0,0.0,0.0,-0.0004004306083341,-0.0004944755171013,0.0061089143475254,0.0,0.0,0.0,0.0,0.0,0.0,0.0,0.0,0.0,0.0,0.0,0.0,0.0,0.0,0.0,0.0,0.0,0.0,0.0,0.0,0.0,0,0,0,1,19,,125
1.901915884,0,1735643777088230371,map,0.980221818662002,-0.2220385041848621,0.0215710005791516,-0.4886088006084795,0.5036656021579156,-0.5064326629346082,0.5011071333395775,0.0,0.0,0.0,1,8.652923827780077e-10,0,1735643777088253974,map,0.9629846816359772,-0.2522556727111506,0.1458912356759198,-0.5062206346681114,0.5026719412795448,-0.4819623371603168,0.5086982347575368,0.0,0.0,0.0,16,1.2333306367409276e-08,0,1735643777088270664,map,0.975665006751358,0.0560697585461952,0.0264062011441537,-0.491620659693405,0.4934403909376549,-0.4944117456724606,0.5199833971340105,0.0,0.0,0.0,17,0.0010628952733994855,0,1735643777088284730,map,0.9786381579004672,-0.2604088722053857,0.229840790230046,-0.4963427361305593,0.5006085772990346,-0.4816104653730199,0.5206594859101773,0.0,0.0,0.0,121,6.532756098592136e-08,0,1735643777088297367,map,0.972555886305278,0.2017195264827808,0.2357693527449574,-0.5003509204140368,0.4976160038297026,-0.4981660346502751,0.5038431016638064,0.0,0.0,0.0,122,0.010072859224875481,0,1735643777088310956,map,0.9688642780199724,0.1997874225283618,0.1394465736003187,-0.4857759346542045,0.5071460619950731,-0.482744920280156,0.5232417749543988,0.0,0.0,0.0,124,0.0009954629959704532,0,1735643777088322877,map,0.9702675084372449,-0.0299016783892779,0.2359706969172723,0.5116311960849924,-0.507604628443714,0.4861097293401296,-0.4942351580128886,0.0,0.0,0.0,125,0.923118104703259,0,1735643777088343858,map,0.9711185245562076,-0.0248807683263769,0.1385884012504712,0.4958543858323571,-0.4968204791351039,0.5101803019447241,-0.4970049286177878,0.0,0.0,0.0,126,0.06475059919762223,0,1735644242188269615,map,0.9702028272691344,0.3323738445694951,0.0224641452659716,-0.504095432845197,0.4951371264652751,-0.4788079857021436,0.521027766446453,0.0,0.0,0.0,0,7.871368974104917e-11,0.921984872872763,0.030410465920534,0.368109829304896,1.0,2.9384491850564046e-05,-1.9891555556877977e-05,-0.0004363915004091,0.0,0.0,0.0,-1.9891555556877977e-05,0.002571761061654,-0.0002462502724048,0.0,0.0,0.0,-0.0004363915004091,-0.0002462502724048,0.0065955705745531,0.0,0.0,0.0,0.0,0.0,0.0,0.0,0.0,0.0,0.0,0.0,0.0,0.0,0.0,0.0,0.0,0.0,0.0,0.0,0.0,0.0,0,0,0,1,20,,125
2.000671159,0,1735643777088230371,map,0.980221818662002,-0.2220385041848621,0.0215710005791516,-0.4886088006084795,0.5036656021579156,-0.5064326629346082,0.5011071333395775,0.0,0.0,0.0,1,5.419806518007544e-09,0,1735643777088253974,map,0.9664733100384046,-0.2541790528204306,0.1439646178371689,-0.502177301230529,0.5051647929577312,-0.4863315694179052,0.506071234780552,0.0,0.0,0.0,16,3.413175740117144e-08,0,1735643777088270664,map,0.975665006751358,0.0560697585461952,0.0264062011441537,-0.491620659693405,0.4934403909376549,-0.4944117456724606,0.5199833971340105,0.0,0.0,0.0,17,0.0010070661608446245,0,1735643777088284730,map,0.980128982992562,-0.2616991144128571,0.2292335157642067,-0.4985171687962298,0.5055252371151158,-0.481899274257998,0.5135152933698398,0.0,0.0,0.0,121,1.3271974474053228e-07,0,1735643777088297367,map,0.9740452893245388,0.2033726687978132,0.2349915358223021,-0.5026000702089969,0.4979950301727767,-0.4966293325527395,0.502745885510113,0.0,0.0,0.0,122,0.004449938723849481,0,1735643777088310956,map,0.9683949512521436,0.2000034945622771,0.1394014044031582,-0.4848422855952836,0.5053561095386698,-0.4802011348473964,0.528157202679235,0.0,0.0,0.0,124,0.00043847132909446474,0,1735643777088322877,map,0.9658356819405928,-0.0302559567356263,0.2368356683426551,-0.497506295075021,0.4984519174018868,-0.4979653570241001,0.5060273466947905,0.0,0.0,0.0,125,0.9153690595857091,0,1735643777088343858,map,0.9690145451993384,-0.0251376158303132,0.139291810672732,-0.4967796407674396,0.4897362320584014,-0.5016380961874868,0.5115932290224408,0.0,0.0,0.0,126,0.07873529191381134,0,1735644242188269615,map,0.9702028272691344,0.3323738445694951,0.0224641452659716,-0.504095432845197,0.4951371264652751,-0.4788079857021436,0.521027766446453,0.0,0.0,0.0,0,1.5382371779450577e-11,0.922336470324195,0.027787852663335,0.3633931125174909,1.0,3.045764569093807e-05,-3.738642137204899e-05,-0.0004487786648021,0.0,0.0,0.0,-3.738642137204899e-05,0.002586858255131,1.2878410585073562e-05,0.0,0.0,0.0,-0.0004487786648021,1.2878410585073562e-05,0.0067264441303405,0.0,0.0,0.0,0.0,0.0,0.0,0.0,0.0,0.0,0.0,0.0,0.0,0.0,0.0,0.0,0.0,0.0,0.0,0.0,0.0,0.0,0,0,0,1,21,,125
2.099998625,0,1735643777088230371,map,0.980221818662002,-0.2220385041848621,0.0215710005791516,-0.4886088006084795,0.5036656021579156,-0.5064326629346082,0.5011071333395775,0.0,0.0,0.0,1,1.6224662476018348e-08,0,1735643777088253974,map,0.9664733100384046,-0.2541790528204306,0.1439646178371689,-0.502177301230529,0.5051647929577312,-0.4863315694179052,0.506071234780552,0.0,0.0,0.0,16,8.146561477256593e-08,0,1735643777088270664,map,0.975665006751358,0.0560697585461952,0.0264062011441537,-0.491620659693405,0.4934403909376549,-0.4944117456724606,0.5199833971340105,0.0,0.0,0.0,17,0.0008256130297354261,0,1735643777088284730,map,0.98037955513916,-0.2632886419598123,0.2301859328427462,-0.495138410327517,0.5092604906871004,-0.4818224749468704,0.5131654800155064,0.0,0.0,0.0,121,2.100525035107715e-07,0,1735643777088297367,map,0.9706069110413982,0.2007884212407524,0.2370727980563533,-0.5003068206035416,0.4995718226266078,-0.4985899976198073,0.5015267625646561,0.0,0.0,0.0,122,0.0033772252224168807,0,1735643777088310956,map,0.9683949512521436,0.2000034945622771,0.1394014044031582,-0.4848422855952836,0.5053561095386698,-0.4802011348473964,0.528157202679235,0.0,0.0,0.0,124,0.0002309690212908451,0,1735643777088322877,map,0.9721787203856728,-0.0308542831775049,0.2363945273679832,-0.5116968255620984,0.4962208191751514,-0.4804928385506944,0.5109382442412284,0.0,0.0,0.0,125,0.909324127271653,0,1735643777088343858,map,0.9690145451993384,-0.0251376158303132,0.139291810672732,-0.4967796407674396,0.4897362320584014,-0.5016380961874868,0.5115932290224408,0.0,0.0,0.0,126,0.08624175770836932,0,1735644242188269615,map,0.9702028272691344,0.3323738445694951,0.0224641452659716,-0.504095432845197,0.4951371264652751,-0.4788079857021436,0.521027766446453,0.0,0.0,0.0,0,3.753749727556717e-12,0.9226061307544918,0.0253016325261252,0.3598761147694612,1.0,3.0600258951467675e-05,-4.976617761468273e-05,-0.0004482959322317,0.0,0.0,0.0,-4.976617761468273e-05,0.0025990808909727,0.0001959176713828,0.0,0.0,0.0,-0.0004482959322317,0.0001959176713828,0.006680451406223,0.0,0.0,0.0,0.0,0.0,0.0,0.0,0.0,0.0,0.0,0.0,0.0,0.0,0.0,0.0,0.0,0.0,0.0,0.0,0.0,0.0,0,0,0,1,22,,125
2.200674946,0,1735643777088230371,map,0.980221818662002,-0.2220385041848621,0.0215710005791516,-0.4886088006084795,0.5036656021579156,-0.5064326629346082,0.5011071333395775,0.0,0.0,0.0,1,1.6585576130149098e-08,0,1735643777088253974,map,0.9664733100384046,-0.2541790528204306,0.1439646178371689,-0.502177301230529,0.5051647929577312,-0.4863315694179052,0.506071234780552,0.0,0.0,0.0,16,7.918963862496363e-08,0,1735643777088270664,map,0.975665006751358,0.0560697585461952,0.0264062011441537,-0.491620659693405,0.4934403909376549,-0.4944117456724606,0.5199833971340105,0.0,0.0,0.0,17,0.0006110487504933513,0,1735643777088284730,map,0.9775650505385396,-0.2645418111658091,0.229466135186549,-0.488964981995653,0.5055543611632017,-0.4883432033994571,0.5165742444067593,0.0,0.0,0.0,121,1.6271016633856254e-07,0,1735643777088297367,map,0.9723351939530658,0.2031536432153581,0.236196622459541,-0.4995684155583016,0.4955681274076353,-0.4978297551135319,0.506960712676889,0.0,0.0,0.0,122,0.0018283771461062614,0,1735643777088310956,map,0.9683949512521436,0.2000034945622771,0.1394014044031582,-0.4848422855952836,0.5053561095386698,-0.4802011348473964,0.528157202679235,0.0,0.0,0.0,124,0.0001333428686637748,0,1735643777088322877,map,0.9658275552241138,-0.0311730679964608,0.237600774724823,-0.4919739740097753,0.4938925646045844,-0.5018054355425243,0.5120771898701539,0.0,0.0,0.0,125,0.9151825581250754,0,1735643777088343858,map,0.9690145451993384,-0.0251376158303132,0.139291810672732,-0.4967796407674396,0.4897362320584014,-0.5016380961874868,0.5115932290224408,0.0,0.0,0.0,126,0.08224441462330902,0,1735644242188269615,map,0.9702028272691344,0.3323738445694951,0.0224641452659716,-0.504095432845197,0.4951371264652751,-0.4788079857021436,0.521027766446453,0.0,0.0,0.0,0,9.71159638290036e-13,0.9227731796182036,0.0237019002653894,0.3577100230065838,1.0,2.9883730013181705e-05,-5.348156680264564e-05,-0.0004367653544324,0.0,0.0,0.0,-5.348156680264564e-05,0.0025423785267068,0.0002636331829589,0.0,0.0,0.0,-0.0004367653544324,0.0002636331829589,0.0064932199748113,0.0,0.0,0.0,0.0,0.0,0.0,0.0,0.0,0.0,0.0,0.0,0.0,0.0,0.0,0.0,0.0,0.0,0.0,0.0,0.0,0.0,0,0,0,1,23,,125
2.301244425,0,1735643777088230371,map,0.980221818662002,-0.2220385041848621,0.0215710005791516,-0.4886088006084795,0.5036656021579156,-0.5064326629346082,0.5011071333395775,0.0,0.0,0.0,1,1.3904132659791496e-08,0,1735643777088253974,map,0.9664733100384046,-0.2541790528204306,0.1439646178371689,-0.502177301230529,0.5051647929577312,-0.4863315694179052,0.506071234780552,0.0,0.0,0.0,16,6.681306943627652e-08,0,1735643777088270664,map,0.975665006751358,0.0560697585461952,0.0264062011441537,-0.491620659693405,0.4934403909376549,-0.4944117456724606,0.5199833971340105,0.0,0.0,0.0,17,0.00045239720778291647,0,1735643777088284730,map,0.9763209807623352,-0.2649602888345335,0.2293677443221578,-0.4950878431471556,0.5100604535093275,-0.4815385941507339,0.5126860088563867,0.0,0.0,0.0,121,1.25960385262639e-07,0,1735643777088297367,map,0.9642357454603032,0.2002422364466667,0.237219979214574,-0.4971436726473163,0.4955757748813558,-0.5017997696152947,0.5054204302474515,0.0,0.0,0.0,122,0.0016204056064109144,0,1735643777088310956,map,0.9683949512521436,0.2000034945622771,0.1394014044031582,-0.4848422855952836,0.5053561095386698,-0.4802011348473964,0.528157202679235,0.0,0.0,0.0,124,8.205431359983148e-05,0,1735643777088322877,map,0.9633431550725304,-0.0313077826413672,0.2371410770042181,-0.485505713230211,0.4976715959195327,-0.5097799406314318,0.5066868827644377,0.0,0.0,0.0,125,0.9192621673792872,0,1735643777088343858,map,0.9690145451993384,-0.0251376158303132,0.139291810672732,-0.4967796407674396,0.4897362320584014,-0.5016380961874868,0.5115932290224408,0.0,0.0,0.0,126,0.07858276881506203,0,1735644242188269615,map,0.9702028272691344,0.3323738445694951,0.0224641452659716,-0.504095432845197,0.4951371264652751,-0.4788079857021436,0.521027766446453,0.0,0.0,0.0,0,2.6967189468981055e-13,0.922895597838298,0.0223672358200325,0.3561570192367311,1.0,2.8983257670022143e-05,-5.501107483982604e-05,-0.0004229394650157,0.0,0.0,0.0,-5.501107483982604e-05,0.0024774166592731,0.0003003214620502,0.0,0.0,0.0,-0.0004229394650157,0.0003003214620502,0.0062781410188386,0.0,0.0,0.0,0.0,0.0,0.0,0.0,0.0,0.0,0.0,0.0,0.0,0.0,0.0,0.0,0.0,0.0,0.0,0.0,0.0,0.0,0,0,0,1,24,,125
2.399960685,0,1735643777088230371,map,0.980221818662002,-0.2220385041848621,0.0215710005791516,-0.4886088006084795,0.5036656021579156,-0.5064326629346082,0.5011071333395775,0.0,0.0,0.0,1,1.4896020144378542e-08,0,1735643777088253974,map,0.9664733100384046,-0.2541790528204306,0.1439646178371689,-0.502177301230529,0.5051647929577312,-0.4863315694179052,0.506071234780552,0.0,0.0,0.0,16,7.641037206008143e-08,0,1735643777088270664,map,0.975665006751358,0.0560697585461952,0.0264062011441537,-0.491620659693405,0.4934403909376549,-0.4944117456724606,0.5199833971340105,0.0,0.0,0.0,17,0.00031439852270845803,0,1735643777088284730,map,0.974228525112276,-0.2652193849456871,0.2293463022440864,-0.4899299797947606,0.5083282349863014,-0.4872880421861673,0.5139274115635285,0.0,0.0,0.0,121,1.369270585116391e-07,0,1735643777088297367,map,0.9642357454603032,0.2002422364466667,0.237219979214574,-0.4971436726473163,0.4955757748813558,-0.5017997696152947,0.5054204302474515,0.0,0.0,0.0,122,0.001156427797611153,0,1735643777088310956,map,0.9683949512521436,0.2000034945622771,0.1394014044031582,-0.4848422855952836,0.5053561095386698,-0.4802011348473964,0.528157202679235,0.0,0.0,0.0,124,5.047881459312389e-05,0,1735643777088322877,map,0.9599016336954822,-0.0319395610393385,0.2375905251473393,-0.4860940426649175,0.493516655029894,-0.509271510066,0.5106823101781358,0.0,0.0,0.0,125,0.9245996347807306,0,1735643777088343858,map,0.9690145451993384,-0.0251376158303132,0.139291810672732,-0.4967796407674396,0.4897362320584014,-0.5016380961874868,0.5115932290224408,0.0,0.0,0.0,126,0.0738788318508211,0,1735644242188269615,map,0.9702028272691344,0.3323738445694951,0.0224641452659716,-0.504095432845197,0.4951371264652751,-0.4788079857021436,0.521027766446453,0.0,0.0,0.0,0,8.490848393864284e-14,0.9230119020634874,0.0205709668519989,0.3547934255519503,1.0,2.814856751034555e-05,-5.7824559939635424e-05,-0.0004098280873826,0.0,0.0,0.0,-5.7824559939635424e-05,0.0024557579658346,0.0003470937480716,0.0,0.0,0.0,-0.0004098280873826,0.0003470937480716,0.0060716406837772,0.0,0.0,0.0,0.0,0.0,0.0,0.0,0.0,0.0,0.0,0.0,0.0,0.0,0.0,0.0,0.0,0.0,0.0,0.0,0.0,0.0,0,0,0,1,25,,125
2.501038335,0,1735643777088230371,map,0.980221818662002,-0.2220385041848621,0.0215710005791516,-0.4886088006084795,0.5036656021579156,-0.5064326629346082,0.5011071333395775,0.0,0.0,0.0,1,1.4596707701277947e-08,0,1735643777088253974,map,0.9664733100384046,-0.2541790528204306,0.1439646178371689,-0.502177301230529,0.5051647929577312,-0.4863315694179052,0.506071234780552,0.0,0.0,0.0,16,9.015840191820226e-08,0,1735643777088270664,map,0.975665006751358,0.0560697585461952,0.0264062011441537,-0.491620659693405,0.4934403909376549,-0.4944117456724606,0.5199833971340105,0.0,0.0,0.0,17,0.00021534169402618792,0,1735643777088284730,map,0.9711017926179424,-0.2646744616852788,0.2299545659633264,-0.4881703231739999,0.5026623274413858,-0.4950738989434708,0.5137335444842118,0.0,0.0,0.0,121,1.842825851788356e-07,0,1735643777088297367,map,0.9642357454603032,0.2002422364466667,0.237219979214574,-0.4971436726473163,0.4955757748813558,-0.5017997696152947,0.5054204302474515,0.0,0.0,0.0,122,0.0009246104073527059,0,1735643777088310956,map,0.9683949512521436,0.2000034945622771,0.1394014044031582,-0.4848422855952836,0.5053561095386698,-0.4802011348473964,0.528157202679235,0.0,0.0,0.0,124,3.517527877151538e-05,0,1735643777088322877,map,0.9607151656244948,-0.0323158587330092,0.2370186524659308,-0.4993541533277785,0.4955765708364783,-0.4973462036053905,0.5076377111204012,0.0,0.0,0.0,125,0.9303673248718026,0,1735643777088343858,map,0.9690145451993384,-0.0251376158303132,0.139291810672732,-0.4967796407674396,0.4897362320584014,-0.5016380961874868,0.5115932290224408,0.0,0.0,0.0,126,0.06845725871031513,0,1735644242188269615,map,0.9702028272691344,0.3323738445694951,0.0224641452659716,-0.504095432845197,0.4951371264652751,-0.4788079857021436,0.521027766446453,0.0,0.0,0.0,0,3.703367115789037e-14,0.9230774916911468,0.0186630869639026,0.3542138983786176,1.0,2.7173480279821758e-05,-5.872896669047442e-05,-0.0003950157429251,0.0,0.0,0.0,-5.872896669047442e-05,0.0024523058780645,0.0003613856944956,0.0,0.0,0.0,-0.0003950157429251,0.0003613856944956,0.0058465123357093,0.0,0.0,0.0,0.0,0.0,0.0,0.0,0.0,0.0,0.0,0.0,0.0,0.0,0.0,0.0,0.0,0.0,0.0,0.0,0.0,0.0,0,0,0,1,26,,125
