%time,field.boxes0.header.seq,field.boxes0.header.stamp,field.boxes0.header.frame_id,field.boxes0.pose.position.x,field.boxes0.pose.position.y,field.boxes0.pose.position.z,field.boxes0.pose.orientation.x,field.boxes0.pose.orientation.y,field.boxes0.pose.orientation.z,field.boxes0.pose.orientation.w,field.boxes0.scale.x,field.boxes0.scale.y,field.boxes0.scale.z,field.boxes0.id,field.boxes0.pdf,field.boxes1.header.seq,field.boxes1.header.stamp,field.boxes1.header.frame_id,field.boxes1.pose.position.x,field.boxes1.pose.position.y,field.boxes1.pose.position.z,field.boxes1.pose.orientation.x,field.boxes1.pose.orientation.y,field.boxes1.pose.orientation.z,field.boxes1.pose.orientation.w,field.boxes1.scale.x,field.boxes1.scale.y,field.boxes1.scale.z,field.boxes1.id,field.boxes1.pdf,field.boxes2.header.seq,field.boxes2.header.stamp,field.boxes2.header.frame_id,field.boxes2.pose.position.x,field.boxes2.pose.position.y,field.boxes2.pose.position.z,field.boxes2.pose.orientation.x,field.boxes2.pose.orientation.y,field.boxes2.pose.orientation.z,field.boxes2.pose.orientation.w,field.boxes2.scale.x,field.boxes2.scale.y,field.boxes2.scale.z,field.boxes2.id,field.boxes2.pdf,field.boxes3.header.seq,field.boxes3.header.stamp,field.boxes3.header.frame_id,field.boxes3.pose.position.x,field.boxes3.pose.position.y,field.boxes3.pose.position.z,field.boxes3.pose.orientation.x,field.boxes3.pose.orientation.y,field.boxes3.pose.orientation.z,field.boxes3.pose.orientation.w,field.boxes3.scale.x,field.boxes3.scale.y,field.boxes3.scale.z,field.boxes3.id,field.boxes3.pdf,field.boxes4.header.seq,field.boxes4.header.stamp,field.boxes4.header.frame_id,field.boxes4.pose.position.x,field.boxes4.pose.position.y,field.boxes4.pose.position.z,field.boxes4.pose.orientation.x,field.boxes4.pose.orientation.y,field.boxes4.pose.orientation.z,field.boxes4.pose.orientation.w,field.boxes4.scale.x,field.boxes4.scale.y,field.boxes4.scale.z,field.boxes4.id,field.boxes4.pdf,field.boxes5.header.seq,field.boxes5.header.stamp,field.boxes5.header.frame_id,field.boxes5.pose.position.x,field.boxes5.pose.position.y,field.boxes5.pose.position.z,field.boxes5.pose.orientation.x,field.boxes5.pose.orientation.y,field.boxes5.pose.orientation.z,field.boxes5.pose.orientation.w,field.boxes5.scale.x,field.boxes5.scale.y,field.boxes5.scale.z,field.boxes5.id,field.boxes5.pdf,field.boxes6.header.seq,field.boxes6.header.stamp,field.boxes6.header.frame_id,field.boxes6.pose.position.x,field.boxes6.pose.position.y,field.boxes6.pose.position.z,field.boxes6.pose.orientation.x,field.boxes6.pose.orientation.y,field.boxes6.pose.orientation.z,field.boxes6.pose.orientation.w,field.boxes6.scale.x,field.boxes6.scale.y,field.boxes6.scale.z,field.boxes6.id,field.boxes6.pdf,field.boxes7.header.seq,field.boxes7.header.stamp,field.boxes7.header.frame_id,field.boxes7.pose.position.x,field.boxes7.pose.position.y,field.boxes7.pose.position.z,field.boxes7.pose.orientation.x,field.boxes7.pose.orientation.y,field.boxes7.pose.orientation.z,field.boxes7.pose.orientation.w,field.boxes7.scale.x,field.boxes7.scale.y,field.boxes7.scale.z,field.boxes7.id,field.boxes7.pdf,field.boxes8.header.seq,field.boxes8.header.stamp,field.boxes8.header.frame_id,field.boxes8.pose.position.x,field.boxes8.pose.position.y,field.boxes8.pose.position.z,field.boxes8.pose.orientation.x,field.boxes8.pose.orientation.y,field.boxes8.pose.orientation.z,field.boxes8.pose.orientation.w,field.boxes8.scale.x,field.boxes8.scale.y,field.boxes8.scale.z,field.boxes8.id,field.boxes8.pdf,field.pose.pose.position.x,field.pose.pose.position.y,field.pose.pose.position.z,field.pose.pose.orientation.w,field.pose.covariance0,field.pose.covariance1,field.pose.covariance2,field.pose.covariance3,field.pose.covariance4,field.pose.covariance5,field.pose.covariance6,field.pose.covariance7,field.pose.covariance8,field.pose.covariance9,field.pose.covariance10,field.pose.covariance11,field.pose.covariance12,field.pose.covariance13,field.pose.covariance14,field.pose.covariance15,field.pose.covariance16,field.pose.covariance17,field.pose.covariance18,field.pose.covariance19,field.pose.covariance20,field.pose.covariance21,field.pose.covariance22,field.pose.covariance23,field.pose.covariance24,field.pose.covariance25,field.pose.covariance26,field.pose.covariance27,field.pose.covariance28,field.pose.covariance29,field.pose.covariance30,field.pose.covariance31,field.pose.covariance32,field.pose.covariance33,field.pose.covariance34,field.pose.covariance35,field.buttons0,field.buttons1,field.buttons2,field.buttons3,intersection_length,vacuum,desired_box
0.0,0,1735643777088230371,map,0.9776169857424156,-0.2204010324520608,0.0232769561775167,-0.4861839643123308,0.4926408201695861,-0.5080753406505142,0.5126301038478406,0.0,0.0,0.0,1,0.1111111111111111,0,1735643777088253974,map,0.9837206413737372,-0.2506831061611992,0.1482910479129145,0.5237753269503798,-0.5167124448613758,0.4621079174608409,-0.4950999180199961,0.0,0.0,0.0,16,0.1111111111111111,0,1735643777088270664,map,0.9937653034435482,0.0550717809180288,0.0233412992897738,0.5103715698302814,-0.5059944968871518,0.4865286616293175,-0.4967698574209967,0.0,0.0,0.0,17,0.1111111111111111,0,1735643777088284730,map,1.0086854872101745,-0.2593073038073734,0.2366944440753362,-0.5086826475550604,0.5075403222397286,-0.475753998918131,0.5072503503109421,0.0,0.0,0.0,121,0.1111111111111111,0,1735643777088297367,map,1.0186767281314846,0.2076983693045564,0.2412960247433949,0.5125946571197824,-0.5002472413675243,0.4917522818447918,-0.4951556404776939,0.0,0.0,0.0,122,0.1111111111111111,0,1735643777088310956,map,1.004241871486723,0.2014464852404685,0.143884616581687,-0.4709111898231468,0.4946455597279103,-0.4928996826783207,0.5390902747744771,0.0,0.0,0.0,124,0.1111111111111111,0,1735643777088322877,map,1.0038857555780631,-0.0294103274639449,0.2418848335065501,0.5407958540937238,-0.5281067661063069,0.4554277764068361,-0.4703494746089374,0.0,0.0,0.0,125,0.1111111111111111,0,1735643777088343858,map,1.0022942098022982,-0.0246671822535718,0.1449327456854158,-0.4724941657917939,0.4679240472018665,-0.5261909966476637,0.5300182868447852,0.0,0.0,0.0,126,0.1111111111111111,0,1735644242188269615,map,0.9722347158930256,0.3280996796465063,0.0265202338481532,-0.496165382059439,0.4923049914045816,-0.4877704575494442,0.5230063955880001,0.0,0.0,0.0,0,0.1111111111111111,0.9154905426286088,0.1100369259427901,0.4486293663433477,1.0,0.0,0.0,0.0,0.0,0.0,0.0,0.0,0.0,0.0,0.0,0.0,0.0,0.0,0.0,0.0,0.0,0.0,0.0,0.0,0.0,0.0,0.0,0.0,0.0,0.0,0.0,0.0,0.0,0.0,0.0,0.0,0.0,0.0,0.0,0.0,0.0,0,0,0,1,1,,125
0.101275492,0,1735643777088230371,map,0.9778862619051428,-0.2207727416613658,0.0230698907060437,-0.4856474266495595,0.4925919555531304,-0.5106029511214111,0.5106705088597826,0.0,0.0,0.0,1,,0,1735643777088253974,map,0.9918720373503946,-0.2534993563852364,0.1474908035093067,-0.4942457984917823,0.5025271498023688,-0.5009241505192915,0.5022574537139834,0.0,0.0,0.0,16,,0,1735643777088270664,map,0.9757516009554376,0.0523125598086082,0.0292897535071041,-0.4635501410143591,0.4850110678400334,-0.5228195304446736,0.5258757167086626,0.0,0.0,0.0,17,,0,1735643777088284730,map,1.0148983537803822,-0.261715724084407,0.2369077761104856,-0.4837457400931239,0.5057204932933111,-0.5013647287879969,0.5087929346328075,0.0,0.0,0.0,121,,0,1735643777088297367,map,1.01453910075243,0.2054387969201553,0.2416181910554397,0.5286731465932518,-0.4905078059426659,0.4815136054739865,-0.498047632384639,0.0,0.0,0.0,122,,0,1735643777088310956,map,1.0020441700913247,0.2003445348999232,0.1445248813571245,-0.4623368369236868,0.4865381933687118,-0.5021925736181091,0.5452777774856871,0.0,0.0,0.0,124,,0,1735643777088322877,map,1.005782747514241,-0.0300256799604722,0.2417940395605579,0.4924567392729418,-0.5063782199956901,0.5064754948658451,-0.4945200009696837,0.0,0.0,0.0,125,,0,1735643777088343858,map,0.9980316073818268,-0.0253082554962306,0.1457111757796275,-0.4601605107634519,0.4788620105634447,-0.5445437567751503,0.5122651424118767,0.0,0.0,0.0,126,,0,1735644242188269615,map,0.9761455105370156,0.3297980894732922,0.0253971782552419,-0.4991476548748766,0.4905040773035369,-0.4850649193273904,0.5243752404713912,0.0,0.0,0.0,0,,0.913639791598725,0.1017529806488865,0.4781342227618265,1.0,3.425279374616157e-06,1.533152028419355e-05,-5.4606143403074766e-05,0.0,0.0,0.0,1.533152028419355e-05,6.862374963238698e-05,-0.0002444166164751,0.0,0.0,0.0,-5.4606143403074766e-05,-0.0002444166164751,0.000870536552275,0.0,0.0,0.0,0.0,0.0,0.0,0.0,0.0,0.0,0.0,0.0,0.0,0.0,0.0,0.0,0.0,0.0,0.0,0.0,0.0,0.0,0,0,0,1,2,,125
0.199283881,0,1735643777088230371,map,0.9851123347497244,-0.2227197313252828,0.0217659496198192,-0.4967946781326752,0.5144057602633261,-0.4859411405929837,0.5024370303492283,0.0,0.0,0.0,1,0.0,0,1735643777088253974,map,0.9951369739385711,-0.2545690295324145,0.14783751164815,-0.4945271782280562,0.4981517615231338,-0.5044138913313044,0.5028462177616603,0.0,0.0,0.0,16,0.0,0,1735643777088270664,map,0.9980752931347368,0.0553385273204179,0.0231749807007671,-0.5101684626234734,0.5031175379190599,-0.4842251951520293,0.5021223388404906,0.0,0.0,0.0,17,0.0,0,1735643777088284730,map,1.0097703735288488,-0.2599829354064948,0.2375074023378724,-0.4990558353693489,0.4857306767073678,-0.4946758123892625,0.5199084761053887,0.0,0.0,0.0,121,0.0,0,1735643777088297367,map,1.007984578223952,0.2030379425970771,0.2421736353987698,-0.5079498463080611,0.4962614492772498,-0.4921596154749633,0.5034783416318895,0.0,0.0,0.0,122,0.9703703703703703,0,1735643777088310956,map,1.0003417874846037,0.1996744198134384,0.1452747132929414,-0.4611579223963603,0.4947147170628085,-0.5045815507202253,0.536645299993684,0.0,0.0,0.0,124,0.02962962962962963,0,1735643777088322877,map,1.0095521269583636,-0.0294402137441536,0.24245907304904,-0.5303820810489293,0.498679784403178,-0.4589532921389274,0.5092889124697766,0.0,0.0,0.0,125,0.0,0,1735643777088343858,map,0.9998114544662569,-0.0246532743415446,0.1463280338691509,0.6080804036853964,-0.5345094599229554,0.3895811639949649,-0.4390494010552847,0.0,0.0,0.0,126,0.0,0,1735644242188269615,map,0.9726526787522598,0.3280296580476756,0.027457766037912,-0.4918469989132463,0.4967158532980212,-0.4867078992115788,0.5239039144609476,0.0,0.0,0.0,0,0.0,0.9124441815420532,0.1031905015885011,0.4957573263050054,1.0,5.142486398306889e-06,6.783584538636668e-06,-7.854481525403591e-05,0.0,0.0,0.0,6.783584538636668e-06,4.988209932525228e-05,-0.0001122772502548,0.0,0.0,0.0,-7.854481525403591e-05,-0.0001122772502548,0.0012015052585039,0.0,0.0,0.0,0.0,0.0,0.0,0.0,0.0,0.0,0.0,0.0,0.0,0.0,0.0,0.0,0.0,0.0,0.0,0.0,0.0,0.0,0,0,0,1,3,,125
0.29970629,0,1735643777088230371,map,0.985145155026904,-0.222501997673772,0.0224017381686262,-0.4859687070248837,0.4990918425671904,-0.5013478131066602,0.5132174186138067,0.0,0.0,0.0,1,5.6453395273947346e-27,0,1735643777088253974,map,0.9876904888283968,-0.2517324277586511,0.1496211993034874,-0.5106398383232189,0.4930933235733358,-0.4837496598939919,0.51194940796634,0.0,0.0,0.0,16,1.8980560797254626e-12,0,1735643777088270664,map,0.9777676065550798,0.0527143442276327,0.0303929765023635,-0.4567229043495369,0.5021914880247534,-0.53126515877051,0.5069173789431105,0.0,0.0,0.0,17,2.5360299760521237e-34,0,1735643777088284730,map,1.0133150536512443,-0.2610586864610419,0.2380785355824323,-0.4813710660102532,0.4793940744981158,-0.5118264970712937,0.5258296825398666,0.0,0.0,0.0,121,6.946667842520152e-07,0,1735643777088297367,map,1.0123342636391064,0.204284584151501,0.2428739184055711,-0.4946036525796741,0.4923790498473158,-0.5057103890190039,0.5071361755628836,0.0,0.0,0.0,122,9.40354079599374e-12,0,1735643777088310956,map,1.0136507426368595,0.2042166439863905,0.1442558797013537,-0.5040153467508648,0.4990416005959925,-0.465299893136935,0.529548884014453,0.0,0.0,0.0,124,7.707300580147518e-27,0,1735643777088322877,map,0.9983511541003004,-0.0297712972120613,0.2429209018058774,-0.5212044007870481,0.5813333519110363,-0.4599058884095779,0.4229469001686737,0.0,0.0,0.0,125,0.9999993052973248,0,1735643777088343858,map,0.9935652857806936,-0.0250444604379646,0.1472222163584887,-0.4686620568358642,0.4609969647651704,-0.5289995494788967,0.5366536607634409,0.0,0.0,0.0,126,2.4589309731875975e-11,0,1735644242188269615,map,0.9827006970007832,0.3333642087011053,0.025082631352529,-0.5012628245930032,0.4905686405141815,-0.472931176398188,0.5333048771722779,0.0,0.0,0.0,0,0.0,0.9135429786582728,0.0786923760462272,0.4844684384159415,1.0,7.478930106568256e-06,-7.566772069193775e-05,-9.612120381401914e-05,0.0,0.0,0.0,-7.566772069193775e-05,0.0018378860397489,0.0007454618405257,0.0,0.0,0.0,-9.612120381401914e-05,0.0007454618405257,0.0012834459131934,0.0,0.0,0.0,0.0,0.0,0.0,0.0,0.0,0.0,0.0,0.0,0.0,0.0,0.0,0.0,0.0,0.0,0.0,0.0,0.0,0.0,0,0,0,1,4,,125
0.399355636,0,1735643777088230371,map,0.9746749443968916,-0.2201270814627411,0.0253214575668328,-0.4951299055958019,0.4871862757468505,-0.4908304975028076,0.5259100037361464,0.0,0.0,0.0,1,7.606851373622998e-30,0,1735643777088253974,map,0.9913702753318832,-0.2540695534557363,0.1482153618391131,-0.5008727756109196,0.5106478886673117,-0.4976790331603916,0.4905922710397795,0.0,0.0,0.0,16,2.1938003007926637e-09,0,1735643777088270664,map,0.9892827305734136,0.0538039689679707,0.025818314771662,-0.4871239700278321,0.4909985561271738,-0.504375508954961,0.5169487418224165,0.0,0.0,0.0,17,0.0,0,1735643777088284730,map,1.009139095736005,-0.260553629865894,0.2371140455140213,-0.5166471346224749,0.5363489133232651,-0.4544494215628899,0.488754851336019,0.0,0.0,0.0,121,0.9994851769575096,0,1735643777088297367,map,1.002446379463657,0.2008893148388348,0.2416558041251318,-0.4820412702948832,0.481262138143198,-0.5226948099637826,0.5126530052182067,0.0,0.0,0.0,122,5.489545057727941e-16,0,1735643777088310956,map,1.010659437170783,0.2030846996280133,0.1436305239593854,-0.4925658682310105,0.5042519068582428,-0.472699780954657,0.5288324847899162,0.0,0.0,0.0,124,1.8274449852991426e-34,0,1735643777088322877,map,1.0010381722832693,-0.0305340313306263,0.2433026103233399,-0.4367623716320337,0.4364910877272758,-0.5548856717679941,0.5575087912558893,0.0,0.0,0.0,125,0.0005148208486895404,0,1735643777088343858,map,1.0118990133284824,-0.0251763282379511,0.1454295094884442,-0.5218831400182815,0.5794748514583423,-0.4734662820437426,0.4094832895975926,0.0,0.0,0.0,126,3.813050811016978e-18,0,1735644242188269615,map,0.98534087814115,0.3348964250408002,0.0233593879807864,-0.5175517824751689,0.4984945281936855,-0.4707063519729795,0.5119364101429207,0.0,0.0,0.0,0,0.0,0.9146594298208862,0.0475738099605223,0.4743165674780855,1.0,1.0968996879257034e-05,-0.0001995036136945,-0.0001222332354962,0.0,0.0,0.0,-0.0001995036136945,0.0053437694527207,0.0018600161391134,0.0,0.0,0.0,-0.0001222332354962,0.0018600161391134,0.0014389986647103,0.0,0.0,0.0,0.0,0.0,0.0,0.0,0.0,0.0,0.0,0.0,0.0,0.0,0.0,0.0,0.0,0.0,0.0,0.0,0.0,0.0,0,0,0,1,5,,125
0.499487465,0,1735643777088230371,map,0.9821768312142828,-0.222698763375215,0.0238725802970699,-0.4344718824271442,0.8013328740737365,-0.3589623312067522,0.2006136911667624,0.0,0.0,0.0,1,2.7647992929537235e-32,0,1735643777088253974,map,0.9944657035092732,-0.2556126681963742,0.1480708309445119,-0.4910139823423322,0.4992374834056103,-0.5080196355671035,0.501580755397797,0.0,0.0,0.0,16,1.3489747090269077e-09,0,1735643777088270664,map,0.9912699551640844,0.0534280807211936,0.025578521275558,-0.484659083623809,0.4988546213542528,-0.5006367252742719,0.5153760847391817,0.0,0.0,0.0,17,0.0,0,1735643777088284730,map,1.0190791536101624,-0.2649600794816336,0.2372770177133872,-0.4819046842904373,0.5270314784340293,-0.4933530224884552,0.4965969101797567,0.0,0.0,0.0,121,0.9999995956065685,0,1735643777088297367,map,1.006862422954554,0.2019548972090378,0.2421472229020156,-0.4891227005982618,0.5111071091316036,-0.5094953046162812,0.4898398119064653,0.0,0.0,0.0,122,6.485572684759471e-23,0,1735643777088310956,map,1.0067694152094817,0.2010184191615197,0.1445452910114701,-0.4748610565514309,0.4959910354089348,-0.4911471578289515,0.5359797935756301,0.0,0.0,0.0,124,0.0,0,1735643777088322877,map,1.0047832122688367,-0.0314514487860357,0.2431262813851437,0.5456827005485109,-0.5057240160121492,0.4514461494013121,-0.492615452601069,0.0,0.0,0.0,125,4.030444567660541e-07,0,1735643777088343858,map,0.9894900491351049,-0.0262080079597443,0.147850095705118,0.4470737404887037,-0.4952394934944659,0.5698797456890671,-0.4796873878914771,0.0,0.0,0.0,126,4.530177156679411e-22,0,1735644242188269615,map,0.9818732246681616,0.3321132162003931,0.025325053575628,-0.5040590737599769,0.490050028982525,-0.4824303367991789,0.5225288407258414,0.0,0.0,0.0,0,0.0,0.9158362417467654,0.0223495468241629,0.4620116368817312,1.0,1.606526227717122e-05,-0.000314674079814,-0.0001742639749447,0.0,0.0,0.0,-0.000314674079814,0.007634458464462,0.0031019274854466,0.0,0.0,0.0,-0.0001742639749447,0.0031019274854466,0.0019562221388307,0.0,0.0,0.0,0.0,0.0,0.0,0.0,0.0,0.0,0.0,0.0,0.0,0.0,0.0,0.0,0.0,0.0,0.0,0.0,0.0,0.0,0,0,0,1,6,,125
0.599186943,0,1735643777088230371,map,0.9795079331948636,-0.222165802743246,0.0255177715076892,-0.4815278881138472,0.4827596452162637,-0.5078138092386845,0.5264970589336502,0.0,0.0,0.0,1,7.952865015986052e-33,0,1735643777088253974,map,0.9786866894321732,-0.2501423800802468,0.1515899570142814,-0.4828171719032313,0.4768535255895317,-0.5100899076376236,0.5284946355209681,0.0,0.0,0.0,16,7.13114913076145e-10,0,1735643777088270664,map,0.9936763378743434,0.0535009554623692,0.0255069066425808,-0.4889452642318768,0.4910758750268265,-0.4902878276076917,0.528578149048547,0.0,0.0,0.0,17,0.0,0,1735643777088284730,map,1.017912837692028,-0.2649606430932588,0.2380218306064117,-0.4959478098227258,0.5241778232750635,-0.4828122435467691,0.496150901440271,0.0,0.0,0.0,121,0.9999975395655362,0,1735643777088297367,map,1.0114163061712296,0.2035449243550705,0.2432389299242991,-0.4873014233987243,0.4890705605734769,-0.5134489903598383,0.5096248069240603,0.0,0.0,0.0,122,9.04164528526174e-20,0,1735643777088310956,map,1.0085036310738371,0.2020168945941201,0.1450001298754833,-0.4857810198598059,0.5010120775463721,-0.4817055359587863,0.530059879186582,0.0,0.0,0.0,124,0.0,0,1735643777088322877,map,0.9999568011132776,-0.0310104633900356,0.2435424080736592,0.5555413338933569,-0.5539473666973639,0.4370190920336209,-0.4399209638823271,0.0,0.0,0.0,125,2.459721348971741e-06,0,1735643777088343858,map,0.9962856606537808,-0.0264455672487415,0.1471613613492394,-0.4745424897611431,0.4703903040027952,-0.5237921211971716,0.5283788423879421,0.0,0.0,0.0,126,3.13807990833688e-21,0,1735644242188269615,map,0.9809600913757028,0.331960452128694,0.0264949964751471,-0.4986748947732803,0.4990605431383946,-0.4848077785195421,0.5169364965759491,0.0,0.0,0.0,0,0.0,0.916075641657532,0.0082703489097187,0.4614029292728311,1.0,1.4114098712654706e-05,-0.0002899439921868,-0.0001502434686647,0.0,0.0,0.0,-0.0002899439921868,0.007733164424452,0.002710215676912,0.0,0.0,0.0,-0.0001502434686647,0.002710215676912,0.0016789849830023,0.0,0.0,0.0,0.0,0.0,0.0,0.0,0.0,0.0,0.0,0.0,0.0,0.0,0.0,0.0,0.0,0.0,0.0,0.0,0.0,0.0,0,0,0,1,7,,125
0.699824109,0,1735643777088230371,map,0.9877246786490912,-0.2247554515104744,0.0218853969368305,-0.4746786336609215,0.4958597370637373,-0.5238276298378395,0.504388669701604,0.0,0.0,0.0,1,7.944562310803912e-20,0,1735643777088253974,map,0.9935420460132748,-0.2557281584203776,0.1490238747194658,-0.4889465983165995,0.4991966242567043,-0.5094125447819855,0.5022278502274425,0.0,0.0,0.0,16,1.8147379672163662e-06,0,1735643777088270664,map,0.981906135368214,0.0528073927897665,0.0301780205915922,-0.4789304680621682,0.4698205074032177,-0.5062731736372454,0.5418318662098117,0.0,0.0,0.0,17,3.8962945063249705e-28,0,1735643777088284730,map,1.0213139284910373,-0.2663705415179201,0.2377587778470719,-0.4789952216480392,0.5017111850946252,-0.5149446031384985,0.5036680653841646,0.0,0.0,0.0,121,0.968925143196184,0,1735643777088297367,map,1.019830833154861,0.2082221110007255,0.2426359899426977,-0.5000628647700424,0.4652828661545672,-0.4935577623864792,0.5383769320179139,0.0,0.0,0.0,122,1.5712377225059383e-09,0,1735643777088310956,map,1.0116892303957985,0.204610600739598,0.1441897987480317,-0.4850365539733532,0.4932647025230954,-0.478099138141399,0.5411568059840954,0.0,0.0,0.0,124,4.0949195662745137e-20,0,1735643777088322877,map,0.9934549456886396,-0.0307134380002023,0.2440969808497751,0.5702642553286237,-0.5492896630683456,0.4242215623906623,-0.43944921338373,0.0,0.0,0.0,125,0.031073040430106776,0,1735643777088343858,map,1.0025986228824908,-0.0257276948755896,0.1459416296856324,-0.4762486569461754,0.4639302677304476,-0.5219025223213367,0.5343909436312952,0.0,0.0,0.0,126,6.450432211470759e-11,0,1735644242188269615,map,0.978732036189658,0.331753383635344,0.0274305027182584,-0.4887317116759641,0.488153870954328,-0.48885226604947,0.5327950583975848,0.0,0.0,0.0,0,0.0,0.9156115967231642,0.0024775107052107,0.4695875116222383,1.0,1.3857200281360632e-05,-0.0002348840325926,-0.0001580491329357,0.0,0.0,0.0,-0.0002348840325926,0.0070014176926407,0.0020395549880469,0.0,0.0,0.0,-0.0001580491329357,0.0020395549880469,0.0019380235777666,0.0,0.0,0.0,0.0,0.0,0.0,0.0,0.0,0.0,0.0,0.0,0.0,0.0,0.0,0.0,0.0,0.0,0.0,0.0,0.0,0.0,0,0,0,1,8,,125
0.798865573,0,1735643777088230371,map,0.9818921806753004,-0.2235732426180887,0.0213757510649758,-0.4821541788959511,0.4960427931688466,-0.5172242784028551,0.5039324765770372,0.0,0.0,0.0,1,3.604894430772494e-22,0,1735643777088253974,map,0.9983183404457524,-0.2583125188827509,0.1457904556981451,-0.4880790860206281,0.5250155639138485,-0.5089400659438779,0.4765684344504297,0.0,0.0,0.0,16,2.1924405485345302e-07,0,1735643777088270664,map,0.9836827717665148,0.0534965848232768,0.0264007069058207,-0.4774436198188356,0.4871148292733103,-0.5099264667607114,0.5241581168819752,0.0,0.0,0.0,17,3.7265883402200244e-32,0,1735643777088284730,map,1.0163356152195036,-0.2654850599116409,0.235715552840815,-0.4731123134107342,0.5038122136310335,-0.5120211038396796,0.5100709573364648,0.0,0.0,0.0,121,0.9800314869017764,0,1735643777088297367,map,1.0123755663875742,0.2062200854629144,0.2423571346308865,-0.5114180027959134,0.4942156036685913,-0.4876294102422456,0.5063794247138487,0.0,0.0,0.0,122,1.9834705654220164e-10,0,1735643777088310956,map,1.001805270164062,0.2017025252838845,0.1450296048998039,-0.4608657971065565,0.4912406806278189,-0.4994377685921928,0.5448368802286666,0.0,0.0,0.0,124,4.379218055884603e-22,0,1735643777088322877,map,0.9990330044472387,-0.0306441911099877,0.2431920333587656,0.5775384233049025,-0.552032335615264,0.4162642472567061,-0.4340895604566545,0.0,0.0,0.0,125,0.019968293650694285,0,1735643777088343858,map,0.9967306165433136,-0.0253636656973158,0.1463702702868517,-0.462734352773634,0.4570304477471874,-0.5415293257502253,0.532678212383121,0.0,0.0,0.0,126,5.127401288387485e-12,0,1735644242188269615,map,0.9725262127239156,0.3303694242289322,0.0267606236499778,-0.4896847901518688,0.4885247046841594,-0.4867196015129194,0.5335320503121443,0.0,0.0,0.0,0,0.0,0.915606155252606,0.0022762980031911,0.4697117055080164,1.0,1.231774823802414e-05,-0.000208777047605,-0.0001404935245441,0.0,0.0,0.0,-0.000208777047605,0.0062238062858701,0.0018127378520541,0.0,0.0,0.0,-0.0001404935245441,0.0018127378520541,0.0017228110176515,0.0,0.0,0.0,0.0,0.0,0.0,0.0,0.0,0.0,0.0,0.0,0.0,0.0,0.0,0.0,0.0,0.0,0.0,0.0,0.0,0.0,0,0,0,1,9,,125
0.899618488,0,1735643777088230371,map,0.9853669650703916,-0.2248047608623486,0.0193924198809112,-0.4804094595345152,0.5017504533286705,-0.5128754235156011,0.5043927375844359,0.0,0.0,0.0,1,1.951464342913451e-21,0,1735643777088253974,map,0.9866608795940996,-0.2539575842820153,0.1476266178842612,-0.4842805267201053,0.4951379388904929,-0.5155547915220874,0.5044938551157877,0.0,0.0,0.0,16,8.298489749282766e-07,0,1735643777088270664,map,0.9863026479081334,0.0543177787628695,0.0247792268848547,-0.4913251796946061,0.4937585080896755,-0.4909374334557849,0.5232423338367871,0.0,0.0,0.0,17,1.2868086026518692e-31,0,1735643777088284730,map,1.012173855695715,-0.2642792933941846,0.2351731637005045,-0.4954423675178339,0.5220967169135967,-0.4850009118481164,0.4967152042799405,0.0,0.0,0.0,121,0.980910503656929,0,1735643777088297367,map,1.0016233084485195,0.2030650850923476,0.2406610700531817,-0.5117952437379385,0.4941548816664751,-0.4877130526686758,0.505976837087448,0.0,0.0,0.0,122,1.703369698540722e-10,0,1735643777088310956,map,0.9950497613479492,0.2002637950637129,0.1440038516879732,-0.4658437836844132,0.4952161867265734,-0.4988969751366353,0.5374498170118742,0.0,0.0,0.0,124,6.085292826196723e-22,0,1735643777088322877,map,1.002082557977317,-0.0301375988160929,0.2406690356479386,-0.4969280929136777,0.4955598971227272,-0.5018516214766863,0.5055964881781801,0.0,0.0,0.0,125,0.019088666306312747,0,1735643777088343858,map,0.9878882185098252,-0.0254977466449376,0.1459409601363553,-0.4568250440488794,0.4672273078404523,-0.5493450165195138,0.5207970571759006,0.0,0.0,0.0,126,1.7446396268292105e-11,0,1735644242188269615,map,0.9771055647360136,0.334018939233186,0.0241632606145628,-0.504441815315005,0.4848188484667518,-0.4754206772116692,0.5333519652280972,0.0,0.0,0.0,0,0.0,0.9159470407292792,6.853224579710105e-07,0.4650821389066417,1.0,1.213179958808204e-05,-0.0001948808526651,-0.000140647540249,0.0,0.0,0.0,-0.0001948808526651,0.0056480313749375,0.0017262799710282,0.0,0.0,0.0,-0.000140647540249,0.0017262799710282,0.0017434258981354,0.0,0.0,0.0,0.0,0.0,0.0,0.0,0.0,0.0,0.0,0.0,0.0,0.0,0.0,0.0,0.0,0.0,0.0,0.0,0.0,0.0,0,0,0,1,10,,125
0.998077589,0,1735643777088230371,map,0.9816264584697522,-0.2243613362584908,0.0193641194736524,-0.4881172533413641,0.508849061366048,-0.5028147318773503,0.499991525072658,0.0,0.0,0.0,1,2.1781901212866042e-14,0,1735643777088253974,map,0.978626135016046,-0.2515707023899401,0.1479638526073866,-0.4953969918482583,0.4851059751549031,-0.4972786271716511,0.5215054940218605,0.0,0.0,0.0,16,4.163469804763409e-05,0,1735643777088270664,map,0.982106378132636,0.0534847397922399,0.0248450714293829,-0.4826666546430839,0.4948474870673363,-0.5078076858455436,0.5140916447823192,0.0,0.0,0.0,17,4.1297931936392416e-19,0,1735643777088284730,map,1.0106125080322206,-0.264755892495108,0.2337499842788008,-0.4950467974423234,0.521198792839253,-0.4857159480364132,0.4973535005487474,0.0,0.0,0.0,121,0.23117773197861458,0,1735643777088297367,map,1.007214573504661,0.2057267617047445,0.2387681063746781,-0.5098013731168461,0.4956063197611588,-0.4893851232120084,0.5049545890075123,0.0,0.0,0.0,122,2.6926621125078613e-06,0,1735643777088310956,map,0.9990264499496048,0.2019628113846828,0.1413250770846004,-0.4841813404883081,0.4980430781787621,-0.4812770202772927,0.5346905194167731,0.0,0.0,0.0,124,1.6518717196206372e-13,0,1735643777088322877,map,0.9947051209655504,-0.0306256550733695,0.2396721739523407,-0.4613010708631926,0.4616129818711199,-0.5345856077746929,0.5369664840087202,0.0,0.0,0.0,125,0.7687772521321201,0,1735643777088343858,map,0.9984871920497111,-0.0255988702362701,0.141766384618701,0.4787908177605982,-0.5016729540746403,0.5314653964297242,-0.4864443774738867,0.0,0.0,0.0,126,6.885289182023864e-07,0,1735644242188269615,map,0.9692951328396394,0.3293132255814062,0.0259582763003528,-0.4916614570048781,0.4942075372176661,-0.4855023011730947,0.5275560988261995,0.0,0.0,0.0,0,9.114827468080542e-32,0.9164583846402732,0.0020425477485707,0.4569825208648153,1.0,1.3643634669543977e-05,-0.0001667234723269,-0.000169278303897,0.0,0.0,0.0,-0.0001667234723269,0.0051762659988876,0.0014039623707528,0.0,0.0,0.0,-0.000169278303897,0.0014039623707528,0.0022409707589034,0.0,0.0,0.0,0.0,0.0,0.0,0.0,0.0,0.0,0.0,0.0,0.0,0.0,0.0,0.0,0.0,0.0,0.0,0.0,0.0,0.0,0,0,0,1,11,,125
1.099813424,0,1735643777088230371,map,0.9747991490738112,-0.2214386521777486,0.0225321538465374,-0.4916671487182786,0.4935193288631836,-0.4993653690135773,0.515108061613876,0.0,0.0,0.0,1,1.0318391417919502e-09,0,1735643777088253974,map,0.9851505272865844,-0.2537482118638317,0.1464357704219342,-0.4936120033961417,0.503901971220367,-0.5004167438986956,0.5020090396888321,0.0,0.0,0.0,16,0.00010523062250458845,0,1735643777088270664,map,0.9804894956765569,0.0539263563037431,0.0254443195773736,-0.4862494568242857,0.4965874970470368,-0.497099859331955,0.5194747860741624,0.0,0.0,0.0,17,8.445960273947756e-12,0,1735643777088284730,map,1.0094609133653658,-0.2635725286911664,0.2334399531872767,-0.2999537299147395,0.7019148993536244,-0.5909735380828007,0.2609473342679004,0.0,0.0,0.0,121,0.015589964023955407,0,1735643777088297367,map,1.0058623469887105,0.2065029788375353,0.2383858626849268,-0.4956215533091586,0.4832772302717739,-0.5054285378384841,0.5151158973810765,0.0,0.0,0.0,122,6.70650870343178e-05,0,1735643777088310956,map,0.9916099686479866,0.2000346752746752,0.1427380623084916,-0.4747445363961457,0.5039121944356787,-0.4926126595412721,0.5272787622507681,0.0,0.0,0.0,124,4.922047420706802e-09,0,1735643777088322877,map,0.9868145164398164,-0.0299457279243273,0.2403241606345485,-0.4542553501087902,0.4832652217853517,-0.5432612838352802,0.5147562333725919,0.0,0.0,0.0,125,0.9840274598028127,0,1735643777088343858,map,0.9984709047084644,-0.0251030444858076,0.1412556025544695,-0.5032713105444551,0.4888388573974879,-0.4967007237106065,0.5109236249641869,0.0,0.0,0.0,126,0.000210274501360459,0,1735644242188269615,map,0.9749220962305803,0.3340539557578232,0.0229821468708713,-0.4987082544022599,0.4920811684038602,-0.4801200215696644,0.5278550611496372,0.0,0.0,0.0,0,3.455575205842809e-22,0.917178829933936,0.0019674193335037,0.4461957762283022,1.0,1.8216120746519127e-05,-0.0001534252346766,-0.0002406556320527,0.0,0.0,0.0,-0.0001534252346766,0.0047449725860465,0.0012958798078344,0.0,0.0,0.0,-0.0002406556320527,0.0012958798078344,0.0033341156540482,0.0,0.0,0.0,0.0,0.0,0.0,0.0,0.0,0.0,0.0,0.0,0.0,0.0,0.0,0.0,0.0,0.0,0.0,0.0,0.0,0.0,0,0,0,1,12,,125
1.200425522,0,1735643777088230371,map,0.9778035530558488,-0.2240856947309565,0.0184858941647782,-0.4860613224562061,0.4993071227789952,-0.5073946424712057,0.5069393107126356,0.0,0.0,0.0,1,8.031691004389373e-07,0,1735643777088253974,map,0.9787841327159952,-0.2530404598503283,0.1462970747238927,-0.4963287286959952,0.4915891921633403,-0.4960616435140665,0.5156749994457115,0.0,0.0,0.0,16,0.0002443579003870713,0,1735643777088270664,map,0.9771045777849208,0.05308930734309,0.0245752573296747,-0.4936157670314859,0.4885146778864982,-0.490041029642273,0.5268364768070913,0.0,0.0,0.0,17,7.590486921785796e-07,0,1735643777088284730,map,1.00421903010171,-0.2627107690787439,0.2333246336347486,-0.4852611698091263,0.4901223116586609,-0.5043837877476798,0.5195177680764668,0.0,0.0,0.0,121,0.00232606318942739,0,1735643777088297367,map,1.0020917334705288,0.2042354651919802,0.2383264347482268,0.5152787608051166,-0.5067150780529825,0.4923589955941196,-0.485087876363091,0.0,0.0,0.0,122,0.0005365491654499005,0,1735643777088310956,map,0.9938422564391424,0.2003623131863446,0.1417109538439904,-0.4794022256610467,0.4981835067368175,-0.4886257248031163,0.5321950776804237,0.0,0.0,0.0,124,2.53397842946909e-06,0,1735643777088322877,map,0.99566304805286,-0.0304216988112893,0.2392614880283956,-0.5133013416075446,0.501933195436369,-0.4841574278868053,0.5001763539442505,0.0,0.0,0.0,125,0.9832529528656246,0,1735643777088343858,map,0.9862395895131189,-0.0258892637304784,0.1438962154270547,-0.4724935279260117,0.4792735280818903,-0.5363172396935625,0.5093236395018865,0.0,0.0,0.0,126,0.013635980682881441,0,1735644242188269615,map,0.9611810616300738,0.3257399438550524,0.027409594716075,-0.4871594475259858,0.4959799369973416,-0.4909386050123981,0.5250322474770185,0.0,0.0,0.0,0,7.46318953516483e-15,0.9181514697261977,0.0014633817172895,0.4317183359844513,1.0,2.816721867498248e-05,-0.0001475062580555,-0.0003911196740115,0.0,0.0,0.0,-0.0001475062580555,0.0043830233418349,0.001283762839326,0.0,0.0,0.0,-0.0003911196740115,0.001283762839326,0.0055928005312927,0.0,0.0,0.0,0.0,0.0,0.0,0.0,0.0,0.0,0.0,0.0,0.0,0.0,0.0,0.0,0.0,0.0,0.0,0.0,0.0,0.0,0,0,0,1,13,,125
1.29913605,0,1735643777088230371,map,0.9777714064489992,-0.2240052350929642,0.0182082482993422,-0.4894833011636683,0.5092462465534214,-0.5024902942076113,0.4985758342321836,0.0,0.0,0.0,1,8.431282921689045e-06,0,1735643777088253974,map,0.9782040506873588,-0.2526779129475445,0.1460463484642732,-0.5017803332292,0.497302309082923,-0.4903802202228476,0.510327493066342,0.0,0.0,0.0,16,0.000236959481998993,0,1735643777088270664,map,0.9800065969967184,0.0537625453552306,0.0229801805382909,-0.4996158249354344,0.492056956764986,-0.4880242972594933,0.5197078641483535,0.0,0.0,0.0,17,3.5487189648753e-05,0,1735643777088284730,map,0.99783952469049,-0.2616278763007569,0.2323485744658446,-0.4910951977229304,0.491348575956469,-0.4950832557599307,0.5218186021455856,0.0,0.0,0.0,121,0.0008300671958796168,0,1735643777088297367,map,0.9968750300938536,0.2031788266066107,0.2369031214861517,-0.495895449963365,0.4814967568776966,-0.5005711610491853,0.5212265232581342,0.0,0.0,0.0,122,0.0007417385906620506,0,1735643777088310956,map,0.990682585027464,0.2004199162411485,0.1403162206294972,-0.4841694793713352,0.5068212380594836,-0.488778490524583,0.5194302023348778,0.0,0.0,0.0,124,1.5633925778547116e-05,0,1735643777088322877,map,0.9885808642099534,-0.0305264248126258,0.238386833965489,-0.4954250965728462,0.5760712652865214,-0.4917212075352157,0.4253306067720517,0.0,0.0,0.0,125,0.9523609516859263,0,1735643777088343858,map,0.9874210381137436,-0.0261450618603589,0.1413923403937952,-0.4944622058101813,0.4863508613058517,-0.5057939067200717,0.5129741617832553,0.0,0.0,0.0,126,0.04577073064696766,0,1735644242188269615,map,0.9702028272691344,0.3323738445694951,0.0224641452659716,-0.504095432845197,0.4951371264652751,-0.4788079857021436,0.521027766446453,0.0,0.0,0.0,0,2.1642772675803645e-13,0.9190529497496858,0.0007923960289995,0.4183432419050826,1.0,3.671993550963636e-05,-0.0001448335392884,-0.0005199284960619,0.0,0.0,0.0,-0.0001448335392884,0.0040758031293101,0.0013087339508481,0.0,0.0,0.0,-0.0005199284960619,0.0013087339508481,0.007518925620273,0.0,0.0,0.0,0.0,0.0,0.0,0.0,0.0,0.0,0.0,0.0,0.0,0.0,0.0,0.0,0.0,0.0,0.0,0.0,0.0,0.0,0,0,0,1,14,,125
1.399576784,0,1735643777088230371,map,0.9750836893936016,-0.2236016941674075,0.0202757831740377,-0.4906007085004623,0.4986085513994495,-0.50347390240278,0.5071631758019336,0.0,0.0,0.0,1,5.836407760103419e-05,0,1735643777088253974,map,0.976369855239583,-0.2525861741930045,0.1472925261712188,-0.5017600966690485,0.4956517520766247,-0.4898665657542014,0.5124420882501987,0.0,0.0,0.0,16,0.0005833724276717077,0,1735643777088270664,map,0.97558067746532,0.0526116241638932,0.0257952162335481,-0.4834265089430868,0.5007517727567822,-0.5075062781377075,0.5079211062584934,0.0,0.0,0.0,17,6.692457476583516e-05,0,1735643777088284730,map,0.9976116482845536,-0.2624718940636261,0.2331584393526697,-0.49660419949571,0.5013188469311628,-0.4876979672990169,0.5140178746378783,0.0,0.0,0.0,121,0.0010338900613948382,0,1735643777088297367,map,0.9953263185828712,0.2027533196386497,0.2378973492290469,-0.4950938832722926,0.4944870373971503,-0.5045234078595133,0.5057872551917205,0.0,0.0,0.0,122,0.000281845748210965,0,1735643777088310956,map,0.9911178998594042,0.2005636998587253,0.1408973574381606,-0.4863878907301437,0.5065703375785428,-0.4801964129286596,0.5255708495027969,0.0,0.0,0.0,124,6.235871817884938e-06,0,1735643777088322877,map,0.9860794517867376,-0.0312731291923444,0.2394513759277569,0.5889284571598782,-0.530631428252072,0.3988539712991075,-0.4609870597721617,0.0,0.0,0.0,125,0.932476941368171,0,1735643777088343858,map,0.9864454005205502,-0.0262141064710686,0.1423528748350713,-0.4890117894314095,0.4913614317155038,-0.5135291707811417,0.5056868635592725,0.0,0.0,0.0,126,0.06549242587033641,0,1735644242188269615,map,0.9702028272691344,0.3323738445694951,0.0224641452659716,-0.504095432845197,0.4951371264652751,-0.4788079857021436,0.521027766446453,0.0,0.0,0.0,0,3.027148951584328e-14,0.9198055046092032,-0.0034997751894491,0.4079678969926157,1.0,4.22006832411579e-05,-0.000180399290319,-0.0005945788235871,0.0,0.0,0.0,-0.000180399290319,0.0040620011934481,0.0018449436161983,0.0,0.0,0.0,-0.0005945788235871,0.0018449436161983,0.008524732860992,0.0,0.0,0.0,0.0,0.0,0.0,0.0,0.0,0.0,0.0,0.0,0.0,0.0,0.0,0.0,0.0,0.0,0.0,0.0,0.0,0.0,0,0,0,1,15,,125
1.498056104,0,1735643777088230371,map,0.9750836893936016,-0.2236016941674075,0.0202757831740377,-0.4906007085004623,0.4986085513994495,-0.50347390240278,0.5071631758019336,0.0,0.0,0.0,1,9.439160091193841e-05,0,1735643777088253974,map,0.9739495045189566,-0.2535602026746417,0.1476690015560104,-0.4999291648842474,0.4900470963675091,-0.4999847801773934,0.5098430082200562,0.0,0.0,0.0,16,0.0008197256213388826,0,1735643777088270664,map,0.9764137488164528,0.0525818881705047,0.0248555955891298,-0.4913681644546149,0.4876084096038062,-0.4902454986128962,0.5295797550265143,0.0,0.0,0.0,17,3.77275447043694e-05,0,1735643777088284730,map,0.994201111502792,-0.2633411819364494,0.2335318195971611,-0.4852480905570582,0.4937108984991498,-0.5010620518118236,0.5193463772358649,0.0,0.0,0.0,121,0.0012380657626889634,0,1735643777088297367,map,0.9907265134333444,0.2014653989773156,0.2390654442502592,-0.4953909338561087,0.4957231893257009,-0.5042903930465932,0.5045171371706231,0.0,0.0,0.0,122,0.0001495751397997003,0,1735643777088310956,map,0.9880152005378432,0.1998574927613597,0.1413935890498832,-0.4821052310029909,0.5054907335713084,-0.4840212644886772,0.5270456147582254,0.0,0.0,0.0,124,2.47203983446847e-06,0,1735643777088322877,map,0.9822481767486412,-0.0323645910957854,0.2397013598686564,-0.51590911831296,0.4729795383794845,-0.4737065128221203,0.5345374426789773,0.0,0.0,0.0,125,0.9354179750360943,0,1735643777088343858,map,0.9855246830994524,-0.026985106608686,0.1422086833725371,-0.4889153180608209,0.4852572640389438,-0.5195738773184357,0.5054999361733027,0.0,0.0,0.0,126,0.06224006725462444,0,1735644242188269615,map,0.9702028272691344,0.3323738445694951,0.0224641452659716,-0.504095432845197,0.4951371264652751,-0.4788079857021436,0.521027766446453,0.0,0.0,0.0,0,3.0222356015772418e-15,0.9202316784175976,-0.007393675602355,0.4024021181862733,1.0,4.228750226300716e-05,-0.0001940165102012,-0.0005929974843716,0.0,0.0,0.0,-0.0001940165102012,0.0040355630252421,0.0020547234660683,0.0,0.0,0.0,-0.0005929974843716,0.0020547234660683,0.0084566054629969,0.0,0.0,0.0,0.0,0.0,0.0,0.0,0.0,0.0,0.0,0.0,0.0,0.0,0.0,0.0,0.0,0.0,0.0,0.0,0.0,0.0,0,0,0,1,16,,125
1.59903773,0,1735643777088230371,map,0.9750836893936016,-0.2236016941674075,0.0202757831740377,-0.4906007085004623,0.4986085513994495,-0.50347390240278,0.5071631758019336,0.0,0.0,0.0,1,0.00012224774022352174,0,1735643777088253974,map,0.9800637635867386,-0.2571041986302905,0.1456245066377539,-0.4931138644080337,0.499879401185816,-0.5057573527749597,0.5011674382007975,0.0,0.0,0.0,16,0.0008173053631953264,0,1735643777088270664,map,0.9764137488164528,0.0525818881705047,0.0248555955891298,-0.4913681644546149,0.4876084096038062,-0.4902454986128962,0.5295797550265143,0.0,0.0,0.0,17,2.17478038772576e-05,0,1735643777088284730,map,0.998558475931458,-0.2662295800235306,0.2327365394229544,-0.4834827547049866,0.504727013706211,-0.5010549539021929,0.5103322454128872,0.0,0.0,0.0,121,0.001161394220340317,0,1735643777088297367,map,0.9921155601966491,0.2030636845374841,0.2384651461527281,-0.5088141091820992,0.4958410999384164,-0.4891981264177872,0.5059001868139752,0.0,0.0,0.0,122,6.415207356572123e-05,0,1735643777088310956,map,0.9888671604073372,0.2012831799982796,0.1404222091427689,-0.4756631673364547,0.4970168049778015,-0.4810274112450866,0.5434440876851637,0.0,0.0,0.0,124,8.066407259213774e-07,0,1735643777088322877,map,0.9828596612678132,-0.0321676407521538,0.2396622787032329,-0.4716576113537916,0.4732319145249433,-0.5256626166808885,0.5265638291330821,0.0,0.0,0.0,125,0.9399200156791648,0,1735643777088343858,map,0.9855246830994524,-0.026985106608686,0.1422086833725371,-0.4889153180608209,0.4852572640389438,-0.5195738773184357,0.5054999361733027,0.0,0.0,0.0,126,0.05789233047890685,0,1735644242188269615,map,0.9702028272691344,0.3323738445694951,0.0224641452659716,-0.504095432845197,0.4951371264652751,-0.4788079857021436,0.521027766446453,0.0,0.0,0.0,0,3.217004020536781e-16,0.9205803100136254,-0.0107062501699064,0.3978759563912992,1.0,4.174470596587152e-05,-0.0002010816648422,-0.0005833626875759,0.0,0.0,0.0,-0.0002010816648422,0.0039737473691831,0.0021737493550394,0.0,0.0,0.0,-0.0005833626875759,0.0021737493550394,0.0082869363323291,0.0,0.0,0.0,0.0,0.0,0.0,0.0,0.0,0.0,0.0,0.0,0.0,0.0,0.0,0.0,0.0,0.0,0.0,0.0,0.0,0.0,0,0,0,1,17,,125
1.699318932,0,1735643777088230371,map,0.9750836893936016,-0.2236016941674075,0.0202757831740377,-0.4906007085004623,0.4986085513994495,-0.50347390240278,0.5071631758019336,0.0,0.0,0.0,1,9.341975863546588e-05,0,1735643777088253974,map,0.9665890600065384,-0.252024325272757,0.1487522197708166,-0.4954232227485213,0.4816765625356581,-0.5036914781889883,0.5184963011103294,0.0,0.0,0.0,16,0.000991369109567226,0,1735643777088270664,map,0.9764137488164528,0.0525818881705047,0.0248555955891298,-0.4913681644546149,0.4876084096038062,-0.4902454986128962,0.5295797550265143,0.0,0.0,0.0,17,1.1693251534423832e-05,0,1735643777088284730,map,0.995622222221788,-0.2663517559465145,0.231997727147351,-0.4847152636049197,0.5048612469169333,-0.5016068296307109,0.5084848307056166,0.0,0.0,0.0,121,0.0009816096098495205,0,1735643777088297367,map,0.9885542830298868,0.2023285591139267,0.237607820870102,-0.5078365808084044,0.4974214406426195,-0.4906320689649871,0.5039385780876338,0.0,0.0,0.0,122,3.5938576318485936e-05,0,1735643777088310956,map,0.9844944290613608,0.2002341135473943,0.1401916199048631,-0.4752044059798805,0.4989153931300278,-0.4823303159079052,0.5409451630169172,0.0,0.0,0.0,124,3.711105168075647e-07,0,1735643777088322877,map,0.9804193609094424,-0.0325790039169814,0.2388369969538372,-0.4715829708570596,0.4860834602787829,-0.5264129593172637,0.5140250650541037,0.0,0.0,0.0,125,0.9467434668318239,0,1735643777088343858,map,0.9795968095631428,-0.0272779617739428,0.1418840865637634,-0.4762469836860254,0.4832538997515233,-0.5344398334207575,0.5040124436540235,0.0,0.0,0.0,126,0.051142131751754076,0,1735644242188269615,map,0.9702028272691344,0.3323738445694951,0.0224641452659716,-0.504095432845197,0.4951371264652751,-0.4788079857021436,0.521027766446453,0.0,0.0,0.0,0,3.8248243320133855e-17,0.920722460311064,-0.0124581995418136,0.3961154324538515,1.0,3.976906965448656e-05,-0.0001941441433532,-0.0005552080524003,0.0,0.0,0.0,-0.0001941441433532,0.0038051621786801,0.0021054194316912,0.0,0.0,0.0,-0.0005552080524003,0.0021054194316912,0.0078792415376166,0.0,0.0,0.0,0.0,0.0,0.0,0.0,0.0,0.0,0.0,0.0,0.0,0.0,0.0,0.0,0.0,0.0,0.0,0.0,0.0,0.0,0,0,0,1,18,,125
1.799098123,0,1735643777088230371,map,0.9750836893936016,-0.2236016941674075,0.0202757831740377,-0.4906007085004623,0.4986085513994495,-0.50347390240278,0.5071631758019336,0.0,0.0,0.0,1,5.604634658358674e-05,0,1735643777088253974,map,0.9727251498913908,-0.2552624292269372,0.1469878564605474,-0.4907262597480722,0.4982865164328703,-0.5052183408572193,0.5056211166440155,0.0,0.0,0.0,16,0.0005630198245244506,0,1735643777088270664,map,0.9764137488164528,0.0525818881705047,0.0248555955891298,-0.4913681644546149,0.4876084096038062,-0.4902454986128962,0.5295797550265143,0.0,0.0,0.0,17,6.276741637988715e-06,0,1735643777088284730,map,0.9894782137035868,-0.2639966875800418,0.2332215375223998,-0.4899785093088806,0.501732985717023,-0.4945236375910144,0.5134505266553735,0.0,0.0,0.0,121,0.0008624249903763929,0,1735643777088297367,map,0.9841702611934292,0.2014372421479547,0.2383851497292089,-0.492942044004485,0.4942434485602449,-0.5061292378619869,0.5065222101637807,0.0,0.0,0.0,122,2.3123296575915504e-05,0,1735643777088310956,map,0.9790149533268993,0.198639560348782,0.1420983446587912,-0.4744849105899128,0.5008107905987421,-0.4870940925695337,0.5355296132112661,0.0,0.0,0.0,124,2.2118807477892968e-07,0,1735643777088322877,map,0.9783683304111296,-0.0324925048251755,0.2393879527079088,-0.4801806604355173,0.4801826921089634,-0.5174435417138632,0.5206758076589619,0.0,0.0,0.0,125,0.953315178622585,0,1735643777088343858,map,0.976436246370716,-0.027107658421274,0.1431294462027278,-0.4887581952984596,0.480531328871884,-0.5145228531822114,0.5152390727171716,0.0,0.0,0.0,126,0.04517370898964189,0,1735644242188269615,map,0.9702028272691344,0.3323738445694951,0.0224641452659716,-0.504095432845197,0.4951371264652751,-0.4788079857021436,0.521027766446453,0.0,0.0,0.0,0,5.535668222554785e-18,0.9206679591527768,-0.0132189313292295,0.3970937129069181,1.0,3.772942749788676e-05,-0.000183179736801,-0.000526946289479,0.0,0.0,0.0,-0.000183179736801,0.0036153073164083,0.001981212119977,0.0,0.0,0.0,-0.000526946289479,0.001981212119977,0.0074817712021915,0.0,0.0,0.0,0.0,0.0,0.0,0.0,0.0,0.0,0.0,0.0,0.0,0.0,0.0,0.0,0.0,0.0,0.0,0.0,0.0,0.0,0,0,0,1,19,,125
1.899410353,0,1735643777088230371,map,0.9750836893936016,-0.2236016941674075,0.0202757831740377,-0.4906007085004623,0.4986085513994495,-0.50347390240278,0.5071631758019336,0.0,0.0,0.0,1,3.2371579171168455e-05,0,1735643777088253974,map,0.9689630233794772,-0.2548144663353749,0.1468358844121879,-0.4989555039795929,0.5061706750970303,-0.4939620690179988,0.5008354291498802,0.0,0.0,0.0,16,0.00037724092533579815,0,1735643777088270664,map,0.9764137488164528,0.0525818881705047,0.0248555955891298,-0.4913681644546149,0.4876084096038062,-0.4902454986128962,0.5295797550265143,0.0,0.0,0.0,17,3.380618655396717e-06,0,1735643777088284730,map,0.9891700952690762,-0.2653528261080671,0.2320558631525652,-0.4858665852155835,0.5144700616820301,-0.4939431658885894,0.5052468365816787,0.0,0.0,0.0,121,0.0005164664880902191,0,1735643777088297367,map,0.9872180885930516,0.2047894532160731,0.2368245456696644,-0.5114214478087226,0.4870259711085659,-0.483970598746277,0.5167458424952817,0.0,0.0,0.0,122,9.441434890848266e-06,0,1735643777088310956,map,0.9773676911614552,0.1997995959772755,0.1408569422954929,-0.4785319489319891,0.4991258093387057,-0.4804999636877711,0.5394445154039333,0.0,0.0,0.0,124,8.59456688312477e-08,0,1735643777088322877,map,0.976239136249736,-0.0317439517230264,0.2405289063134331,-0.4818884601026192,0.4822856601526215,-0.5159887531344295,0.5185939265647576,0.0,0.0,0.0,125,0.9613058523856522,0,1735643777088343858,map,0.9781670473806292,-0.026825610392642,0.1432036766203061,-0.4840704912922918,0.48354951226527,-0.5227140738332869,0.5085524807378959,0.0,0.0,0.0,126,0.03775516062253551,0,1735644242188269615,map,0.9702028272691344,0.3323738445694951,0.0224641452659716,-0.504095432845197,0.4951371264652751,-0.4788079857021436,0.521027766446453,0.0,0.0,0.0,0,7.527899997393957e-19,0.920657202444734,-0.0127307147519566,0.3971516345394444,1.0,3.584515455158284e-05,-0.0001741205304214,-0.0005006108128808,0.0,0.0,0.0,-0.0001741205304214,0.003439070703688,0.0018826888017006,0.0,0.0,0.0,-0.0005006108128808,0.0018826888017006,0.0071077463854767,0.0,0.0,0.0,0.0,0.0,0.0,0.0,0.0,0.0,0.0,0.0,0.0,0.0,0.0,0.0,0.0,0.0,0.0,0.0,0.0,0.0,0,0,0,1,20,,125
1.999196778,0,1735643777088230371,map,0.9750836893936016,-0.2236016941674075,0.0202757831740377,-0.4906007085004623,0.4986085513994495,-0.50347390240278,0.5071631758019336,0.0,0.0,0.0,1,1.8985836285310633e-05,0,1735643777088253974,map,0.968215330909172,-0.254055064455519,0.1466184592914761,-0.4997622751257647,0.5034559930760398,-0.4924538390621733,0.5042409620309174,0.0,0.0,0.0,16,0.00023642600299681742,0,1735643777088270664,map,0.9764137488164528,0.0525818881705047,0.0248555955891298,-0.4913681644546149,0.4876084096038062,-0.4902454986128962,0.5295797550265143,0.0,0.0,0.0,17,4.757890563699568e-06,0,1735643777088284730,map,0.9872600911613478,-0.2643235781523113,0.2316338923666091,-0.4883076208577692,0.5093136003983774,-0.4898237947349687,0.5120819992666237,0.0,0.0,0.0,121,0.0003524778187241511,0,1735643777088297367,map,0.9838523970940088,0.2038533802610624,0.2366171155921514,-0.5066185098376512,0.4883232351326449,-0.4871458862260751,0.5172687783468835,0.0,0.0,0.0,122,1.5139773708507292e-05,0,1735643777088310956,map,0.9769711976129511,0.2003559460253102,0.1401267605368028,-0.4811077750885075,0.5001728230791976,-0.4800286695298865,0.53659568786167,0.0,0.0,0.0,124,1.3428211491551257e-07,0,1735643777088322877,map,0.9736331679505168,-0.0314210933212005,0.2385317237807771,-0.4906940229176841,0.4858538836602189,-0.5057194532182229,0.5171201158742555,0.0,0.0,0.0,125,0.9609649617366669,0,1735643777088343858,map,0.974295638348343,-0.026573299019674,0.1413648801529526,-0.4891697039201823,0.492860338948221,-0.5174031646669409,0.5000956431035171,0.0,0.0,0.0,126,0.03840711665893977,0,1735644242188269615,map,0.9702028272691344,0.3323738445694951,0.0224641452659716,-0.504095432845197,0.4951371264652751,-0.4788079857021436,0.521027766446453,0.0,0.0,0.0,0,2.058231829435054e-18,0.9208116623954138,-0.0110137863273074,0.3944720780033888,1.0,3.4615399957359095e-05,-0.000160525142996,-0.0004850498861516,0.0,0.0,0.0,-0.000160525142996,0.0033342622963912,0.0017010248183564,0.0,0.0,0.0,-0.0004850498861516,0.0017010248183564,0.0069128827364809,0.0,0.0,0.0,0.0,0.0,0.0,0.0,0.0,0.0,0.0,0.0,0.0,0.0,0.0,0.0,0.0,0.0,0.0,0.0,0.0,0.0,0,0,0,1,21,,125
2.099571276,0,1735643777088230371,map,0.9750836893936016,-0.2236016941674075,0.0202757831740377,-0.4906007085004623,0.4986085513994495,-0.50347390240278,0.5071631758019336,0.0,0.0,0.0,1,9.970515866695679e-06,0,1735643777088253974,map,0.9719220507890842,-0.2557495797396688,0.1449099465612305,-0.5008176281793117,0.5042023864067179,-0.4948518934091302,0.5000832535048721,0.0,0.0,0.0,16,9.820967096872087e-05,0,1735643777088270664,map,0.9764137488164528,0.0525818881705047,0.0248555955891298,-0.4913681644546149,0.4876084096038062,-0.4902454986128962,0.5295797550265143,0.0,0.0,0.0,17,2.437952139759549e-05,0,1735643777088284730,map,0.9862663628384576,-0.263963693234178,0.2314426140160464,-0.4967597702134573,0.5119124016710862,-0.4809793433160593,0.5097394383565648,0.0,0.0,0.0,121,0.00020756650327550266,0,1735643777088297367,map,0.98079098958957,0.2032991393226956,0.2369373624117875,-0.5001825083547511,0.4888024974585154,-0.4955418008836457,0.5150998936043965,0.0,0.0,0.0,122,7.669063053059e-05,0,1735643777088310956,map,0.976876134169214,0.20129074578924,0.1397032684567651,-0.4918483264654845,0.5018232218701233,-0.4745038973539781,0.5301931055199383,0.0,0.0,0.0,124,1.2536258153465107e-06,0,1735643777088322877,map,0.972979614733129,-0.0313559473265046,0.2384261309658771,-0.4890668806326679,0.4931726451370158,-0.509341796020443,0.5080996587122059,0.0,0.0,0.0,125,0.9432310158341667,0,1735643777088343858,map,0.9698776213957478,-0.0261875758729213,0.1431757866724378,-0.4916483172535033,0.4827165971881785,-0.5077024698949398,0.5172086822583725,0.0,0.0,0.0,126,0.05635091369797849,0,1735644242188269615,map,0.9702028272691344,0.3323738445694951,0.0224641452659716,-0.504095432845197,0.4951371264652751,-0.4788079857021436,0.521027766446453,0.0,0.0,0.0,0,4.749474096552211e-16,0.921094385244526,-0.0082698558022249,0.3896518505828364,1.0,3.472054908418328e-05,-0.0001369373366149,-0.0004916207210777,0.0,0.0,0.0,-0.0001369373366149,0.0033408171685386,0.0013459517561321,0.0,0.0,0.0,-0.0004916207210777,0.0013459517561321,0.0070865872340164,0.0,0.0,0.0,0.0,0.0,0.0,0.0,0.0,0.0,0.0,0.0,0.0,0.0,0.0,0.0,0.0,0.0,0.0,0.0,0.0,0.0,0,0,0,1,22,,125
2.200120233,0,1735643777088230371,map,0.9750836893936016,-0.2236016941674075,0.0202757831740377,-0.4906007085004623,0.4986085513994495,-0.50347390240278,0.5071631758019336,0.0,0.0,0.0,1,7.200822306123461e-06,0,1735643777088253974,map,0.9677880171674236,-0.2535384373000417,0.1459934703824841,-0.5068624703955801,0.5040105046202461,-0.4829505157798993,0.5057891325887343,0.0,0.0,0.0,16,6.113574973068121e-05,0,1735643777088270664,map,0.9764137488164528,0.0525818881705047,0.0248555955891298,-0.4913681644546149,0.4876084096038062,-0.4902454986128962,0.5295797550265143,0.0,0.0,0.0,17,8.997098619487568e-05,0,1735643777088284730,map,0.9826160513807444,-0.2622972192361837,0.2312857050767843,-0.4980407103638625,0.4994184631670362,-0.4796688025237597,0.5219717323318931,0.0,0.0,0.0,121,0.00012060390716567928,0,1735643777088297367,map,0.9756816184734448,0.2011299332032254,0.2373762897321794,-0.4991899053269324,0.49583142469789,-0.5005023654560437,0.5044383201885578,0.0,0.0,0.0,122,0.00018864319071045963,0,1735643777088310956,map,0.9737347404987275,0.2001179707958708,0.1400011207528698,-0.4862568899064962,0.5015390380951295,-0.477720305601037,0.5327252011136003,0.0,0.0,0.0,124,5.274479929408693e-06,0,1735643777088322877,map,0.9743156252436728,-0.0311157553738705,0.237045766387029,-0.5057870280832435,0.50920284023521,-0.4925288910289426,0.4922471342942645,0.0,0.0,0.0,125,0.926240299833062,0,1735643777088343858,map,0.9708798394291472,-0.0260330706715607,0.1416219712730513,-0.494778151653429,0.4852633178956052,-0.5046141851677343,0.5148578610440643,0.0,0.0,0.0,126,0.07328687103089108,0,1735644242188269615,map,0.9702028272691344,0.3323738445694951,0.0224641452659716,-0.504095432845197,0.4951371264652751,-0.4788079857021436,0.521027766446453,0.0,0.0,0.0,0,9.634829436096177e-15,0.9214504985565144,-0.0067296854948637,0.3839860456184246,1.0,3.600092719502573e-05,-0.0001189170860888,-0.0005146346156789,0.0,0.0,0.0,-0.0001189170860888,0.0032477509888322,0.0010954534139445,0.0,0.0,0.0,-0.0005146346156789,0.0010954534139445,0.0074847043552655,0.0,0.0,0.0,0.0,0.0,0.0,0.0,0.0,0.0,0.0,0.0,0.0,0.0,0.0,0.0,0.0,0.0,0.0,0.0,0.0,0.0,0,0,0,1,23,,125
2.298648015,0,1735643777088230371,map,0.9750836893936016,-0.2236016941674075,0.0202757831740377,-0.4906007085004623,0.4986085513994495,-0.50347390240278,0.5071631758019336,0.0,0.0,0.0,1,5.795769060608635e-06,0,1735643777088253974,map,0.968928651602848,-0.2549543508357741,0.1449618426914707,-0.5047730158928003,0.5037304579007604,-0.485127817138637,0.5060739365427526,0.0,0.0,0.0,16,2.988093989353397e-05,0,1735643777088270664,map,0.9764137488164528,0.0525818881705047,0.0248555955891298,-0.4913681644546149,0.4876084096038062,-0.4902454986128962,0.5295797550265143,0.0,0.0,0.0,17,0.0002399836186721716,0,1735643777088284730,map,0.9825650735203456,-0.2634867684191574,0.2307958324665626,-0.4982460003196254,0.4983416336764475,-0.480100088879122,0.5224083115422689,0.0,0.0,0.0,121,5.596995804693742e-05,0,1735643777088297367,map,0.975688858353756,0.2004829977141365,0.2367278604482174,-0.496304410636451,0.4905731820632911,-0.502677148962004,0.5102308976674508,0.0,0.0,0.0,122,0.00026123945310842336,0,1735643777088310956,map,0.971148574844209,0.1980936868820568,0.1408421189542002,-0.4771408403632099,0.5027922752027458,-0.4862173711297993,0.5320988765873902,0.0,0.0,0.0,124,1.3603214952854754e-05,0,1735643777088322877,map,0.9737886704937468,-0.0318603574485193,0.2370375524508177,-0.5016394837248701,0.5220583998149486,-0.4951409636600254,0.4802585570884939,0.0,0.0,0.0,125,0.90942078355504,0,1735643777088343858,map,0.9725962989902694,-0.0268196164182309,0.1402947425184619,-0.4909325762077365,0.4882009338067369,-0.5093347462769754,0.5110999609501391,0.0,0.0,0.0,126,0.08997274349117139,0,1735644242188269615,map,0.9702028272691344,0.3323738445694951,0.0224641452659716,-0.504095432845197,0.4951371264652751,-0.4788079857021436,0.521027766446453,0.0,0.0,0.0,0,5.420360236926312e-14,0.9218254570988788,-0.0057585449820364,0.3781581467853415,1.0,3.773454845721631e-05,-0.000105587046586,-0.0005434515770767,0.0,0.0,0.0,-0.000105587046586,0.0031341196505642,0.0009196362224831,0.0,0.0,0.0,-0.0005434515770767,0.0009196362224831,0.007954022984395,0.0,0.0,0.0,0.0,0.0,0.0,0.0,0.0,0.0,0.0,0.0,0.0,0.0,0.0,0.0,0.0,0.0,0.0,0.0,0.0,0.0,0,0,0,1,24,,125
2.399942084,0,1735643777088230371,map,0.9750836893936016,-0.2236016941674075,0.0202757831740377,-0.4906007085004623,0.4986085513994495,-0.50347390240278,0.5071631758019336,0.0,0.0,0.0,1,3.907505491646125e-06,0,1735643777088253974,map,0.9670352489320644,-0.2574148223611995,0.143468205392934,-0.4999588889837784,0.5008871038259347,-0.4940273987637469,0.5050644986709113,0.0,0.0,0.0,16,1.3350918439723016e-05,0,1735643777088270664,map,0.9764137488164528,0.0525818881705047,0.0248555955891298,-0.4913681644546149,0.4876084096038062,-0.4902454986128962,0.5295797550265143,0.0,0.0,0.0,17,0.00044442650317425453,0,1735643777088284730,map,0.9794360444541308,-0.2654454262691277,0.2300461989863996,-0.4975050573793977,0.5028829262804564,-0.4799499096763294,0.5188887785828582,0.0,0.0,0.0,121,2.6017927737871814e-05,0,1735643777088297367,map,0.9706856613492262,0.1995394180568728,0.2364396811270158,-0.4979946110395786,0.4968733309215474,-0.5021886303906373,0.502916334891641,0.0,0.0,0.0,122,0.0003487606188815389,0,1735643777088310956,map,0.9710214914045988,0.1997754813246524,0.1381350116461262,-0.4802711371355975,0.4962498140986007,-0.4794260697626182,0.5415038323719908,0.0,0.0,0.0,124,1.8413761614443473e-05,0,1735643777088322877,map,0.9673205236053476,-0.0326602840661744,0.2369625830959829,-0.4868122466833456,0.4919827987456296,-0.5111003481877321,0.5096500724025353,0.0,0.0,0.0,125,0.8924109326229646,0,1735643777088343858,map,0.9675879155517696,-0.0273269880449396,0.1412840239994388,-0.4907108228748368,0.4800709820323587,-0.5091257238800212,0.5191586826853922,0.0,0.0,0.0,126,0.10673419014152082,0,1735644242188269615,map,0.9702028272691344,0.3323738445694951,0.0224641452659716,-0.504095432845197,0.4951371264652751,-0.4788079857021436,0.521027766446453,0.0,0.0,0.0,0,1.749234841833768e-13,0.9221324784620984,-0.0046118764215609,0.3733117616969879,1.0,3.848745733828459e-05,-9.291432285226352e-05,-0.00055742416415,0.0,0.0,0.0,-9.291432285226352e-05,0.0030403112354437,0.0007494780356772,0.0,0.0,0.0,-0.00055742416415,0.0007494780356772,0.00819956082721,0.0,0.0,0.0,0.0,0.0,0.0,0.0,0.0,0.0,0.0,0.0,0.0,0.0,0.0,0.0,0.0,0.0,0.0,0.0,0.0,0.0,0,0,0,1,25,,125
2.500228325,0,1735643777088230371,map,0.9750836893936016,-0.2236016941674075,0.0202757831740377,-0.4906007085004623,0.4986085513994495,-0.50347390240278,0.5071631758019336,0.0,0.0,0.0,1,2.302386373485137e-06,0,1735643777088253974,map,0.9614552852691228,-0.2549626828470851,0.1452885138598423,-0.5040980160728796,0.5003433900009777,-0.4879193515466885,0.5074213127766463,0.0,0.0,0.0,16,9.746580283231054e-06,0,1735643777088270664,map,0.9764137488164528,0.0525818881705047,0.0248555955891298,-0.4913681644546149,0.4876084096038062,-0.4902454986128962,0.5295797550265143,0.0,0.0,0.0,17,0.0007729014151297361,0,1735643777088284730,map,0.9772518192649806,-0.2654837208684796,0.2297416021127178,-0.496551278146659,0.5020886904089705,-0.4800525947210906,0.5204740929535997,0.0,0.0,0.0,121,1.5951042235942507e-05,0,1735643777088297367,map,0.970879015702004,0.2004441622098955,0.2355978056657021,-0.4987955347871633,0.4919130910801008,-0.4974811296053373,0.5116024345006637,0.0,0.0,0.0,122,0.0004983181147591464,0,1735643777088310956,map,0.9676869483311884,0.1988218008432776,0.1383755999131596,-0.4830765367266402,0.498967650936352,-0.4786087060054114,0.5372169482798166,0.0,0.0,0.0,124,4.162296444400877e-05,0,1735643777088322877,map,0.965504268779478,-0.0331311379125701,0.2365024147125012,-0.4932315621659244,0.499692463674952,-0.5057478627823736,0.5012476105886988,0.0,0.0,0.0,125,0.8801169203454269,0,1735643777088343858,map,0.9625378789227318,-0.0278523513171654,0.1413691647319853,-0.4869251046258931,0.4848280000764897,-0.5163954226884478,0.5110592140381713,0.0,0.0,0.0,126,0.11854223715046476,0,1735644242188269615,map,0.9702028272691344,0.3323738445694951,0.0224641452659716,-0.504095432845197,0.4951371264652751,-0.4788079857021436,0.521027766446453,0.0,0.0,0.0,0,8.828260500891305e-13,0.922387166983066,-0.0028430358478394,0.3691183457596208,1.0,3.862882658539969e-05,-7.807811031153206e-05,-0.0005626851457934,0.0,0.0,0.0,-7.807811031153206e-05,0.0030015961123077,0.0005352148510693,0.0,0.0,0.0,-0.0005626851457934,0.0005352148510693,0.0083238115336807,0.0,0.0,0.0,0.0,0.0,0.0,0.0,0.0,0.0,0.0,0.0,0.0,0.0,0.0,0.0,0.0,0.0,0.0,0.0,0.0,0.0,0,0,0,1,26,,125
