%time,field.boxes0.header.seq,field.boxes0.header.stamp,field.boxes0.header.frame_id,field.boxes0.pose.position.x,field.boxes0.pose.position.y,field.boxes0.pose.position.z,field.boxes0.pose.orientation.x,field.boxes0.pose.orientation.y,field.boxes0.pose.orientation.z,field.boxes0.pose.orientation.w,field.boxes0.scale.x,field.boxes0.scale.y,field.boxes0.scale.z,field.boxes0.id,field.boxes0.pdf,field.boxes1.header.seq,field.boxes1.header.stamp,field.boxes1.header.frame_id,field.boxes1.pose.position.x,field.boxes1.pose.position.y,field.boxes1.pose.position.z,field.boxes1.pose.orientation.x,field.boxes1.pose.orientation.y,field.boxes1.pose.orientation.z,field.boxes1.pose.orientation.w,field.boxes1.scale.x,field.boxes1.scale.y,field.boxes1.scale.z,field.boxes1.id,field.boxes1.pdf,field.boxes2.header.seq,field.boxes2.header.stamp,field.boxes2.header.frame_id,field.boxes2.pose.position.x,field.boxes2.pose.position.y,field.boxes2.pose.position.z,field.boxes2.pose.orientation.x,field.boxes2.pose.orientation.y,field.boxes2.pose.orientation.z,field.boxes2.pose.orientation.w,field.boxes2.scale.x,field.boxes2.scale.y,field.boxes2.scale.z,field.boxes2.id,field.boxes2.pdf,field.boxes3.header.seq,field.boxes3.header.stamp,field.boxes3.header.frame_id,field.boxes3.pose.position.x,field.boxes3.pose.position.y,field.boxes3.pose.position.z,field.boxes3.pose.orientation.x,field.boxes3.pose.orientation.y,field.boxes3.pose.orientation.z,field.boxes3.pose.orientation.w,field.boxes3.scale.x,field.boxes3.scale.y,field.boxes3.scale.z,field.boxes3.id,field.boxes3.pdf,field.boxes4.header.seq,field.boxes4.header.stamp,field.boxes4.header.frame_id,field.boxes4.pose.position.x,field.boxes4.pose.position.y,field.boxes4.pose.position.z,field.boxes4.pose.orientation.x,field.boxes4.pose.orientation.y,field.boxes4.pose.orientation.z,field.boxes4.pose.orientation.w,field.boxes4.scale.x,field.boxes4.scale.y,field.boxes4.scale.z,field.boxes4.id,field.boxes4.pdf,field.boxes5.header.seq,field.boxes5.header.stamp,field.boxes5.header.frame_id,field.boxes5.pose.position.x,field.boxes5.pose.position.y,field.boxes5.pose.position.z,field.boxes5.pose.orientation.x,field.boxes5.pose.orientation.y,field.boxes5.pose.orientation.z,field.boxes5.pose.orientation.w,field.boxes5.scale.x,field.boxes5.scale.y,field.boxes5.scale.z,field.boxes5.id,field.boxes5.pdf,field.boxes6.header.seq,field.boxes6.header.stamp,field.boxes6.header.frame_id,field.boxes6.pose.position.x,field.boxes6.pose.position.y,field.boxes6.pose.position.z,field.boxes6.pose.orientation.x,field.boxes6.pose.orientation.y,field.boxes6.pose.orientation.z,field.boxes6.pose.orientation.w,field.boxes6.scale.x,field.boxes6.scale.y,field.boxes6.scale.z,field.boxes6.id,field.boxes6.pdf,field.boxes7.header.seq,field.boxes7.header.stamp,field.boxes7.header.frame_id,field.boxes7.pose.position.x,field.boxes7.pose.position.y,field.boxes7.pose.position.z,field.boxes7.pose.orientation.x,field.boxes7.pose.orientation.y,field.boxes7.pose.orientation.z,field.boxes7.pose.orientation.w,field.boxes7.scale.x,field.boxes7.scale.y,field.boxes7.scale.z,field.boxes7.id,field.boxes7.pdf,field.boxes8.header.seq,field.boxes8.header.stamp,field.boxes8.header.frame_id,field.boxes8.pose.position.x,field.boxes8.pose.position.y,field.boxes8.pose.position.z,field.boxes8.pose.orientation.x,field.boxes8.pose.orientation.y,field.boxes8.pose.orientation.z,field.boxes8.pose.orientation.w,field.boxes8.scale.x,field.boxes8.scale.y,field.boxes8.scale.z,field.boxes8.id,field.boxes8.pdf,field.pose.pose.position.x,field.pose.pose.position.y,field.pose.pose.position.z,field.pose.pose.orientation.w,field.pose.covariance0,field.pose.covariance1,field.pose.covariance2,field.pose.covariance3,field.pose.covariance4,field.pose.covariance5,field.pose.covariance6,field.pose.covariance7,field.pose.covariance8,field.pose.covariance9,field.pose.covariance10,field.pose.covariance11,field.pose.covariance12,field.pose.covariance13,field.pose.covariance14,field.pose.covariance15,field.pose.covariance16,field.pose.covariance17,field.pose.covariance18,field.pose.covariance19,field.pose.covariance20,field.pose.covariance21,field.pose.covariance22,field.pose.covariance23,field.pose.covariance24,field.pose.covariance25,field.pose.covariance26,field.pose.covariance27,field.pose.covariance28,field.pose.covariance29,field.pose.covariance30,field.pose.covariance31,field.pose.covariance32,field.pose.covariance33,field.pose.covariance34,field.pose.covariance35,field.buttons0,field.buttons1,field.buttons2,field.buttons3,intersection_length,vacuum,desired_box
0.0,0,1735643777088230371,map,0.9678153406406658,-0.2191128759361268,0.0254333522208335,-0.4916885944073185,0.4863433087663526,-0.4976980968325668,0.5234588012032965,0.0,0.0,0.0,1,0.1111111111111111,0,1735643777088253974,map,0.9809450390551386,-0.2497317826187203,0.1487486902163316,-0.4910280011357347,0.492235797066961,-0.506314944323962,0.5101378238679439,0.0,0.0,0.0,16,0.1111111111111111,0,1735643777088270664,map,0.9779191596071076,0.0539826656775279,0.0278057998105218,-0.4907656794078323,0.504274258969503,-0.501567429074872,0.5032759022120468,0.0,0.0,0.0,17,0.1111111111111111,0,1735643777088284730,map,1.005957961020287,-0.256389215247315,0.2369685810935316,-0.5116789835298496,0.5110744438207744,-0.4708097467307267,0.5052976479962026,0.0,0.0,0.0,121,0.1111111111111111,0,1735643777088297367,map,1.0157292752513618,0.2105756146851172,0.2423043596908401,-0.6291799473435578,0.2335490576522041,-0.2496605508948083,0.6980379938494937,0.0,0.0,0.0,122,0.1111111111111111,0,1735643777088310956,map,1.0071557279028516,0.2098933255384325,0.1442195168252721,-0.481439152019144,0.5001443096774019,-0.4850918227048167,0.5317498810016988,0.0,0.0,0.0,124,0.1111111111111111,0,1735643777088322877,map,1.007091850914992,-0.0249339826551071,0.242884676254355,0.5196976643791308,-0.5147202699826371,0.4790304011556605,-0.4852908984068468,0.0,0.0,0.0,125,0.1111111111111111,0,1735643777088343858,map,0.994476008590321,-0.0204794578666742,0.1459100934756509,-0.4954580121874091,0.5353112101291796,-0.5084072202412571,0.4576957121012743,0.0,0.0,0.0,126,0.1111111111111111,0,1735644242188269615,map,0.9725488570868532,0.3264452355847295,0.0283655561644267,-0.498462453991667,0.4921816875310753,-0.4834963620365701,0.5249034542819,0.0,0.0,0.0,0,0.1111111111111111,0.9591164939907983,-0.2069542471203002,-0.138400260392035,1.0,0.0,0.0,0.0,0.0,0.0,0.0,0.0,0.0,0.0,0.0,0.0,0.0,0.0,0.0,0.0,0.0,0.0,0.0,0.0,0.0,0.0,0.0,0.0,0.0,0.0,0.0,0.0,0.0,0.0,0.0,0.0,0.0,0.0,0.0,0.0,0.0,0,0,0,1,1,,16
0.10077282,0,1735643777088230371,map,0.9726255611897217,-0.2204303339315028,0.0245101392831086,-0.4882518363629342,0.4936501119190568,-0.5010756772863834,0.5165683661651361,0.0,0.0,0.0,1,,0,1735643777088253974,map,0.9750878642545964,-0.2491430135793067,0.1496317155279753,-0.4825171452456481,0.4689430753630476,-0.5084408362748652,0.5373616218350109,0.0,0.0,0.0,16,,0,1735643777088270664,map,0.984759062022052,0.0556228989484152,0.0258254190632902,-0.4889959701608667,0.490014019885451,-0.4979401543849359,0.5223263387320616,0.0,0.0,0.0,17,,0,1735643777088284730,map,1.0007579141445828,-0.2555755734076257,0.2372485655139646,0.5341874088151433,-0.5224814132599037,0.4418794246670703,-0.4963865017475754,0.0,0.0,0.0,121,,0,1735643777088297367,map,1.0136276244218752,0.2091807836174904,0.2430489866574072,-0.5048938648642237,0.4879939657689969,-0.497947761487118,0.5089126658135787,0.0,0.0,0.0,122,,0,1735643777088310956,map,1.010714968969573,0.2109808227677551,0.1442002736452338,-0.4942158190456371,0.4993873199987463,-0.4748180973207888,0.5300101916814299,0.0,0.0,0.0,124,,0,1735643777088322877,map,0.994716519496244,-0.0272591343829383,0.2429804190399306,0.512506252181156,-0.5007913115279123,0.4866142681503928,-0.499751896250366,0.0,0.0,0.0,125,,0,1735643777088343858,map,0.9949156963201456,-0.0209752299346915,0.146466105705356,-0.4774283697664576,0.4680757321325264,-0.5173963409769283,0.5341051273620474,0.0,0.0,0.0,126,,0,1735644242188269615,map,0.9725488570868532,0.3264452355847295,0.0283655561644267,-0.498462453991667,0.4921816875310753,-0.4834963620365701,0.5249034542819,0.0,0.0,0.0,0,,0.9518981309478238,-0.2919621937691848,-0.0121666576139019,1.0,5.210476502018275e-05,0.0006136182204494,-0.0009111999730752,0.0,0.0,0.0,0.0006136182204494,0.0072263509934596,-0.01073085937026,0.0,0.0,0.0,-0.0009111999730752,-0.01073085937026,0.0159349224703474,0.0,0.0,0.0,0.0,0.0,0.0,0.0,0.0,0.0,0.0,0.0,0.0,0.0,0.0,0.0,0.0,0.0,0.0,0.0,0.0,0.0,0,0,0,1,2,,16
0.199983239,0,1735643777088230371,map,0.9755933868904568,-0.2215529546629976,0.0243254270941609,-0.496915416013156,0.4875319513532292,-0.4911101719130761,0.5236396325543867,0.0,0.0,0.0,1,0.9123645063168565,0,1735643777088253974,map,0.974155415370162,-0.2495693314751876,0.1506268132612471,-0.5059017767778902,0.4607641657759849,-0.4933751440025161,0.5369736893649728,0.0,0.0,0.0,16,0.08546810014263288,0,1735643777088270664,map,0.9891407972751464,0.0555600830494759,0.0256438632406856,-0.4984551092507231,0.5075178307817033,-0.4912549601552154,0.5026298037555883,0.0,0.0,0.0,17,6.94810181572279e-26,0,1735643777088284730,map,1.0075492627316451,-0.2573882589615489,0.2382891460017372,-0.382813018480764,0.6078303101962796,-0.5758416253528063,0.3903881778427452,0.0,0.0,0.0,121,0.0021673935405106385,0,1735643777088297367,map,1.0142614543447386,0.2086305805515766,0.243823692337976,-0.5102763037441183,0.4937868065692145,-0.4900035888197044,0.5056571629466227,0.0,0.0,0.0,122,0.0,0,1735643777088310956,map,1.0098028146536784,0.2102437946316391,0.1452649234181684,-0.4901109267531544,0.4986590642192936,-0.4811696821659861,0.5287779818727197,0.0,0.0,0.0,124,0.0,0,1735643777088322877,map,1.0010398398657216,-0.0268110222749608,0.2438694092080585,0.459413805737607,-0.5180693225141164,0.5335095498271402,-0.4857063849803656,0.0,0.0,0.0,125,4.764501475717518e-28,0,1735643777088343858,map,0.9960784055840424,-0.0218427738498001,0.147393702526022,0.6646370809656921,-0.4562024472413355,0.3406218767707203,-0.4838528854947678,0.0,0.0,0.0,126,2.317759489007946e-22,0,1735644242188269615,map,0.9725488570868532,0.3264452355847295,0.0283655561644267,-0.498462453991667,0.4921816875310753,-0.4834963620365701,0.5249034542819,0.0,0.0,0.0,0,0.0,0.9465636957097312,-0.3147375750629876,0.072642219272356,1.0,9.164890863226424e-05,0.0006520664067022,-0.001512281571447,0.0,0.0,0.0,0.0006520664067022,0.0058550033151292,-0.0110170152632074,0.0,0.0,0.0,-0.001512281571447,-0.0110170152632074,0.0250083728443152,0.0,0.0,0.0,0.0,0.0,0.0,0.0,0.0,0.0,0.0,0.0,0.0,0.0,0.0,0.0,0.0,0.0,0.0,0.0,0.0,0.0,0,0,0,1,3,,16
0.299085495,0,1735643777088230371,map,0.9882948929902728,-0.2231673738558269,0.0200748583932123,-0.5367002781595342,0.7097261175416757,-0.3505649524795616,0.2921401437592932,0.0,0.0,0.0,1,0.8988530134449043,0,1735643777088253974,map,0.9749815567548747,-0.2495335792947803,0.1501065973633914,-0.5162483476343455,0.4798843965301248,-0.474610002527567,0.5272039027098606,0.0,0.0,0.0,16,0.09797327121898158,0,1735643777088270664,map,0.9849969825871262,0.0553225373441999,0.0266506602395149,-0.481752338145769,0.4988186234513044,-0.5054439934448975,0.5134403909702704,0.0,0.0,0.0,17,7.084389140415319e-31,0,1735643777088284730,map,1.0058597787432308,-0.2575089340493369,0.2385997010260994,-0.4965384684040194,0.5047926221275675,-0.4881208684935504,0.5102665732552624,0.0,0.0,0.0,121,0.0031737153361139463,0,1735643777088297367,map,1.012765685956909,0.2071674707470533,0.2443589840100473,-0.6515129667860348,0.2283149745291484,-0.2391385412667389,0.6828000326568753,0.0,0.0,0.0,122,0.0,0,1735643777088310956,map,1.00926026882244,0.2096160833744291,0.1456750747053432,-0.4956829340596789,0.5036693622073624,-0.4805154631491111,0.5193462160545819,0.0,0.0,0.0,124,0.0,0,1735643777088322877,map,1.0005472725120286,-0.0268641653170811,0.2445289466123566,0.5027094035687898,-0.5021955509056852,0.4956535936299843,-0.4994100512962565,0.0,0.0,0.0,125,1.2485836557704653e-31,0,1735643777088343858,map,0.99562045414251,-0.0218804773254129,0.1473808530174495,0.4710083959946513,-0.5108227665872456,0.5378088849289351,-0.4774649676470449,0.0,0.0,0.0,126,1.0516591613377046e-25,0,1735644242188269615,map,0.9725488570868532,0.3264452355847295,0.0283655561644267,-0.498462453991667,0.4921816875310753,-0.4834963620365701,0.5249034542819,0.0,0.0,0.0,0,0.0,0.9429448970680268,-0.3339931828569626,0.1309809067241518,1.0,0.0001080237923018,0.0006980963070168,-0.0017675590673133,0.0,0.0,0.0,0.0006980963070168,0.0055035877808931,-0.0116328021017667,0.0,0.0,0.0,-0.0017675590673133,-0.0116328021017667,0.0289664869940313,0.0,0.0,0.0,0.0,0.0,0.0,0.0,0.0,0.0,0.0,0.0,0.0,0.0,0.0,0.0,0.0,0.0,0.0,0.0,0.0,0.0,0,0,0,1,4,,16
0.397793807,0,1735643777088230371,map,0.9796665301104464,-0.2228881339441242,0.0236020111766556,-0.4807626985670745,0.4963327288752896,-0.5159559533300336,0.506271176482534,0.0,0.0,0.0,1,0.7957377593864611,0,1735643777088253974,map,0.9810513783156924,-0.2519848736577164,0.1502337474014995,-0.5031754265625388,0.4827663681813036,-0.4899241351425281,0.5231877919652632,0.0,0.0,0.0,16,0.19684084368250415,0,1735643777088270664,map,0.9935223992856878,0.0565663087479227,0.0244097502574368,-0.4996257933649702,0.5048172078548441,-0.494664799020534,0.5008396847974792,0.0,0.0,0.0,17,2.675286349982009e-33,0,1735643777088284730,map,1.0081367273853532,-0.2585102959493084,0.2386519676881123,-0.4931649241187246,0.5145118075470164,-0.4797346205983948,0.5117818395693507,0.0,0.0,0.0,121,0.007421396931034863,0,1735643777088297367,map,1.0066679416396271,0.2048726274198828,0.2442111659475377,-0.4911243192754977,0.4955460542984009,-0.5092365103663288,0.503894024171144,0.0,0.0,0.0,122,0.0,0,1735643777088310956,map,1.002682872665365,0.2064139365688519,0.1466131760321552,-0.481200282236464,0.4982697723127735,-0.491007463500971,0.5282851438014012,0.0,0.0,0.0,124,0.0,0,1735643777088322877,map,0.9911735434576832,-0.0288086539530187,0.244178661773385,0.4678415909692928,-0.5274065131120202,0.5281219653537582,-0.4733432215604499,0.0,0.0,0.0,125,1.4540534172747075e-32,0,1735643777088343858,map,1.0055897568952357,-0.0201524379378207,0.1462853702672583,0.506216967172136,-0.5027625881130179,0.4949779050547745,-0.4959546709615011,0.0,0.0,0.0,126,3.1193244194576683e-27,0,1735644242188269615,map,0.9725488570868532,0.3264452355847295,0.0283655561644267,-0.498462453991667,0.4921816875310753,-0.4834963620365701,0.5249034542819,0.0,0.0,0.0,0,0.0,0.9408727635925732,-0.3417497410879303,0.1636935997594203,1.0,0.0001035939824018,0.0006227675414722,-0.0016851875190931,0.0,0.0,0.0,0.0006227675414722,0.004643527007076,-0.0103211933150927,0.0,0.0,0.0,-0.0016851875190931,-0.0103211933150927,0.0274536707377039,0.0,0.0,0.0,0.0,0.0,0.0,0.0,0.0,0.0,0.0,0.0,0.0,0.0,0.0,0.0,0.0,0.0,0.0,0.0,0.0,0.0,0,0,0,1,5,,16
0.49833004,0,1735643777088230371,map,0.9799162938501504,-0.2230206612337352,0.0226487553778832,-0.4923021125390096,0.500139612276889,-0.4968397705080423,0.5105381872716939,0.0,0.0,0.0,1,0.7947968639945204,0,1735643777088253974,map,0.9895662202226996,-0.2536323956899208,0.1486388108063934,-0.5041685817271643,0.5070230942165443,-0.4933600484694028,0.4953155415536335,0.0,0.0,0.0,16,0.20291770765000886,0,1735643777088270664,map,0.994828258398303,0.0580348729307797,0.0233194492913679,-0.5010207044337616,0.4961995925030881,-0.4894493865048047,0.5130336403965501,0.0,0.0,0.0,17,5.192847577990924e-40,0,1735643777088284730,map,1.003878963519531,-0.2571984208803848,0.2384777095941438,-0.3831255699836601,0.6161610329316978,-0.5700630454425285,0.3854717931859971,0.0,0.0,0.0,121,0.002285428355470639,0,1735643777088297367,map,1.011298035971533,0.2088759835765917,0.2439761102060962,-0.5090573065104971,0.4967006354000107,-0.4914379046372149,0.5026310011999726,0.0,0.0,0.0,122,0.0,0,1735643777088310956,map,1.0064350571442493,0.2100992933197342,0.1454614197564768,-0.4907930261591125,0.5109352433278452,-0.4808283899539197,0.5165960143220399,0.0,0.0,0.0,124,0.0,0,1735643777088322877,map,0.9919796631875948,-0.0279962509692557,0.2440314036414423,-0.5058605101714955,0.5438557064100589,-0.4879691624775659,0.4584890525685351,0.0,0.0,0.0,125,4.245146602172416e-39,0,1735643777088343858,map,0.999284864653835,-0.02056388365457,0.1464926905261356,-0.4745381663802024,0.4793675461445212,-0.5270014035182085,0.517000778569756,0.0,0.0,0.0,126,1.6584158951732265e-32,0,1735644242188269615,map,0.9725488570868532,0.3264452355847295,0.0283655561644267,-0.498462453991667,0.4921816875310753,-0.4834963620365701,0.5249034542819,0.0,0.0,0.0,0,0.0,0.9399459233020332,-0.3480562148278297,0.178926275693277,1.0,9.062348328902625e-05,0.0005481984209937,-0.0014749142215188,0.0,0.0,0.0,0.0005481984209937,0.0040684638943902,-0.0090813167830702,0.0,0.0,0.0,-0.0014749142215188,-0.0090813167830702,0.024038231028616,0.0,0.0,0.0,0.0,0.0,0.0,0.0,0.0,0.0,0.0,0.0,0.0,0.0,0.0,0.0,0.0,0.0,0.0,0.0,0.0,0.0,0,0,0,1,6,,16
0.599620998,0,1735643777088230371,map,0.9794960341994012,-0.2240253629459209,0.0238020624690933,-0.4932365598377035,0.4858525902639543,-0.4933087991993671,0.5266036319716685,0.0,0.0,0.0,1,0.6979542160591726,0,1735643777088253974,map,0.983210011049177,-0.2533206686369748,0.1499969819748656,-0.4819528535216839,0.4746492195074854,-0.5159375698298266,0.5255834752361744,0.0,0.0,0.0,16,0.28413303945764895,0,1735643777088270664,map,0.9879562451190478,0.0542275323398738,0.0262239660862068,-0.485410583375591,0.5029109691885707,-0.5041365132359661,0.5072509227582181,0.0,0.0,0.0,17,6.943200689627358e-26,0,1735643777088284730,map,1.0085907154552245,-0.2593134861064975,0.2385713534743882,-0.4708277497524255,0.4848949940012358,-0.5124918344219003,0.5296698920143423,0.0,0.0,0.0,121,0.01791274448317842,0,1735643777088297367,map,1.0054009830241473,0.2040702634200086,0.2439201299762051,-0.4942402024968576,0.4868415304041073,-0.5073675857677747,0.5111654129749313,0.0,0.0,0.0,122,0.0,0,1735643777088310956,map,1.0057011201106596,0.2079956481379311,0.1458519278932753,-0.4849874233434271,0.5080142068081049,-0.4851198749902055,0.5209294306999015,0.0,0.0,0.0,124,0.0,0,1735643777088322877,map,0.9997725634229112,-0.0278605144302575,0.2444814538577489,-0.4644479269265006,0.5304145932375761,-0.5278048716521208,0.4736776329051022,0.0,0.0,0.0,125,9.260140483866296e-26,0,1735643777088343858,map,0.9959542500957864,-0.0229375980498525,0.1472852748727917,0.6966340517480217,-0.4299268921795724,0.306812881510541,-0.485520052176167,0.0,0.0,0.0,126,3.462819633352115e-21,0,1735644242188269615,map,0.9725488570868532,0.3264452355847295,0.0283655561644267,-0.498462453991667,0.4921816875310753,-0.4834963620365701,0.5249034542819,0.0,0.0,0.0,0,0.0,0.9399302046229968,-0.3578538547987551,0.1812363972468991,1.0,7.767875385181781e-05,0.0004708083965998,-0.0012644300622287,0.0,0.0,0.0,0.0004708083965998,0.0040632172606194,-0.007919788249689,0.0,0.0,0.0,-0.0012644300622287,-0.007919788249689,0.0206362179940831,0.0,0.0,0.0,0.0,0.0,0.0,0.0,0.0,0.0,0.0,0.0,0.0,0.0,0.0,0.0,0.0,0.0,0.0,0.0,0.0,0.0,0,0,0,1,7,,16
0.699256021,0,1735643777088230371,map,0.9833481673241278,-0.2247248615208958,0.0200132410954378,-0.4799495525434159,0.5156700454504715,-0.5123243973350804,0.4911787282993132,0.0,0.0,0.0,1,0.6321858680039035,0,1735643777088253974,map,0.9777785629048128,-0.2529523081527595,0.1494712316681227,-0.5321220068906034,0.5038687618900142,-0.4564763744759525,0.5045708672916338,0.0,0.0,0.0,16,0.33103960906030305,0,1735643777088270664,map,0.9777728760214952,0.0517798253881729,0.027768786852909,-0.4757716466068489,0.5004641083536893,-0.508313456826525,0.5145818167636935,0.0,0.0,0.0,17,1.3674059696735926e-21,0,1735643777088284730,map,1.0050725243478575,-0.2588122111090611,0.237266689198164,-0.3978755093999715,0.6057743287127637,-0.5616367624656498,0.3991198926881706,0.0,0.0,0.0,121,0.036774522935793454,0,1735643777088297367,map,1.008123835693425,0.2079466400176151,0.2429350289072106,0.5297366170917883,-0.5025910413625626,0.4889157997844007,-0.4772239541089933,0.0,0.0,0.0,122,0.0,0,1735643777088310956,map,1.000561260910136,0.2075303993921249,0.1448986098079178,-0.4803538541438211,0.5114544387573854,-0.4910701372710725,0.5162602562323727,0.0,0.0,0.0,124,0.0,0,1735643777088322877,map,1.006645502008312,-0.0259737120040432,0.2432184842572362,-0.5927189439383698,0.388843004307341,-0.3808157304599362,0.5936874185394955,0.0,0.0,0.0,125,3.443528900375864e-21,0,1735643777088343858,map,1.0066477356534662,-0.0194028346654834,0.1439027188128303,-0.5051366096084297,0.507650225256251,-0.4969882287298682,0.4900315856498708,0.0,0.0,0.0,126,8.424998098226361e-18,0,1735644242188269615,map,0.9725488570868532,0.3264452355847295,0.0283655561644267,-0.498462453991667,0.4921816875310753,-0.4834963620365701,0.5249034542819,0.0,0.0,0.0,0,0.0,0.940524163903906,-0.3624459919888806,0.1733026103310725,1.0,7.04384230119864e-05,0.0003928645495018,-0.0011393627290499,0.0,0.0,0.0,0.0003928645495018,0.0037029291708525,-0.006674783452795,0.0,0.0,0.0,-0.0011393627290499,-0.006674783452795,0.0184973055686029,0.0,0.0,0.0,0.0,0.0,0.0,0.0,0.0,0.0,0.0,0.0,0.0,0.0,0.0,0.0,0.0,0.0,0.0,0.0,0.0,0.0,0,0,0,1,8,,16
0.799366701,0,1735643777088230371,map,0.9767614551381248,-0.2239588708469911,0.0223502685169066,-0.4932907199912631,0.5024497270480465,-0.4872829346928914,0.5164918962742094,0.0,0.0,0.0,1,0.6156707871217351,0,1735643777088253974,map,0.9786328980207408,-0.253097193580275,0.1489179592600276,-0.5150286775043816,0.5030141355476586,-0.4735226903513826,0.5074431027314473,0.0,0.0,0.0,16,0.3547877815895707,0,1735643777088270664,map,0.9802313814597045,0.0532900191336513,0.0267153129128977,-0.4830307458371409,0.5135024648993851,-0.5066282797477828,0.4963106922866699,0.0,0.0,0.0,17,2.139862082565326e-23,0,1735643777088284730,map,1.002071495394047,-0.2583088127846934,0.2373969613896319,-0.4985210745725215,0.5043654689934366,-0.4771226159235432,0.5190820949217615,0.0,0.0,0.0,121,0.029541431288694187,0,1735643777088297367,map,1.0043293804461002,0.207407416268077,0.2428893552558046,-0.5078812428245391,0.4936372351531206,-0.4949792004222188,0.5033632032705269,0.0,0.0,0.0,122,0.0,0,1735643777088310956,map,0.9974583037975736,0.2071890977241725,0.1452260288117432,-0.4833722848149977,0.5117501746116886,-0.4889701783419393,0.5151418811840942,0.0,0.0,0.0,124,0.0,0,1735643777088322877,map,1.0005222620755028,-0.0261255375669979,0.2433711538990393,0.4845332889032943,-0.5050896339996114,0.5106961540254777,-0.4993009030978022,0.0,0.0,0.0,125,9.714223419046884e-23,0,1735643777088343858,map,0.994786094817508,-0.020981185870306,0.1454840622841015,0.4778895913296371,-0.5043876731203308,0.5307323909055884,-0.4853223083134428,0.0,0.0,0.0,126,4.739660856140085e-19,0,1735644242188269615,map,0.9725488570868532,0.3264452355847295,0.0283655561644267,-0.498462453991667,0.4921816875310753,-0.4834963620365701,0.5249034542819,0.0,0.0,0.0,0,0.0,0.940744029407036,-0.3642245255583159,0.17038242141937,1.0,6.299865828194344e-05,0.0003460846274659,-0.0010179032607011,0.0,0.0,0.0,0.0003460846274659,0.0033167980495742,-0.0058915916148604,0.0,0.0,0.0,-0.0010179032607011,-0.0058915916148604,0.0165102694205539,0.0,0.0,0.0,0.0,0.0,0.0,0.0,0.0,0.0,0.0,0.0,0.0,0.0,0.0,0.0,0.0,0.0,0.0,0.0,0.0,0.0,0,0,0,1,9,,16
0.900253977,0,1735643777088230371,map,0.9710902418798986,-0.2238337237152652,0.0263131039247556,-0.4911795266897717,0.4821743724117313,-0.4926760069224861,0.5324668058696991,0.0,0.0,0.0,1,0.6093085563065895,0,1735643777088253974,map,0.9793350409915892,-0.253623963578056,0.1509045578653568,-0.5065442644969619,0.5085445035863209,-0.490611060781884,0.4940609102285354,0.0,0.0,0.0,16,0.3679090564306603,0,1735643777088270664,map,0.9843841767938416,0.0543007466564856,0.0267379964287693,-0.489017756643222,0.4968869854356654,-0.5003836843117285,0.5134015249947238,0.0,0.0,0.0,17,5.551711676059214e-26,0,1735643777088284730,map,1.000643797924901,-0.258654732783962,0.2393189781382742,-0.4921857000546744,0.4878689942443267,-0.495868436638993,0.5233082979104391,0.0,0.0,0.0,121,0.022782387262750153,0,1735643777088297367,map,1.0093698630112824,0.2117933692454793,0.244959885810053,-0.5030136355377788,0.4941368012215114,-0.4973481178249707,0.5054215605191363,0.0,0.0,0.0,122,0.0,0,1735643777088310956,map,1.0012825708651434,0.2102513233587506,0.1462737550988362,-0.4892103146577686,0.5079307830557764,-0.4810096513769301,0.5208735959319091,0.0,0.0,0.0,124,0.0,0,1735643777088322877,map,0.9968016226359184,-0.0264408460595178,0.245025452213965,-0.4872548182366041,0.5279490485620955,-0.5087485127928926,0.4743706303710344,0.0,0.0,0.0,125,3.4967407334427303e-25,0,1735643777088343858,map,0.9972317556357512,-0.0201408455141873,0.146925591210832,-0.4842486031743125,0.4871836923830617,-0.5223598695423413,0.5052677576210876,0.0,0.0,0.0,126,3.42030493055629e-21,0,1735644242188269615,map,0.9725488570868532,0.3264452355847295,0.0283655561644267,-0.498462453991667,0.4921816875310753,-0.4834963620365701,0.5249034542819,0.0,0.0,0.0,0,0.0,0.9403991869674664,-0.3664728814253485,0.1760291686303437,1.0,5.776903922690544e-05,0.0003184541214192,-0.0009336380773857,0.0,0.0,0.0,0.0003184541214192,0.0030306141815602,-0.0054166955283673,0.0,0.0,0.0,-0.0009336380773857,-0.0054166955283673,0.0151462142650803,0.0,0.0,0.0,0.0,0.0,0.0,0.0,0.0,0.0,0.0,0.0,0.0,0.0,0.0,0.0,0.0,0.0,0.0,0.0,0.0,0.0,0,0,0,1,10,,16
0.998540023,0,1735643777088230371,map,0.9749101705157652,-0.2250545388824296,0.0236553219118019,-0.4824201068256177,0.4960307265167661,-0.5054785240189069,0.5154763046322073,0.0,0.0,0.0,1,0.4518744520574762,0,1735643777088253974,map,0.980997501633146,-0.2546587142995763,0.1498886315927634,0.4736649641969545,-0.5019298547770512,0.5292237317057626,-0.4935890642783861,0.0,0.0,0.0,16,0.4842868631274293,0,1735643777088270664,map,0.9803826615299228,0.0536474729770702,0.0273096681378992,-0.4890730264889353,0.5013079292465886,-0.4992539087328413,0.5101406369330228,0.0,0.0,0.0,17,3.297129949921925e-21,0,1735643777088284730,map,1.0000040335338247,-0.258815872617736,0.238849439511319,0.384085847587183,-0.5581413632016543,0.5958779672220533,-0.4311446724081696,0.0,0.0,0.0,121,0.06383868481509454,0,1735643777088297367,map,1.0093698630112824,0.2117933692454793,0.244959885810053,-0.5030136355377788,0.4941368012215114,-0.4973481178249707,0.5054215605191363,0.0,0.0,0.0,122,0.0,0,1735643777088310956,map,1.0012825708651434,0.2102513233587506,0.1462737550988362,-0.4892103146577686,0.5079307830557764,-0.4810096513769301,0.5208735959319091,0.0,0.0,0.0,124,0.0,0,1735643777088322877,map,0.9940274475556878,-0.0267143191265306,0.2449670007306206,-0.484229622290065,0.5220092258244309,-0.513371536147391,0.4790383146729157,0.0,0.0,0.0,125,7.38516930812896e-20,0,1735643777088343858,map,1.0004303007130115,-0.0188993058763987,0.1457594819221994,0.5012152570759044,-0.4970162685474215,0.5027136835745574,-0.4990361181522158,0.0,0.0,0.0,126,4.74791044595026e-17,0,1735644242188269615,map,0.9725488570868532,0.3264452355847295,0.0283655561644267,-0.498462453991667,0.4921816875310753,-0.4834963620365701,0.5249034542819,0.0,0.0,0.0,0,0.0,0.9399585291218228,-0.3625206311339361,0.1817997727444002,1.0,5.445910175736668e-05,0.0002720878457561,-0.0008741905083021,0.0,0.0,0.0,0.0002720878457561,0.002911306625078,-0.0046961999442381,0.0,0.0,0.0,-0.0008741905083021,-0.0046961999442381,0.0141022844139392,0.0,0.0,0.0,0.0,0.0,0.0,0.0,0.0,0.0,0.0,0.0,0.0,0.0,0.0,0.0,0.0,0.0,0.0,0.0,0.0,0.0,0,0,0,1,11,,16
1.098896788,0,1735643777088230371,map,0.9724301682973232,-0.2236619737591925,0.0257976923692466,-0.4886059149841761,0.5010577035715168,-0.4957962918846968,0.5141901151203697,0.0,0.0,0.0,1,0.2923971724580962,0,1735643777088253974,map,0.9735953647815389,-0.2525878947821042,0.1526145990596339,-0.5086240763795072,0.4951603181572659,-0.4763999025428785,0.5188072292351221,0.0,0.0,0.0,16,0.5225421173053946,0,1735643777088270664,map,0.9827846408407996,0.0561300076414104,0.0272360484861692,-0.4980153866896091,0.4944855483911965,-0.4909530361786701,0.5161684156548156,0.0,0.0,0.0,17,7.314705868596803e-14,0,1735643777088284730,map,0.996303149766391,-0.2572939581876595,0.2403284059506225,-0.5106613011030443,0.5444836218446497,-0.4687122616479117,0.4723043900701945,0.0,0.0,0.0,121,0.18506071013485503,0,1735643777088297367,map,0.999445764913155,0.2089889224438593,0.2459496819762106,-0.4951500781656571,0.4962494959472093,-0.5056076910581285,0.5029152022036646,0.0,0.0,0.0,122,2.5986495487422305e-34,0,1735643777088310956,map,1.0012825708651434,0.2102513233587506,0.1462737550988362,-0.4892103146577686,0.5079307830557764,-0.4810096513769301,0.5208735959319091,0.0,0.0,0.0,124,5.374637024914907e-31,0,1735643777088322877,map,0.98903310652348,-0.0264023855172502,0.2461078894688759,0.5042177580782955,-0.5026667627337378,0.4941738057444645,-0.4988815769271441,0.0,0.0,0.0,125,2.9063076518572885e-12,0,1735643777088343858,map,0.9926726278295832,-0.0190600547082348,0.147967980788079,0.496000354745127,-0.5006651909189634,0.507760269568407,-0.4954770664143849,0.0,0.0,0.0,126,9.867484670127448e-11,0,1735644242188269615,map,0.9725488570868532,0.3264452355847295,0.0283655561644267,-0.498462453991667,0.4921816875310753,-0.4834963620365701,0.5249034542819,0.0,0.0,0.0,0,3.268377337875846e-41,0.9395814719192116,-0.3547368204588925,0.1858054763252107,1.0,5.1484736752036126e-05,0.0002171294979431,-0.0008179554725303,0.0,0.0,0.0,0.0002171294979431,0.003335162534529,-0.0039618739276578,0.0,0.0,0.0,-0.0008179554725303,-0.0039618739276578,0.0131035963190614,0.0,0.0,0.0,0.0,0.0,0.0,0.0,0.0,0.0,0.0,0.0,0.0,0.0,0.0,0.0,0.0,0.0,0.0,0.0,0.0,0.0,0,0,0,1,12,,16
1.19859491,0,1735643777088230371,map,0.9684541895592468,-0.223048004092856,0.0245717997558195,-0.4866486649620349,0.4971968553637848,-0.5073597192432584,0.5084825259499433,0.0,0.0,0.0,1,0.2507787764605765,0,1735643777088253974,map,0.9673031379656624,-0.2514832298132562,0.1510694752308811,-0.5020061020651448,0.4757941004880071,-0.484574566751141,0.5355346269739348,0.0,0.0,0.0,16,0.5173212663095331,0,1735643777088270664,map,0.9808085892185006,0.0573628008673403,0.0248593844104603,-0.495571800173388,0.4935044048917237,-0.493549832078904,0.5169821626325797,0.0,0.0,0.0,17,1.652443947524096e-10,0,1735643777088284730,map,0.9860244702249108,-0.2555084924081632,0.2382711289926289,-0.4675340393869998,0.4606552860551801,-0.5185455463752274,0.5480138189665591,0.0,0.0,0.0,121,0.23189990465948995,0,1735643777088297367,map,0.999445764913155,0.2089889224438593,0.2459496819762106,-0.4951500781656571,0.4962494959472093,-0.5056076910581285,0.5029152022036646,0.0,0.0,0.0,122,9.486584814900623e-26,0,1735643777088310956,map,1.0012825708651434,0.2102513233587506,0.1462737550988362,-0.4892103146577686,0.5079307830557764,-0.4810096513769301,0.5208735959319091,0.0,0.0,0.0,124,3.593592111804881e-23,0,1735643777088322877,map,0.9811495674529016,-0.0267967761471741,0.2442713913683298,-0.4799851114609937,0.5069934685988278,-0.5119179092134313,0.5005117079554243,0.0,0.0,0.0,125,3.086779808968741e-09,0,1735643777088343858,map,0.9826040841587408,-0.0201558202606503,0.1473028573921839,0.4879558486668321,-0.5008531381740906,0.5188785560979654,-0.4917420744197994,0.0,0.0,0.0,126,4.931837620013636e-08,0,1735644242188269615,map,0.9725488570868532,0.3264452355847295,0.0283655561644267,-0.498462453991667,0.4921816875310753,-0.4834963620365701,0.5249034542819,0.0,0.0,0.0,0,7.793142831783401e-31,0.939538087071758,-0.3460065330130739,0.1846075650403252,1.0,4.754695932635781e-05,0.0001958820826018,-0.0007544121664169,0.0,0.0,0.0,0.0001958820826018,0.0039932265969739,-0.0037826117129807,0.0,0.0,0.0,-0.0007544121664169,-0.0037826117129807,0.0121128472687988,0.0,0.0,0.0,0.0,0.0,0.0,0.0,0.0,0.0,0.0,0.0,0.0,0.0,0.0,0.0,0.0,0.0,0.0,0.0,0.0,0.0,0,0,0,1,13,,16
1.297760185,0,1735643777088230371,map,0.9668964517250476,-0.2230397595738426,0.0244455727258961,-0.4836123369009882,0.4955522656872594,-0.5077137639990944,0.5126146636756128,0.0,0.0,0.0,1,0.25945344341603876,0,1735643777088253974,map,0.971946504645264,-0.2522481828216196,0.1497711415920711,0.4809179112430597,-0.4981530856975589,0.5207541711077281,-0.4993761699656043,0.0,0.0,0.0,16,0.5214837915983094,0,1735643777088270664,map,0.9734439386892,0.0546286888982019,0.0270236602404162,-0.4840837867783457,0.5017267545318886,-0.5015350687530385,0.5122457671627172,0.0,0.0,0.0,17,8.406701115341648e-10,0,1735643777088284730,map,0.987730505782445,-0.2560893871433709,0.2379504450630387,-0.5186689498299749,0.5252527576566232,-0.4607681840118769,0.4927319166228031,0.0,0.0,0.0,121,0.2190626420341208,0,1735643777088297367,map,0.999445764913155,0.2089889224438593,0.2459496819762106,-0.4951500781656571,0.4962494959472093,-0.5056076910581285,0.5029152022036646,0.0,0.0,0.0,122,5.171450015690844e-25,0,1735643777088310956,map,1.0012825708651434,0.2102513233587506,0.1462737550988362,-0.4892103146577686,0.5079307830557764,-0.4810096513769301,0.5208735959319091,0.0,0.0,0.0,124,2.8478752663727414e-22,0,1735643777088322877,map,0.9829144446996984,-0.0256298969609835,0.243464958188919,-0.4925781605603483,0.5172394033663434,-0.5056210430504329,0.4839189148698418,0.0,0.0,0.0,125,4.9606871246283706e-09,0,1735643777088343858,map,0.9785821091579628,-0.0208685895985955,0.1471937878109031,0.4940536427589593,-0.4998505838236159,0.5096246486615996,-0.4963296378459928,0.0,0.0,0.0,126,1.1715017406307235e-07,0,1735644242188269615,map,0.9725488570868532,0.3264452355847295,0.0283655561644267,-0.498462453991667,0.4921816875310753,-0.4834963620365701,0.5249034542819,0.0,0.0,0.0,0,2.0821279723982346e-29,0.9397945983926724,-0.3397827749643206,0.1794435890124883,1.0,4.500612269674743e-05,0.0002026445424489,-0.0007177456211583,0.0,0.0,0.0,0.0002026445424489,0.0042115532610039,-0.0039302365478222,0.0,0.0,0.0,-0.0007177456211583,-0.0039302365478222,0.011594310321865,0.0,0.0,0.0,0.0,0.0,0.0,0.0,0.0,0.0,0.0,0.0,0.0,0.0,0.0,0.0,0.0,0.0,0.0,0.0,0.0,0.0,0,0,0,1,14,,16
1.399481797,0,1735643777088230371,map,0.9643627703206336,-0.2237780030669526,0.0242451100579726,-0.4948574218652666,0.4970216763812831,-0.4972044103568106,0.510757632888376,0.0,0.0,0.0,1,0.2927052446291423,0,1735643777088253974,map,0.9652556417341488,-0.2525000825232183,0.1502601949400481,-0.4959462935059721,0.4975266835422681,-0.4936333092297896,0.5126700977626517,0.0,0.0,0.0,16,0.5084135248418336,0,1735643777088270664,map,0.9730072914948256,0.0546460818799917,0.0258867346341565,-0.5014156406695411,0.5012557848067092,-0.4940629027554681,0.5032164957655945,0.0,0.0,0.0,17,5.328217421366745e-10,0,1735643777088284730,map,0.9889355777643932,-0.2572406780985629,0.237397180320228,-0.4872494429733699,0.5212127377002721,-0.4997467502203787,0.4910992242157366,0.0,0.0,0.0,121,0.19888116911359519,0,1735643777088297367,map,0.999445764913155,0.2089889224438593,0.2459496819762106,-0.4951500781656571,0.4962494959472093,-0.5056076910581285,0.5029152022036646,0.0,0.0,0.0,122,2.815901831915439e-26,0,1735643777088310956,map,1.0012825708651434,0.2102513233587506,0.1462737550988362,-0.4892103146577686,0.5079307830557764,-0.4810096513769301,0.5208735959319091,0.0,0.0,0.0,124,3.152363943454941e-23,0,1735643777088322877,map,0.9833010063033558,-0.0254826053875903,0.2433666630720402,-0.4955736823187002,0.5007293653834943,-0.5017270879776197,0.5019429820459939,0.0,0.0,0.0,125,1.7624095627266483e-09,0,1735643777088343858,map,0.9810377856832792,-0.0197743119781057,0.1456283134293769,0.5058846029909546,-0.5007913688451322,0.4956281016119628,-0.4976359695996916,0.0,0.0,0.0,126,5.912019761364488e-08,0,1735644242188269615,map,0.9725488570868532,0.3264452355847295,0.0283655561644267,-0.498462453991667,0.4921816875310753,-0.4834963620365701,0.5249034542819,0.0,0.0,0.0,0,1.802108485987958e-30,0.9402205931070612,-0.3354037867075669,0.1721288980565833,1.0,4.4546315470586845e-05,0.0002152508682101,-0.0007135201886655,0.0,0.0,0.0,0.0002152508682101,0.0041992405777427,-0.004116654019135,0.0,0.0,0.0,-0.0007135201886655,-0.004116654019135,0.0115704221533329,0.0,0.0,0.0,0.0,0.0,0.0,0.0,0.0,0.0,0.0,0.0,0.0,0.0,0.0,0.0,0.0,0.0,0.0,0.0,0.0,0.0,0,0,0,1,15,,16
1.499380958,0,1735643777088230371,map,0.960730748896701,-0.2241970851092795,0.0258252841410218,-0.4902130193186426,0.4900537921176077,-0.4987972405100311,0.5203266179826195,0.0,0.0,0.0,1,0.31218805117793147,0,1735643777088253974,map,0.9643300470989742,-0.2533305198746511,0.1505759563362239,-0.5200740840032819,0.5015330613298745,-0.4685973533627102,0.5083345905628448,0.0,0.0,0.0,16,0.5119113398784434,0,1735643777088270664,map,0.9731019545268148,0.0548167199458765,0.0255204050562417,-0.5026834201717171,0.5007507049646093,-0.4933458003593707,0.5031580584962185,0.0,0.0,0.0,17,2.128964876710693e-10,0,1735643777088284730,map,0.9848058350138428,-0.257526504712263,0.238018601601549,-0.5025231668991624,0.5333826669098585,-0.4749146747564912,0.4872673281379531,0.0,0.0,0.0,121,0.17590058044997284,0,1735643777088297367,map,0.999445764913155,0.2089889224438593,0.2459496819762106,-0.4951500781656571,0.4962494959472093,-0.5056076910581285,0.5029152022036646,0.0,0.0,0.0,122,9.42310808562095e-28,0,1735643777088310956,map,1.0012825708651434,0.2102513233587506,0.1462737550988362,-0.4892103146577686,0.5079307830557764,-0.4810096513769301,0.5208735959319091,0.0,0.0,0.0,124,1.9189679922971543e-24,0,1735643777088322877,map,0.9751372598941872,-0.0278538403575308,0.243695648838037,-0.4920228179866811,0.5141937881286954,-0.5057241362364203,0.4876078269041977,0.0,0.0,0.0,125,7.042705910530807e-10,0,1735643777088343858,map,0.9774238526949088,-0.0208766701244059,0.1466085467940027,0.4899813101983741,-0.4978703144216607,0.5152515974668623,-0.4965473360937582,0.0,0.0,0.0,126,2.7576485238771577e-08,0,1735644242188269615,map,0.9725488570868532,0.3264452355847295,0.0283655561644267,-0.498462453991667,0.4921816875310753,-0.4834963620365701,0.5249034542819,0.0,0.0,0.0,0,5.601402543597991e-32,0.9405086818553996,-0.3325295366090307,0.1672006199185015,1.0,4.30070976574627e-05,0.0002142182756465,-0.0006902218990779,0.0,0.0,0.0,0.0002142182756465,0.0040607077460678,-0.004071839701799,0.0,0.0,0.0,-0.0006902218990779,-0.004071839701799,0.011211589649844,0.0,0.0,0.0,0.0,0.0,0.0,0.0,0.0,0.0,0.0,0.0,0.0,0.0,0.0,0.0,0.0,0.0,0.0,0.0,0.0,0.0,0,0,0,1,16,,16
1.597596241,0,1735643777088230371,map,0.9613574116228428,-0.2250476585404723,0.0248485878222567,-0.4898646133031797,0.4895538752288243,-0.5011676033188679,0.5188455427826167,0.0,0.0,0.0,1,0.3118738920252508,0,1735643777088253974,map,0.9645740821546924,-0.2540754375576344,0.1504017775621396,-0.5036073502466426,0.5119521487975297,-0.4936373769014189,0.4905168439972615,0.0,0.0,0.0,16,0.5232778148394843,0,1735643777088270664,map,0.9684319427024988,0.0528956747605756,0.0269257136364839,-0.4917536563068126,0.4970931031091255,-0.4952312830717212,0.5155800273646731,0.0,0.0,0.0,17,8.757486861585022e-11,0,1735643777088284730,map,0.9819548017132712,-0.2579063878727076,0.2381855611018719,-0.4848980438493372,0.489684350786015,-0.4968465343198018,0.5274719376429102,0.0,0.0,0.0,121,0.16484828120837983,0,1735643777088297367,map,0.999445764913155,0.2089889224438593,0.2459496819762106,-0.4951500781656571,0.4962494959472093,-0.5056076910581285,0.5029152022036646,0.0,0.0,0.0,122,3.255684300620527e-29,0,1735643777088310956,map,1.0012825708651434,0.2102513233587506,0.1462737550988362,-0.4892103146577686,0.5079307830557764,-0.4810096513769301,0.5208735959319091,0.0,0.0,0.0,124,1.0707497198849356e-25,0,1735643777088322877,map,0.9735577722417674,-0.0279999283451213,0.2440304717038821,-0.5028465575021753,0.528017798001282,-0.4938464757762009,0.4737702005883388,0.0,0.0,0.0,125,2.3268925070321e-10,0,1735643777088343858,map,0.9757958336306256,-0.0209685603663835,0.1467730063023957,-0.4883033143306511,0.4930825358591365,-0.5163095019617187,0.5018505596574201,0.0,0.0,0.0,126,1.1606620815395002e-08,0,1735644242188269615,map,0.9725488570868532,0.3264452355847295,0.0283655561644267,-0.498462453991667,0.4921816875310753,-0.4834963620365701,0.5249034542819,0.0,0.0,0.0,0,1.2887578967131e-33,0.9405853977349272,-0.3310972930197086,0.1657470653734102,1.0,4.0571433602241895e-05,0.0002033752138349,-0.0006514047823427,0.0,0.0,0.0,0.0002033752138349,0.0038546637317209,-0.0038656292262032,0.0,0.0,0.0,-0.0006514047823427,-0.0038656292262032,0.0105858895093726,0.0,0.0,0.0,0.0,0.0,0.0,0.0,0.0,0.0,0.0,0.0,0.0,0.0,0.0,0.0,0.0,0.0,0.0,0.0,0.0,0.0,0,0,0,1,17,,16
1.698652718,0,1735643777088230371,map,0.9578011337358756,-0.2240841767113322,0.0248759289905094,-0.4837507821678972,0.5012251548333461,-0.5045333395758803,0.5101025722054793,0.0,0.0,0.0,1,0.29330588458918117,0,1735643777088253974,map,0.958592621749324,-0.2528679002552298,0.1511468109500885,-0.5057062274310969,0.5069907923950664,-0.4774635397174661,0.5091660988366165,0.0,0.0,0.0,16,0.529934312617027,0,1735643777088270664,map,0.968203330741322,0.0565290096548764,0.0254265444823188,-0.5011608516204487,0.4986469230353479,-0.4936617602157482,0.5064455681029665,0.0,0.0,0.0,17,3.152323296239271e-10,0,1735643777088284730,map,0.9768893626049596,-0.2567006502114378,0.238705075343014,-0.4945580010413654,0.5112210841646592,-0.4856710021190127,0.508123079983771,0.0,0.0,0.0,121,0.17675975454501178,0,1735643777088297367,map,0.999445764913155,0.2089889224438593,0.2459496819762106,-0.4951500781656571,0.4962494959472093,-0.5056076910581285,0.5029152022036646,0.0,0.0,0.0,122,3.0503608498048455e-27,0,1735643777088310956,map,1.0012825708651434,0.2102513233587506,0.1462737550988362,-0.4892103146577686,0.5079307830557764,-0.4810096513769301,0.5208735959319091,0.0,0.0,0.0,124,6.332277392324444e-24,0,1735643777088322877,map,0.969743846814737,-0.0266859682791569,0.2446069865257735,-0.4946873002805232,0.5026952717291296,-0.4990535171081504,0.5035151693686395,0.0,0.0,0.0,125,9.894868668082353e-10,0,1735643777088343858,map,0.96713814739301,-0.0213423855887167,0.1480676312045145,0.4894208605575574,-0.5026573942631175,0.5178524316422138,-0.4895218322873449,0.0,0.0,0.0,126,4.6944060825830766e-08,0,1735644242188269615,map,0.9725488570868532,0.3264452355847295,0.0283655561644267,-0.498462453991667,0.4921816875310753,-0.4834963620365701,0.5249034542819,0.0,0.0,0.0,0,2.3240975542639897e-31,0.9405413739257008,-0.3269145452296563,0.1655215738826737,1.0,3.835041269702389e-05,0.0001889462025013,-0.0006150468688638,0.0,0.0,0.0,0.0001889462025013,0.0039379371909034,-0.0036669060055571,0.0,0.0,0.0,-0.0006150468688638,-0.0036669060055571,0.0099986489256404,0.0,0.0,0.0,0.0,0.0,0.0,0.0,0.0,0.0,0.0,0.0,0.0,0.0,0.0,0.0,0.0,0.0,0.0,0.0,0.0,0.0,0,0,0,1,18,,16
1.798242335,0,1735643777088230371,map,0.9584799810097414,-0.2238751259831965,0.0258134278640659,-0.4840868202827899,0.4941884195021745,-0.5009203868116594,0.5201120288311917,0.0,0.0,0.0,1,0.26666235255456605,0,1735643777088253974,map,0.9622778413010906,-0.2530390123916265,0.1514023258772324,-0.5103978859319912,0.5004870422665748,-0.4791018736471464,0.5093801264548939,0.0,0.0,0.0,16,0.5394664389088513,0,1735643777088270664,map,0.967605155239546,0.0557252443228181,0.0268651743435423,-0.4952401394287085,0.4946823311832559,-0.4927105122761536,0.5169748026802692,0.0,0.0,0.0,17,3.602585137986325e-09,0,1735643777088284730,map,0.9765065954636862,-0.256275933148103,0.2393955048812721,-0.5017138304072352,0.5197920800723824,-0.4779589558600735,0.4996545430447666,0.0,0.0,0.0,121,0.19387092736787986,0,1735643777088297367,map,0.999445764913155,0.2089889224438593,0.2459496819762106,-0.4951500781656571,0.4962494959472093,-0.5056076910581285,0.5029152022036646,0.0,0.0,0.0,122,2.164602320610745e-24,0,1735643777088310956,map,1.0012825708651434,0.2102513233587506,0.1462737550988362,-0.4892103146577686,0.5079307830557764,-0.4810096513769301,0.5208735959319091,0.0,0.0,0.0,124,2.22169470476486e-21,0,1735643777088322877,map,0.9715877374525106,-0.0259373771978209,0.2451622060411417,-0.5084461331684828,0.5009098060208406,-0.4898198338276638,0.5006480063749594,0.0,0.0,0.0,125,9.004018417279325e-09,0,1735643777088343858,map,0.9731496355246668,-0.0188738730242691,0.1476846512974952,-0.4946730590492494,0.4923437629971177,-0.509178750986887,0.5036200782654813,0.0,0.0,0.0,126,2.685620991569903e-07,0,1735644242188269615,map,0.9725488570868532,0.3264452355847295,0.0283655561644267,-0.498462453991667,0.4921816875310753,-0.4834963620365701,0.5249034542819,0.0,0.0,0.0,0,4.420474078976561e-28,0.94049030646886,-0.3220300948766958,0.1652531280361154,1.0,3.637891185616382e-05,0.0001745118092909,-0.0005824292217886,0.0,0.0,0.0,0.0001745118092909,0.0041601187332603,-0.0034975127400126,0.0,0.0,0.0,-0.0005824292217886,-0.0034975127400126,0.0094737013824492,0.0,0.0,0.0,0.0,0.0,0.0,0.0,0.0,0.0,0.0,0.0,0.0,0.0,0.0,0.0,0.0,0.0,0.0,0.0,0.0,0.0,0,0,0,1,19,,16
1.897719761,0,1735643777088230371,map,0.9584799810097414,-0.2238751259831965,0.0258134278640659,-0.4840868202827899,0.4941884195021745,-0.5009203868116594,0.5201120288311917,0.0,0.0,0.0,1,0.26693264294874086,0,1735643777088253974,map,0.9603522765129217,-0.2535344633961975,0.151032966909324,0.48824687789862,-0.503245600022226,0.5124888651535495,-0.4956954865380024,0.0,0.0,0.0,16,0.545142796261311,0,1735643777088270664,map,0.9622161283735852,0.0535924454023784,0.0280420374799191,-0.4981316845927439,0.4975877896688759,-0.4928315939470966,0.5112614168747739,0.0,0.0,0.0,17,6.362105389631742e-09,0,1735643777088284730,map,0.9735729893785708,-0.2566808854594737,0.2390819903609839,-0.4723905343395541,0.493707337251133,-0.5103328014171781,0.5221692063004878,0.0,0.0,0.0,121,0.18792412129935873,0,1735643777088297367,map,0.999445764913155,0.2089889224438593,0.2459496819762106,-0.4951500781656571,0.4962494959472093,-0.5056076910581285,0.5029152022036646,0.0,0.0,0.0,122,2.2363931345173766e-24,0,1735643777088310956,map,1.0012825708651434,0.2102513233587506,0.1462737550988362,-0.4892103146577686,0.5079307830557764,-0.4810096513769301,0.5208735959319091,0.0,0.0,0.0,124,3.0486083648804556e-21,0,1735643777088322877,map,0.967102111994826,-0.0268920226051821,0.244997746800153,-0.4986961841358382,0.5094724846153108,-0.4992903108167691,0.4923911949585917,0.0,0.0,0.0,125,1.009796350608871e-08,0,1735643777088343858,map,0.9632282267232768,-0.0223577125816215,0.1490119343643451,0.4972621910841701,-0.504337314167789,0.5081482500057366,-0.4900607542665485,0.0,0.0,0.0,126,4.2303052042389703e-07,0,1735644242188269615,map,0.9725488570868532,0.3264452355847295,0.0283655561644267,-0.498462453991667,0.4921816875310753,-0.4834963620365701,0.5249034542819,0.0,0.0,0.0,0,8.530631708058367e-28,0.9406014161863838,-0.3184681785610334,0.1628329480583372,1.0,3.479452828059183e-05,0.0001733057256242,-0.0005584169654592,0.0,0.0,0.0,0.0001733057256242,0.0041931705055531,-0.003486426195456,0.0,0.0,0.0,-0.0005584169654592,-0.003486426195456,0.0091113044646986,0.0,0.0,0.0,0.0,0.0,0.0,0.0,0.0,0.0,0.0,0.0,0.0,0.0,0.0,0.0,0.0,0.0,0.0,0.0,0.0,0.0,0,0,0,1,20,,16
1.998149665,0,1735643777088230371,map,0.9584799810097414,-0.2238751259831965,0.0258134278640659,-0.4840868202827899,0.4941884195021745,-0.5009203868116594,0.5201120288311917,0.0,0.0,0.0,1,0.2733748311966487,0,1735643777088253974,map,0.9553313844402722,-0.2533273185099164,0.152339249221288,-0.4990778799728242,0.4868069778705742,-0.4922258922281955,0.5212042853224699,0.0,0.0,0.0,16,0.5460452436416342,0,1735643777088270664,map,0.9622161283735852,0.0535924454023784,0.0280420374799191,-0.4981316845927439,0.4975877896688759,-0.4928315939470966,0.5112614168747739,0.0,0.0,0.0,17,6.397190610330587e-09,0,1735643777088284730,map,0.9719814417346756,-0.2569133278296671,0.2394592838966298,-0.4810994500216329,0.4970932016805998,-0.5034555461452925,0.5176622268307378,0.0,0.0,0.0,121,0.18057956938367642,0,1735643777088297367,map,0.999445764913155,0.2089889224438593,0.2459496819762106,-0.4951500781656571,0.4962494959472093,-0.5056076910581285,0.5029152022036646,0.0,0.0,0.0,122,8.94395359608891e-25,0,1735643777088310956,map,1.0012825708651434,0.2102513233587506,0.1462737550988362,-0.4892103146577686,0.5079307830557764,-0.4810096513769301,0.5208735959319091,0.0,0.0,0.0,124,1.738406248522062e-21,0,1735643777088322877,map,0.967460640326932,-0.0260459101208494,0.2454863002252081,-0.5012241074589521,0.5115376620855614,-0.4960764837965177,0.4909294619332782,0.0,0.0,0.0,125,6.7238085515328655e-09,0,1735643777088343858,map,0.9651967055682028,-0.0208598804231968,0.1483737702182005,0.4970253940322994,-0.4967244176529037,0.5085192829367126,-0.4976331474851255,0.0,0.0,0.0,126,3.426570415838826e-07,0,1735644242188269615,map,0.9725488570868532,0.3264452355847295,0.0283655561644267,-0.498462453991667,0.4921816875310753,-0.4834963620365701,0.5249034542819,0.0,0.0,0.0,0,4.955970584944534e-28,0.9407137504292143,-0.315586292268392,0.1605383880647474,1.0,3.339002562376282e-05,0.0001715277623152,-0.0005369808345799,0.0,0.0,0.0,0.0001715277623152,0.0041596010916487,-0.0034526591202977,0.0,0.0,0.0,-0.0005369808345799,-0.0034526591202977,0.0087827329348062,0.0,0.0,0.0,0.0,0.0,0.0,0.0,0.0,0.0,0.0,0.0,0.0,0.0,0.0,0.0,0.0,0.0,0.0,0.0,0.0,0.0,0,0,0,1,21,,16
2.099140067,0,1735643777088230371,map,0.9584799810097414,-0.2238751259831965,0.0258134278640659,-0.4840868202827899,0.4941884195021745,-0.5009203868116594,0.5201120288311917,0.0,0.0,0.0,1,0.277760678857904,0,1735643777088253974,map,0.9562033551244506,-0.254318443227463,0.1513279156013764,-0.4970384435547261,0.5163651760303818,-0.4996930248708581,0.4864428758931722,0.0,0.0,0.0,16,0.5552545865049691,0,1735643777088270664,map,0.9622161283735852,0.0535924454023784,0.0280420374799191,-0.4981316845927439,0.4975877896688759,-0.4928315939470966,0.5112614168747739,0.0,0.0,0.0,17,2.721896300079452e-09,0,1735643777088284730,map,0.9692591003263382,-0.2573485598834691,0.2395360477527887,-0.433445831834259,0.5712832612745479,-0.5435636724604567,0.4362323695398195,0.0,0.0,0.0,121,0.16698453039480218,0,1735643777088297367,map,0.999445764913155,0.2089889224438593,0.2459496819762106,-0.4951500781656571,0.4962494959472093,-0.5056076910581285,0.5029152022036646,0.0,0.0,0.0,122,6.384637039173101e-26,0,1735643777088310956,map,1.0012825708651434,0.2102513233587506,0.1462737550988362,-0.4892103146577686,0.5079307830557764,-0.4810096513769301,0.5208735959319091,0.0,0.0,0.0,124,1.7782792947241808e-22,0,1735643777088322877,map,0.9632440208289372,-0.0268472304500572,0.2452361602686562,-0.4936555448000969,0.5051888200002981,-0.5001939960168031,0.500893627014328,0.0,0.0,0.0,125,2.9751178689953525e-09,0,1735643777088343858,map,0.963841403840586,-0.0222368069203141,0.1479577784563978,0.5028894039980322,-0.4986818087634066,0.5063370955173058,-0.4919770794031567,0.0,0.0,0.0,126,1.9854531056129768e-07,0,1735644242188269615,map,0.9725488570868532,0.3264452355847295,0.0283655561644267,-0.498462453991667,0.4921816875310753,-0.4834963620365701,0.5249034542819,0.0,0.0,0.0,0,2.5326344747994484e-29,0.9408891594696812,-0.3146667659794376,0.1577135442232496,1.0,3.2518432147345634e-05,0.0001671182035509,-0.0005229781809281,0.0,0.0,0.0,0.0001671182035509,0.0039882844152732,-0.0033502679510385,0.0,0.0,0.0,-0.0005229781809281,-0.0033502679510385,0.0085510923987117,0.0,0.0,0.0,0.0,0.0,0.0,0.0,0.0,0.0,0.0,0.0,0.0,0.0,0.0,0.0,0.0,0.0,0.0,0.0,0.0,0.0,0,0,0,1,22,,16
2.199572616,0,1735643777088230371,map,0.9584799810097414,-0.2238751259831965,0.0258134278640659,-0.4840868202827899,0.4941884195021745,-0.5009203868116594,0.5201120288311917,0.0,0.0,0.0,1,0.2849988664630544,0,1735643777088253974,map,0.9526679970070554,-0.2544743655046346,0.1510352057577019,-0.4971465712860567,0.4942453186124332,-0.4961212510155029,0.5122797633901066,0.0,0.0,0.0,16,0.5570260825724714,0,1735643777088270664,map,0.9622161283735852,0.0535924454023784,0.0280420374799191,-0.4981316845927439,0.4975877896688759,-0.4928315939470966,0.5112614168747739,0.0,0.0,0.0,17,1.3787273702801155e-09,0,1735643777088284730,map,0.9667981857175236,-0.2576719048859128,0.2389201270487449,-0.4916460618754883,0.5003172789598674,-0.4908685328252721,0.5167348001620192,0.0,0.0,0.0,121,0.1579749618528718,0,1735643777088297367,map,0.999445764913155,0.2089889224438593,0.2459496819762106,-0.4951500781656571,0.4962494959472093,-0.5056076910581285,0.5029152022036646,0.0,0.0,0.0,122,5.3424386985631576e-27,0,1735643777088310956,map,1.0012825708651434,0.2102513233587506,0.1462737550988362,-0.4892103146577686,0.5079307830557764,-0.4810096513769301,0.5208735959319091,0.0,0.0,0.0,124,2.2844954342767335e-23,0,1735643777088322877,map,0.9581068396344696,-0.0286139138589391,0.2447614558333746,-0.5015380427743357,0.5185012230742482,-0.4948577108744895,0.4844914027190342,0.0,0.0,0.0,125,1.6084583652930493e-09,0,1735643777088343858,map,0.963416287213702,-0.0197492071948337,0.1469542362540079,-0.5004998257416867,0.494881443596414,-0.50317577277147,0.5014044504312897,0.0,0.0,0.0,126,8.612441660320272e-08,0,1735644242188269615,map,0.9725488570868532,0.3264452355847295,0.0283655561644267,-0.498462453991667,0.4921816875310753,-0.4834963620365701,0.5249034542819,0.0,0.0,0.0,0,1.9028901390806368e-30,0.9410350268950188,-0.3132098261506121,0.1552178742467962,1.0,3.157268799841559e-05,0.0001645276360583,-0.0005082488121357,0.0,0.0,0.0,0.0001645276360583,0.0038615795656699,-0.0032845970288229,0.0,0.0,0.0,-0.0005082488121357,-0.0032845970288229,0.0083163298825709,0.0,0.0,0.0,0.0,0.0,0.0,0.0,0.0,0.0,0.0,0.0,0.0,0.0,0.0,0.0,0.0,0.0,0.0,0.0,0.0,0.0,0,0,0,1,23,,16
2.29934545,0,1735643777088230371,map,0.9584799810097414,-0.2238751259831965,0.0258134278640659,-0.4840868202827899,0.4941884195021745,-0.5009203868116594,0.5201120288311917,0.0,0.0,0.0,1,0.28377949375151323,0,1735643777088253974,map,0.9521755543090088,-0.2540124921144683,0.1514802917845678,-0.4930761056471498,0.5025912302121363,-0.5014582133048662,0.5028097748281986,0.0,0.0,0.0,16,0.5614835813186317,0,1735643777088270664,map,0.9622161283735852,0.0535924454023784,0.0280420374799191,-0.4981316845927439,0.4975877896688759,-0.4928315939470966,0.5112614168747739,0.0,0.0,0.0,17,2.9764166370315688e-09,0,1735643777088284730,map,0.9653083209782136,-0.2571303871769961,0.2393413136745063,-0.4910192499901113,0.5068859878663445,-0.4924891345117164,0.5093340199042368,0.0,0.0,0.0,121,0.1547367637255736,0,1735643777088297367,map,0.999445764913155,0.2089889224438593,0.2459496819762106,-0.4951500781656571,0.4962494959472093,-0.5056076910581285,0.5029152022036646,0.0,0.0,0.0,122,2.1823492520203433e-26,0,1735643777088310956,map,1.0012825708651434,0.2102513233587506,0.1462737550988362,-0.4892103146577686,0.5079307830557764,-0.4810096513769301,0.5208735959319091,0.0,0.0,0.0,124,9.913343784187612e-23,0,1735643777088322877,map,0.9583054484370122,-0.027223012527106,0.2453390408304794,-0.5103268441414954,0.5117259626054859,-0.4877973650168317,0.489649652329813,0.0,0.0,0.0,125,2.159582658080261e-09,0,1735643777088343858,map,0.9585375769100962,-0.0208035634586812,0.1482341120629805,0.5076499941948697,-0.5008227304450918,0.4981598410138407,-0.4932594133562346,0.0,0.0,0.0,126,1.5606828211669696e-07,0,1735644242188269615,map,0.9725488570868532,0.3264452355847295,0.0283655561644267,-0.498462453991667,0.4921816875310753,-0.4834963620365701,0.5249034542819,0.0,0.0,0.0,0,1.51425377419039e-29,0.9410815530716556,-0.3100630094925636,0.1538539742835017,1.0,3.0306947089401253e-05,0.0001610397328858,-0.0004885312904607,0.0,0.0,0.0,0.0001610397328858,0.0039284368839259,-0.0032464535111499,0.0,0.0,0.0,-0.0004885312904607,-0.0032464535111499,0.0080126012689909,0.0,0.0,0.0,0.0,0.0,0.0,0.0,0.0,0.0,0.0,0.0,0.0,0.0,0.0,0.0,0.0,0.0,0.0,0.0,0.0,0.0,0,0,0,1,24,,16
2.400813113,0,1735643777088230371,map,0.9584799810097414,-0.2238751259831965,0.0258134278640659,-0.4840868202827899,0.4941884195021745,-0.5009203868116594,0.5201120288311917,0.0,0.0,0.0,1,0.2644033760445905,0,1735643777088253974,map,0.9493564089241224,-0.2535096672915148,0.1525247179107863,-0.4954846630148735,0.4953827597108531,-0.499181634516612,0.5098122849241866,0.0,0.0,0.0,16,0.5667005623471468,0,1735643777088270664,map,0.9622161283735852,0.0535924454023784,0.0280420374799191,-0.4981316845927439,0.4975877896688759,-0.4928315939470966,0.5112614168747739,0.0,0.0,0.0,17,1.9885960261907243e-08,0,1735643777088284730,map,0.9645812191738384,-0.2565537275012012,0.2400648662130462,-0.4821859273205089,0.4996520731974911,-0.5008478345575941,0.5167165411156089,0.0,0.0,0.0,121,0.16889525645579612,0,1735643777088297367,map,0.999445764913155,0.2089889224438593,0.2459496819762106,-0.4951500781656571,0.4962494959472093,-0.5056076910581285,0.5029152022036646,0.0,0.0,0.0,122,6.233313022575364e-24,0,1735643777088310956,map,1.0012825708651434,0.2102513233587506,0.1462737550988362,-0.4892103146577686,0.5079307830557764,-0.4810096513769301,0.5208735959319091,0.0,0.0,0.0,124,1.4097040438504027e-20,0,1735643777088322877,map,0.9546074853963836,-0.0277967610687329,0.2460341286906735,0.5125955885748036,-0.5074178021152025,0.485686059730376,-0.4938440928611067,0.0,0.0,0.0,125,1.562430301504652e-08,0,1735643777088343858,map,0.9552188865851232,-0.0210437545896921,0.1495731899286726,-0.4970827390000557,0.4934284476279847,-0.5051150852182948,0.5042775707331771,0.0,0.0,0.0,126,7.696422032348895e-07,0,1735644242188269615,map,0.9725488570868532,0.3264452355847295,0.0283655561644267,-0.498462453991667,0.4921816875310753,-0.4834963620365701,0.5249034542819,0.0,0.0,0.0,0,8.236982073444797e-27,0.9410327356018376,-0.3062055998217158,0.1537692439080607,1.0,2.915186469445173e-05,0.000150078728046,-0.0004688907671011,0.0,0.0,0.0,0.000150078728046,0.0041284100334189,-0.0031244395251753,0.0,0.0,0.0,-0.0004688907671011,-0.0031244395251753,0.0076922695199078,0.0,0.0,0.0,0.0,0.0,0.0,0.0,0.0,0.0,0.0,0.0,0.0,0.0,0.0,0.0,0.0,0.0,0.0,0.0,0.0,0.0,0,0,0,1,25,,16
2.499956779,0,1735643777088230371,map,0.9584799810097414,-0.2238751259831965,0.0258134278640659,-0.4840868202827899,0.4941884195021745,-0.5009203868116594,0.5201120288311917,0.0,0.0,0.0,1,0.249046239406035,0,1735643777088253974,map,0.9513807412820032,-0.2545665907090977,0.1524868523581801,-0.4957248645716393,0.5125730341665887,-0.5001556780057452,0.4912942509833597,0.0,0.0,0.0,16,0.5810940220886451,0,1735643777088270664,map,0.9622161283735852,0.0535924454023784,0.0280420374799191,-0.4981316845927439,0.4975877896688759,-0.4928315939470966,0.5112614168747739,0.0,0.0,0.0,17,1.7301455638568243e-08,0,1735643777088284730,map,0.9624419101120762,-0.2572792306784268,0.2410310711073784,-0.4845817430882071,0.5060629041639058,-0.4986932781698966,0.5102802030286411,0.0,0.0,0.0,121,0.16985903089276516,0,1735643777088297367,map,0.999445764913155,0.2089889224438593,0.2459496819762106,-0.4951500781656571,0.4962494959472093,-0.5056076910581285,0.5029152022036646,0.0,0.0,0.0,122,4.5340111519901526e-24,0,1735643777088310956,map,1.0012825708651434,0.2102513233587506,0.1462737550988362,-0.4892103146577686,0.5079307830557764,-0.4810096513769301,0.5208735959319091,0.0,0.0,0.0,124,1.044634320811401e-20,0,1735643777088322877,map,0.954790048372514,-0.0269241607147523,0.2469473182389115,0.5066088293669282,-0.5046051622710406,0.4909573029532437,-0.4976766529522598,0.0,0.0,0.0,125,1.3060517771031828e-08,0,1735643777088343858,map,0.9561515548045056,-0.0199276803443133,0.1493562921438112,-0.5017364113770895,0.4944554009053006,-0.5010961598607863,0.5026699400071505,0.0,0.0,0.0,126,6.772505811728586e-07,0,1735644242188269615,map,0.9725488570868532,0.3264452355847295,0.0283655561644267,-0.498462453991667,0.4921816875310753,-0.4834963620365701,0.5249034542819,0.0,0.0,0.0,0,4.734457736360272e-27,0.9409746585445186,-0.304710035907979,0.1543234231358533,1.0,2.8114962743951444e-05,0.0001421350204964,-0.0004516611342975,0.0,0.0,0.0,0.0001421350204964,0.0040255428176353,-0.0029835485128363,0.0,0.0,0.0,-0.0004516611342975,-0.0029835485128363,0.0074040908653243,0.0,0.0,0.0,0.0,0.0,0.0,0.0,0.0,0.0,0.0,0.0,0.0,0.0,0.0,0.0,0.0,0.0,0.0,0.0,0.0,0.0,0,0,0,1,26,,16
